     2.11           OBSERVATION DATA    Mixed(MIXED)        RINEX VERSION / TYPE
cnvtToRINEX 3.14.0  convertToRINEX OPR  20230925 142328 UTC PGM / RUN BY / DATE 
----------------------------------------------------------- COMMENT             
1                                                           MARKER NAME         
                                                            MARKER NUMBER       
GNSS Observer       Trimble                                 OBSERVER / AGENCY   
6311F00980          TRIMBLE R12i        6.21                REC # / TYPE / VERS 
                    TRMR12I         NONE                    ANT # / TYPE        
   110009.1625 -4346693.7466  4650946.4524                  APPROX POSITION XYZ 
        0.6596        0.0000        0.0000                  ANTENNA: DELTA H/E/N
     1     1     0                                          WAVELENGTH FACT L1/2
     9    C1    C2    C5    C8    L1    L2    L5    L8    P2# / TYPES OF OBSERV 
    15.000                                                  INTERVAL            
  2023     9    21    18    37   30.0000000     GPS         TIME OF FIRST OBS   
  2023     9    21    20    48    0.0000000     GPS         TIME OF LAST OBS    
     0                                                      RCV CLOCK OFFS APPL 
    18                                                      LEAP SECONDS        
    36                                                      # OF SATELLITES     
   E02   292     0     0   292   292     0     0   292     0PRN / # OF OBS      
   E03   499     0     0   499   499     0     0   499     0PRN / # OF OBS      
   E05   151     0     0   147   151     0     0   147     0PRN / # OF OBS      
   E07   279     0     0   279   279     0     0   279     0PRN / # OF OBS      
   E08   523     0     0   523   523     0     0   523     0PRN / # OF OBS      
   E13   523     0     0   523   523     0     0   523     0PRN / # OF OBS      
   E15   450     0     0   450   450     0     0   450     0PRN / # OF OBS      
   E24   353     0     0   354   350     0     0   354     0PRN / # OF OBS      
   E25   300     0     0   306   299     0     0   306     0PRN / # OF OBS      
   E26   386     0     0   386   386     0     0   386     0PRN / # OF OBS      
   E34    27     0     0    27    27     0     0    27     0PRN / # OF OBS      
   G02   523     0     0     0   523   523     0     0   523PRN / # OF OBS      
   G03    66    66    66     0    66    66    66     0     0PRN / # OF OBS      
   G10   523   523   523     0   523   523   523     0     0PRN / # OF OBS      
   G12   245   245     0     0   245   245     0     0     0PRN / # OF OBS      
   G18    36    36    36     0    36    36    36     0     0PRN / # OF OBS      
   G21   523     0     0     0   523   523     0     0   523PRN / # OF OBS      
   G23   403   403   403     0   403   403   403     0     0PRN / # OF OBS      
   G24   279   279   279     0   279   279   279     0     0PRN / # OF OBS      
   G25   353   334   347     0   352   334   347     0     0PRN / # OF OBS      
   G28   523   523   523     0   523   523   523     0     0PRN / # OF OBS      
   G31   292   292     0     0   292   292     0     0     0PRN / # OF OBS      
   G32   523   523   523     0   523   523   523     0     0PRN / # OF OBS      
   R01    75    75     0     0    75    75     0     0     0PRN / # OF OBS      
   R06   151     0     0     0   151     0     0     0     0PRN / # OF OBS      
   R07   523   523     0     0   523   523     0     0     0PRN / # OF OBS      
   R08   523   523     0     0   523   523     0     0     0PRN / # OF OBS      
   R09   523   523     0     0   523   523     0     0     0PRN / # OF OBS      
   R10   347     0     0     0   347     0     0     0     0PRN / # OF OBS      
   R11    19    19     0     0    19    19     0     0     0PRN / # OF OBS      
   R15    76    76     0     0    76    76     0     0     0PRN / # OF OBS      
   R16   473   466     0     0   473   465     0     0     0PRN / # OF OBS      
   R21    59    59     0     0    59    59     0     0     0PRN / # OF OBS      
   R22   324   324     0     0   324   324     0     0     0PRN / # OF OBS      
   R23   523     0     0     0   523     0     0     0     0PRN / # OF OBS      
   R24   339   339     0     0   339   339     0     0     0PRN / # OF OBS      
CARRIER PHASE MEASUREMENTS: PHASE SHIFTS REMOVED            COMMENT             
                                                            END OF HEADER       
 23  9 21 18 37 30.0000000  0 20E08E13E15G02G10G18G21G23G24G28G32R06
                                R07R08R09R15R16R21R22R23
  24809906.708 7                                                 130376938.98917
                                                
  24777885.674 6                                                 130208669.41016
                                                
  24136348.092 7                                                 126837364.11717
                                                
  24387748.419 5                                                 128158474.97615
  99863787.32356                                  24387756.72246
  20218156.697 8  20218164.857 9  20218158.062 9                 106247126.07718
  82790001.49719  79340392.45019                
  24217061.794 3  24217075.186 9  24217075.446 9                 127261504.09613
  99164858.26819  95032987.00519                
  23514726.943 5                                                 123570717.96015
  96288907.76657                                  23514733.99747
  21033888.273 6  21033895.245 9  21033893.749 9                 110533819.67816
  86130278.99219  82541515.14719                
  21931148.635 6  21931159.499 9  21931155.262 9                 115248958.93616
  89804429.06319  86062561.01219                
  24406697.544 5  24406709.753 9  24406710.700 9                 128258077.81015
  99941719.95819  95777183.88419                
  21398900.750 7  21398909.415 9  21398904.055 9                 112451980.66417
  87624960.66419  83973894.17319                
  20216349.410 3                                                 107878310.16413
                                                
  19759989.614 8  19759993.060 9                                 105776771.26718
  82270986.23219                                
  22874970.258 4  22874975.899 9                                 122494437.01414
  95273466.27119                                
  22518351.611 6  22518358.616 9                                 120246750.46116
  93525287.66019                                
  22912588.705 6  22912596.691 8                                 122437924.93216
  95229379.53518                                
  21083684.109 4  21083688.871 8                                 112625250.67314
  87597333.88518                                
  22727754.150 6  22727760.276 9                                 121620792.65716
  94593960.77319                                
  20390613.400 7  20390616.356 9                                 108846474.73717
  84658381.87119                                
  21638136.039 6                                                 115749451.48816
                                                
 23  9 21 18 37 45.0000000  0 20E08E13E15G02G10G18G21G23G24G28G32R06
                                R07R08R09R15R16R21R22R23
  24803846.691 7                                                 130345093.627 7
                                                
  24773703.511 6                                                 130186692.243 6
                                                
  24140690.766 7                                                 126860185.351 7
                                                
  24379397.449 4                                                 128114587.909 4
  99829589.66946                                  24379405.12646
  20215975.596 8  20215983.766 9  20215976.932 9                 106235664.969 8
  82781070.744 9  79331833.809 9                
  24227476.072 4  24227488.131 9  24227489.742 9                 127316228.827 4
  99207500.733 9  95073852.641 9                
  23508369.108 4                                                 123537310.311 4
  96262875.82946                                  23508376.65446
  21038730.973 7  21038738.002 9  21038736.623 9                 110559268.073 7
  86150108.889 9  82560518.767 9                
  21937177.409 6  21937188.205 9  21937183.769 9                 115280637.891 6
  89829113.942 9  86086217.341 9                
  24394809.072 5  24394820.967 9  24394821.817 9                 128195602.645 5
  99893038.166 9  95730530.485 9                
  21392845.804 7  21392854.263 9  21392849.146 9                 112420161.750 7
  87600166.722 9  83950133.320 9                
  20220798.416 3                                                 107902053.872 3
                                                
  19755924.673 8  19755928.435 9                                 105755012.115 8
  82254062.463 9                                
  22865545.403 2  22865551.961 9                                 122443971.316 2
  95234215.253 9                                
  22506295.873 6  22506302.904 9                                 120182373.782 6
  93475216.986 9                                
  22918893.929 6  22918901.902 8                                 122471620.224 6
  95255586.961 8                                
  21079803.618 5  21079808.265 8                                 112604522.951 5
  87581212.368 8                                
  22739508.604 6  22739515.381 9                                 121683692.237 6
  94642882.515 9                                
  20395252.006 7  20395255.070 9                                 108871236.268 7
  84677640.831 9                                
  21631120.812 6                                                 115711922.370 6
                                                
 23  9 21 18 38  0.0000000  0 20E08E13E15G02G10G18G21G23G24G28G32R06
                                R07R08R09R15R16R21R22R23
  24797787.776 7                                                 130313253.818 7
                                                
  24769532.915 6                                                 130164775.901 6
                                                
  24145043.812 7                                                 126883060.396 7
                                                
  24371052.669 5                                                 128070737.764 5
  99795420.71346                                  24371060.29646
  20213805.461 8  20213813.587 9  20213806.822 9                 106224260.919 8
  82772184.479 9  79323317.800 9                
  24237885.866 4  24237898.068 9  24237899.431 9                 127370933.489 4
  99250127.654 9  95114703.354 9                
  23502023.029 5                                                 123503958.689 5
  96236887.59947                                  23502029.55547
  21043582.853 6  21043590.295 9  21043589.067 9                 110584766.149 6
  86169977.482 9  82579559.512 9                
  21943221.626 6  21943232.210 9  21943227.881 9                 115312401.003 6
  89853864.381 9  86109936.500 9                
  24382915.167 5  24382927.060 9  24382928.025 9                 128133101.683 5
  99844336.206 9  95683857.827 9                
  21386797.614 7  21386806.191 9  21386800.826 9                 112388378.667 7
  87575400.688 9  83926399.210 9                
  20225253.760 3                                                 107925826.688 3
                                                
  19751867.950 8  19751870.988 9                                 105733294.821 8
  82237171.243 9                                
  22856120.162 3  22856124.520 9                                 122393492.340 3
  95194953.872 9                                
  22494243.035 6  22494250.531 9                                 120118013.721 6
  93425159.241 9                                
  22925220.841 5  22925228.789 8                                 122505429.780 5
  95281883.182 8                                
  21075952.977 5  21075957.405 8                                 112583951.139 5
  87565212.131 8                                
  22751263.070 6  22751269.400 9                                 121746591.628 6
  94691804.130 9                                
  20399917.578 7  20399920.676 9                                 108896141.741 7
  84697011.700 9                                
  21624130.958 6                                                 115674532.495 6
                                                
 23  9 21 18 38 15.0000000  0 20E08E13E15G02G10G18G21G23G24G28G32R06
                                R07R08R09R15R16R21R22R23
  24791730.735 7                                                 130281423.852 7
                                                
  24765374.888 6                                                 130142924.827 6
                                                
  24149407.764 7                                                 126905993.403 7
                                                
  24362716.319 5                                                 128026929.128 5
  99761284.13046                                  24362723.31746
  20211647.086 8  20211655.148 9  20211648.415 9                 106212918.417 8
  82763346.158 9  79314847.746 9                
  24248292.838 5  24248306.340 9  24248306.059 9                 127425622.127 5
  99292742.031 9  95155542.088 9                
  23495687.881 5                                                 123470667.672 5
  96210946.58347                                  23495694.89347
  21048445.098 6  21048452.524 9  21048451.543 9                 110610318.160 6
  86189888.105 9  82598640.513 9                
  21949282.573 6  21949293.500 9  21949289.050 9                 115344252.147 6
  89878683.453 9  86133721.430 9                
  24371017.654 5  24371029.841 9  24371030.197 9                 128070579.461 5
  99795617.705 9  95637169.297 9                
  21380757.424 7  21380765.536 9  21380760.540 9                 112356635.732 7
  87550665.950 9  83902695.093 9                
  20229715.450 3                                                 107949632.787 3
                                                
  19747819.030 8  19747822.861 9                                 105711623.521 8
  82220315.802 9                                
  22846690.472 4  22846696.175 8                                 122343004.474 4
  95155685.637 8                                
  22482194.498 6  22482201.845 9                                 120053675.204 6
  93375118.334 9                                
  22931570.505 5  22931578.787 8                                 122539357.579 5
  95308271.462 8                                
  21072130.783 5  21072136.102 8                                 112563539.716 5
  87549336.616 8                                
  22763018.041 6  22763024.285 9                                 121809494.851 6
  94740728.762 9                                
  20404611.065 7  20404613.823 9                                 108921195.186 7
  84716497.695 9                                
  21617168.390 6                                                 115637286.656 6
                                                
 23  9 21 18 38 30.0000000  0 20E08E13E15G02G10G18G21G23G24G28G32R06
                                R07R08R09R15R16R21R22R23
  24785674.977 7                                                 130249602.555 7
                                                
  24761228.788 6                                                 130121137.992 6
                                                
  24153782.493 7                                                 126928983.087 7
                                                
  24354387.516 6                                                 127983161.141 6
  99727179.24547                                  24354394.54047
  20209500.224 8  20209508.193 9  20209501.544 9                 106201636.497 8
  82754555.059 9  79306422.933 9                
  24258696.477 4  24258710.144 9  24258709.999 9                 127480293.206 4
  99335342.751 9  95196367.788 9                
  23489364.158 5                                                 123437436.203 5
  96185051.94347                                  23489370.94647
  21053317.841 7  21053325.079 9  21053323.799 9                 110635922.869 7
  86209839.796 9  82617760.875 9                
  21955360.432 6  21955371.054 9  21955366.359 9                 115376189.996 6
  89903570.021 9  86157571.079 9                
  24359115.868 5  24359127.586 9  24359128.613 9                 128008035.151 5
  99746882.008 9  95590464.251 9                
  21374724.183 7  21374732.795 9  21374727.573 9                 112324931.863 7
  87525961.667 9  83879020.161 9                
  20234182.487 3                                                 107973471.049 3
                                                
  19743779.689 8  19743783.007 9                                 105689997.431 8
  82203495.526 9                                
  22837260.578 5  22837266.764 8                                 122292506.776 5
  95116409.705 8                                
  22470149.662 6  22470156.789 9                                 119989357.703 6
  93325093.735 9                                
  22937940.850 5  22937949.674 8                                 122573401.692 5
  95334750.229 8                                
  21068339.719 5  21068345.282 8                                 112543287.951 5
  87533585.281 8                                
  22774773.457 6  22774780.162 9                                 121872400.125 6
  94789654.922 9                                
  20409331.674 7  20409335.152 9                                 108946395.159 7
  84736097.646 9                                
  21610232.442 6                                                 115600184.263 6
                                                
 23  9 21 18 38 45.0000000  0 21E08E13E15E24G02G10G18G21G23G24G28G32
                                R06R07R08R09R15R16R21R22R23
  24779621.189 7                                                 130217789.894 7
                                                
  24757094.820 6                                                 130099415.488 6
                                                
  24158167.964 7                                                 126952029.224 7
                                                
  27351416.843 5                                                 143732667.47915
                                                
  24346065.966 5                                                 127939433.933 5
  99693106.12147                                  24346073.45747
  20207365.064 8  20207372.807 9  20207366.133 9                 106190415.172 8
  82745811.167 9  79298043.366 9                
  24269096.445 4  24269110.168 9  24269110.460 9                 127534946.434 4
  99377929.459 9  95237180.021 9                
  23483051.912 5                                                 123404264.383 5
  96159203.82846                                  23483058.59646
  21058200.118 7  21058207.562 9  21058206.221 9                 110661580.148 7
  86229832.427 9  82636920.486 9                
  21961454.055 6  21961465.075 9  21961460.463 9                 115408214.007 6
  89928523.762 9  86181485.069 9                
  24347209.818 4  24347221.600 9  24347222.137 9                 127945468.974 4
  99698129.244 9  95543742.891 9                
  21368698.540 7  21368706.990 9  21368702.072 9                 112293266.981 7
  87501287.739 9  83855374.338 9                
  20238655.453 4                                                 107997341.148 4
                                                
  19739747.899 8  19739751.365 9                                 105668416.326 8
  82186710.248 9                                
  22827828.101 5  22827834.485 9                                 122241998.883 5
  95077125.868 9                                
  22458108.959 6  22458116.118 9                                 119925061.645 6
  93275085.827 9                                
  22944333.689 6  22944341.981 8                                 122607562.170 6
  95361319.387 8                                
  21064578.786 6  21064584.794 8                                 112523195.927 6
  87517958.147 8                                
  22786528.936 6  22786536.073 9                                 121935306.566 6
  94838582.067 9                                
  20414080.110 7  20414083.222 9                                 108971741.172 7
  84755811.189 9                                
  21603323.482 6                                                 115563225.485 6
                                                
 23  9 21 18 39  0.0000000  0 21E08E13E15E24G02G10G18G21G23G24G28G32
                                R06R07R08R09R15R16R21R22R23
  24773569.615 7                                                 130185987.628 7
                                                
  24752974.280 6                                                 130077759.191 6
                                                
  24162564.359 7                                                 126975133.419 7
                                                
  27347924.794 5                                                 143714314.749 5
                                                
  24337753.516 5                                                 127895749.619 5
  99659066.42747                                  24337760.57747
  20205241.538 8  20205249.528 9  20205242.684 9                 106179256.543 8
  82737116.121 9  79289710.619 9                
  24279493.633 4  24279507.198 9  24279507.581 9                 127589583.078 4
  99420503.338 9  95277979.943 9                
  23476751.084 5                                                 123371154.214 5
  96133403.73247                                  23476758.12947
  21063092.904 6  21063100.652 9  21063099.070 9                 110687291.669 6
  86249867.341 9  82656120.615 9                
  21967564.958 5  21967576.246 9  21967571.187 9                 115440325.623 5
  89953545.779 9  86205464.492 9                
  24335299.661 4  24335311.915 9  24335312.560 9                 127882883.016 4
  99649361.075 9  95497006.721 9                
  21362680.655 7  21362688.952 9  21362684.177 9                 112261642.945 7
  87476645.647 9  83831759.010 9                
  20243135.568 4                                                 108021244.983 4
                                                
  19735725.464 8  19735728.990 9                                 105646882.198 8
  82169961.477 9                                
  22818394.487 5  22818400.766 8                                 122191482.812 5
  95037835.640 8                                
  22446073.236 6  22446079.486 9                                 119860789.349 6
  93225096.312 9                                
  22950748.709 5  22950757.770 8                                 122641840.048 5
  95387979.940 8                                
  21060847.377 6  21060852.458 8                                 112503265.580 6
  87502456.779 8                                
  22798285.207 6  22798291.993 9                                 121998215.748 6
  94887511.237 9                                
  20418856.064 7  20418859.020 9                                 108997234.660 7
  84775639.426 9                                
  21596441.598 6                                                 115526412.757 6
                                                
 23  9 21 18 39 15.0000000  0 21E08E13E15E24G02G10G18G21G23G24G28G32
                                R06R07R08R09R15R16R21R22R23
  24767519.537 7                                                 130154195.324 7
                                                
  24748865.763 6                                                 130056168.832 6
                                                
  24166972.399 7                                                 126998295.077 7
                                                
  27344444.267 5                                                 143696025.274 5
                                                
  24329448.522 5                                                 127852108.097 5
  99625060.06847                                  24329455.86147
  20203129.786 8  20203137.785 9  20203131.206 9                 106168160.113 8
  82728469.557 9  79281424.327 9                
  24289887.084 4  24289900.841 9  24289901.467 9                 127644202.512 4
  99463063.761 9  95318766.986 9                
  23470462.072 4                                                 123338105.481 4
  96107651.49247                                  23470469.06747
  21067996.256 6  21068003.559 9  21068002.116 9                 110713056.945 6
  86269944.148 9  82675360.886 9                
  21973691.927 5  21973703.378 9  21973698.171 9                 115472524.127 5
  89978635.457 9  86229508.771 9                
  24323386.148 4  24323398.606 9  24323399.246 9                 127820277.082 4
  99600577.362 9  95450255.673 9                
  21356670.396 7  21356678.919 9  21356674.011 9                 112230059.313 7
  87452035.055 9  83808173.857 9                
  20247621.043 3                                                 108045181.713 3
                                                
  19731711.206 8  19731715.259 9                                 105625394.481 8
  82153248.820 9                                
  22808960.020 5  22808965.260 9                                 122140958.195 5
  94998538.747 9                                
  22434041.169 6  22434047.786 9                                 119796541.074 6
  93175125.561 9                                
  22957184.869 4  22957194.071 8                                 122676234.438 4
  95414731.038 8                                
  21057146.787 5  21057152.339 8                                 112483496.605 5
  87487080.952 8                                
  22810041.664 6  22810048.811 9                                 122061126.506 6
  94936441.703 9                                
  20423659.056 7  20423662.082 9                                 109022874.777 7
  84795581.739 9                                
  21589587.004 6                                                 115489745.843 6
                                                
 23  9 21 18 39 30.0000000  0 21E08E13E15E24G02G10G18G21G23G24G28G32
                                R06R07R08R09R15R16R21R22R23
  24761471.539 7                                                 130122410.538 7
                                                
  24744769.174 6                                                 130034642.097 6
                                                
  24171390.388 7                                                 127021511.642 7
                                                
  27340975.573 6                                                 143677796.835 6
                                                
  24321151.736 5                                                 127808507.002 5
  99591085.22947                                  24321158.64847
  20201029.778 8  20201037.621 9  20201031.051 9                 106157123.512 8
  82719869.609 9  79273182.716 9                
  24300277.733 5  24300290.939 9  24300291.263 8                 127698801.843 5
  99505608.544 9  95359539.053 8                
  23464183.985 5                                                 123305116.001 5
  96081945.41647                                  23464191.06847
  21072908.802 6  21072915.972 9  21072914.895 9                 110738873.451 6
  86290060.876 9  82694639.409 9                
  21979835.362 6  21979846.367 9  21979841.204 9                 115504806.702 6
  90003790.676 9  86253615.843 9                
  24311468.457 4  24311480.397 9  24311481.666 9                 127757649.067 4
  99551776.431 9  95403488.131 9                
  21350667.301 7  21350675.931 9  21350670.898 9                 112198513.699 7
  87427454.080 9  83784617.092 9                
  20252112.875 4                                                 108069148.863 4
                                                
  19727705.143 8  19727709.182 9                                 105603950.595 8
  82136570.248 9                                
  22799522.499 5  22799528.571 8                                 122090422.539 5
  94959233.354 8                                
  22422014.155 6  22422020.661 9                                 119732314.863 6
  93125171.965 9                                
  22963642.849 5  22963651.491 8                                 122710742.506 5
  95441570.592 8                                
  21053475.552 4  21053481.000 8                                 112463886.866 4
  87471828.986 8                                
  22821797.956 6  22821805.297 9                                 122124036.005 6
  94985371.144 9                                
  20428489.365 8  20428492.536 9                                 109048658.711 8
  84815635.862 9                                
  21582759.667 6                                                 115453222.521 6
                                                
 23  9 21 18 39 45.0000000  0 21E08E13E15E24G02G10G18G21G23G24G28G32
                                R06R07R08R09R15R16R21R22R23
  24755424.896 7                                                 130090636.202 7
                                                
  24740685.615 6                                                 130013182.029 6
                                                
  24175819.382 7                                                 127044785.874 7
                                                
  27337518.640 6                                                 143659632.381 6
                                                
  24312863.015 4                                                 127764949.729 4
  99557144.51946                                  24312869.45646
  20198941.561 8  20198949.440 9  20198942.834 9                 106146149.813 8
  82711318.665 9  79264988.072 9                
  24310664.309 5  24310678.318 9  24310678.104 8                 127753383.789 5
  99548139.768 9  95400298.146 8                
  23457918.372 5                                                 123272188.795 5
  96056287.90647                                  23457925.50847
  21077831.521 6  21077839.085 9  21077837.492 9                 110764744.034 6
  86310219.752 9  82713958.329 9                
  21985994.988 6  21986006.224 9  21986000.987 9                 115537175.918 6
  90029013.428 9  86277787.633 9                
  24299546.840 5  24299559.319 9  24299560.353 9                 127695002.152 5
  99502960.776 9  95356706.493 9                
  21344672.099 7  21344681.059 9  21344675.719 9                 112167009.028 7
  87402904.993 9  83761090.903 9                
  20256610.791 3                                                 108093149.145 3
                                                
  19723708.321 8  19723712.009 9                                 105582553.787 8
  82119928.288 9                                
  22790083.985 5  22790089.390 8                                 122039878.682 5
  94919921.515 8                                
  22409990.914 6  22409997.744 9                                 119668113.889 6
  93075238.019 9                                
  22970122.337 5  22970130.641 8                                 122745366.797 5
  95468500.554 8                                
  21049834.358 5  21049841.136 8                                 112444439.556 5
  87456703.345 8                                
  22833554.148 6  22833560.963 9                                 122186946.432 6
  95034301.305 9                                
  20433346.975 7  20433350.257 9                                 109074589.005 7
  84835803.875 9                                
  21575959.410 6                                                 115416846.233 6
                                                
 23  9 21 18 40  0.0000000  0 22E08E13E15E24E25G02G10G18G21G23G24G28
                                G32R06R07R08R09R15R16R21R22R23
  24749380.081 7                                                 130058869.659 7
                                                
  24736614.433 6                                                 129991786.138 6
                                                
  24180258.768 7                                                 127068114.965 7
                                                
  27334073.797 6                                                 143641529.402 6
                                                
  27620612.610 4                                                 145147296.75914
                                                
  24304582.281 5                                                 127721433.848 5
  99523236.09147                                  24304588.68047
  20196864.654 8  20196872.565 9  20196866.256 9                 106135236.578 8
  82702814.847 9  79256838.581 9                
  24321047.257 5  24321061.141 9  24321060.875 8                 127807945.274 5
  99590655.052 9  95441041.972 8                
  23451663.772 5                                                 123239321.348 5
  96030676.94747                                  23451670.96447
  21082764.598 6  21082772.085 9  21082770.393 9                 110790666.010 6
  86330418.667 9  82733315.604 9                
  21992170.743 6  21992181.662 9  21992176.690 9                 115569628.827 6
  90054301.355 9  86302021.894 9                
  24287621.364 4  24287633.742 9  24287634.728 9                 127632334.008 4
  99454128.588 9  95309909.003 9                
  21338684.582 7  21338693.077 9  21338687.847 9                 112135542.689 7
  87378385.783 9  83737593.332 9                
  20261114.136 3                                                 108117180.190 3
                                                
  19719719.252 8  19719723.262 9                                 105561201.202 8
  82103320.729 9                                
  22780642.837 5  22780648.280 9                                 121989324.354 5
  94880601.545 9                                
  22397972.447 6  22397979.765 9                                 119603936.109 6
  93025322.117 9                                
  22976622.805 5  22976631.756 8                                 122780104.332 5
  95495518.628 8                                
  21046224.030 4  21046229.046 8                                 112425152.165 4
  87441702.053 8                                
  22845310.153 6  22845317.999 9                                 122249854.520 6
  95083229.687 9                                
  20438231.625 8  20438234.881 9                                 109100662.641 8
  84856083.326 9                                
  21569186.224 6                                                 115380614.589 6
                                                
 23  9 21 18 40 15.0000000  0 22E08E13E15E24E25G02G10G18G21G23G24G28
                                G32R06R07R08R09R15R16R21R22R23
  24743336.381 7                                                 130027113.048 7
                                                
  24732555.361 6                                                 129970456.683 6
                                                
  24184709.080 7                                                 127091500.896 7
                                                
  27330641.215 6                                                 143623490.156 6
                                                
  27612257.584 4                                                 145103392.399 4
                                                
  24296310.155 5                                                 127677961.686 5
  99489361.75847                                  24296316.76147
  20194799.959 7  20194808.013 9  20194801.616 9                 106124386.084 7
  82694359.925 9  79248735.938 9                
  24331426.885 5  24331440.211 9  24331440.521 9                 127862488.083 5
  99633155.800 9  95481771.816 9                
  23445421.307 5                                                 123206516.070 5
  96005114.42147                                  23445428.63947
  21087707.239 6  21087715.157 9  21087713.980 9                 110816641.362 6
  86350659.179 9  82752712.755 9                
  21998362.790 6  21998373.249 9  21998368.667 9                 115602167.188 6
  90079655.894 9  86326319.991 9                
  24275692.154 4  24275704.281 9  24275705.718 9                 127569647.022 4
  99405281.713 9  95263097.436 9                
  21332704.442 7  21332713.165 9  21332707.886 9                 112104116.840 7
  87353898.150 9  83714126.004 9                
  20265623.073 3                                                 108141243.662 3
                                                
  19715739.273 8  19715743.203 9                                 105539895.018 8
  82086749.274 9                                
  22771200.929 5  22771206.263 8                                 121938761.441 5
  94841274.899 8                                
  22385958.558 6  22385965.972 9                                 119539784.449 6
  92975426.517 9                                
  22983145.335 5  22983153.432 8                                 122814956.790 5
  95522626.022 8                                
  21042643.629 1  21042649.793 8                                 112406026.802 1
  87426826.868 8                                
  22857065.934 6  22857073.100 9                                 122312762.159 6
  95132157.719 9                                
  20443143.486 8  20443146.572 9                                 109126881.360 8
  84876475.639 9                                
  21562440.236 6                                                 115344530.028 6
                                                
 23  9 21 18 40 30.0000000  0 22E08E13E15E24E25G02G10G18G21G23G24G28
                                G32R06R07R08R09R15R16R21R22R23
  24737296.083 7                                                 129995370.860 7
                                                
  24728509.861 6                                                 129949198.298 6
                                                
  24189170.675 7                                                 127114948.009 7
                                                
  27327221.086 6                                                 143605519.230 6
                                                
  27603902.009 4                                                 145059485.117 4
                                                
  24288046.472 5                                                 127634538.037 5
  99455525.19747                                  24288053.76947
  20192748.052 8  20192755.942 9  20192749.654 9                 106113602.951 8
  82685957.486 9  79240683.603 9                
  24341803.253 4  24341816.477 8  24341816.776 9                 127917016.433 4
  99675645.259 8  95522490.836 9                
  23439191.580 6                                                 123173777.769 6
  95979604.09547                                  23439198.60047
  21092661.442 6  21092669.136 9  21092667.776 9                 110842674.560 6
  86370944.766 9  82772153.097 9                
  22004571.558 6  22004582.167 9  22004577.303 9                 115634795.143 6
  90105080.249 9  86350684.995 9                
  24263760.789 4  24263772.874 9  24263773.989 9                 127506946.004 4
  99356423.891 9  95216275.384 9                
  21326732.782 7  21326741.527 9  21326736.217 9                 112072736.048 7
  87329445.577 9  83690692.320 9                
  20270139.916 3                                                 108165344.193 3
                                                
  19711768.398 8  19711772.242 9                                 105518639.781 8
  82070217.428 9                                
  22761757.707 5  22761762.287 9                                 121888194.964 5
  94801945.498 9                                
  22373950.339 5  22373957.118 9                                 119475663.860 5
  92925555.066 9                                
  22989689.941 5  22989697.930 8                                 122849928.177 5
  95549825.965 8                                
  21039094.873 2  21039099.042 8                                 112387068.652 2
  87412081.563 8                                
  22868822.771 6  22868830.391 9                                 122375673.110 6
  95181088.334 9                                
  20448082.808 8  20448086.050 9                                 109153249.383 8
  84896984.098 9                                
  21555723.149 6                                                 115308597.762 6
                                                
 23  9 21 18 40 45.0000000  0 22E08E13E15E24E25G02G10G18G21G23G24G28
                                G32R06R07R08R09R15R16R21R22R23
  24731259.150 7                                                 129963645.577 7
                                                
  24724478.702 6                                                 129928013.552 6
                                                
  24193644.742 7                                                 127138458.651 7
                                                
  27323814.596 6                                                 143587619.317 6
                                                
  27595546.504 4                                                 145015577.589 4
                                                
  24279792.820 5                                                 127591165.663 5
  99421728.60347                                  24279800.52247
  20190709.256 8  20190717.379 9  20190710.919 9                 106102889.622 8
  82677609.430 9  79232683.383 9                
  24352177.608 3  24352190.545 8  24352190.771 8                 127971532.478 3
  99718125.141 8  95563200.682 8                
  23432974.835 6                                                 123141109.088 6
  95954147.99647                                  23432981.81347
  21097626.565 6  21097634.438 9  21097633.211 9                 110868767.980 6
  86391277.263 9  82791638.410 9                
  22010798.021 6  22010808.818 9  22010804.118 9                 115667514.851 6
  90130576.094 9  86375118.513 9                
  24251826.659 4  24251839.273 9  24251840.241 9                 127444233.699 4
  99307557.308 9  95169444.943 9                
  21320770.292 7  21320779.111 9  21320773.707 9                 112041402.665 7
  87305029.968 9  83667294.028 9                
  20274663.745 3                                                 108189484.085 3
                                                
  19707807.690 8  19707812.054 9                                 105497438.346 8
  82053727.438 9                                
  22752314.492 5  22752319.971 9                                 121837627.104 5
  94762615.008 9                                
  22361949.026 5  22361955.874 9                                 119411577.518 5
  92875710.259 9                                
  22996256.685 5  22996265.312 8                                 122885020.702 5
  95577120.078 8                                
  21035577.895 1  21035583.145 8                                 112368280.249 1
  87397468.438 8                                
  22880580.197 6  22880587.724 9                                 122438589.434 6
  95230023.092 9                                
  20453050.866 8  20453054.245 9                                 109179768.794 8
  84917610.262 9                                
  21549035.141 6                                                 115272820.514 6
                                                
 23  9 21 18 41  0.0000000  0 22E08E13E15E24E25G02G10G18G21G23G24G28
                                G32R06R07R08R09R15R16R21R22R23
  24725224.346 7                                                 129931932.799 7
                                                
  24720460.517 6                                                 129906898.215 6
                                                
  24198129.797 7                                                 127162028.225 7
                                                
  27320421.036 5                                                 143569785.998 5
                                                
  27587190.533 5                                                 144971665.719 5
                                                
  24271547.977 5                                                 127547840.489 5
  99387968.79147                                  24271555.79747
  20188683.082 8  20188691.348 9  20188684.696 9                 106092241.963 8
  82669312.535 9  79224732.202 9                
  24362548.671 2  24362561.397 8  24362562.328 9                 128026031.422 2
  99760591.728 8  95603897.775 9                
  23426770.352 5                                                 123108505.789 5
  95928742.88447                                  23426777.71147
  21102603.060 6  21102610.447 9  21102609.366 9                 110894917.133 6
  86411653.188 9  82811165.327 9                
  22017041.078 6  22017051.707 9  22017046.862 9                 115700321.553 6
  90156139.716 9  86399616.965 9                
  24239890.628 3  24239902.558 9  24239903.437 9                 127381505.981 3
  99258678.743 9  95122603.004 9                
  21314815.948 7  21314824.871 9  21314819.298 9                 112010112.541 7
  87280648.064 9  83643928.050 9                
  20279193.883 3                                                 108213658.853 3
                                                
  19703856.406 8  19703860.376 9                                 105476286.061 8
  82037275.648 9                                
  22742870.058 5  22742874.876 8                                 121787053.676 5
  94723280.167 8                                
  22349953.594 6  22349960.815 9                                 119347521.493 6
  92825889.061 9                                
  23002845.148 4  23002854.395 8                                 122920229.373 4
  95604504.577 8                                
  21032091.725 4  21032096.982 7                                 112349657.549 4
  87382984.141 7                                
  22892337.509 6  22892344.712 9                                 122501506.146 6
  95278958.167 9                                
  20458046.222 8  20458049.363 9                                 109206434.928 8
  84938350.574 9                                
  21542375.185 6                                                 115237193.902 6
                                                
 23  9 21 18 41 15.0000000  0 22E08E13E15E24E25G02G10G18G21G23G24G28
                                G32R06R07R08R09R15R16R21R22R23
  24719192.014 7                                                 129900232.473 7
                                                
  24716455.584 6                                                 129885852.354 6
                                                
  24202625.927 7                                                 127185656.534 7
                                                
  27317040.310 6                                                 143552019.383 6
                                                
  27578833.821 6                                                 144927749.712 6
                                                
  24263313.171 5                                                 127504562.552 5
  99354245.75647                                  24263319.71747
  20186669.709 8  20186677.527 9  20186671.091 9                 106081660.101 8
  82661066.946 9  79216830.168 9                
  24372916.078 2  24372929.549 9  24372929.789 9                 128080512.968 2
  99803044.698 9  95644581.826 9                
  23420578.766 5                                                 123075968.086 5
  95903388.86247                                  23420586.18747
  21107589.274 6  21107596.870 9  21107595.945 9                 110921121.917 6
  86432072.461 9  82830733.797 9                
  22023300.456 6  22023311.088 9  22023306.291 9                 115733214.852 6
  90181770.832 9  86424180.123 9                
  24227950.741 4  24227962.699 9  24227963.528 9                 127318763.139 4
  99209788.328 9  95075749.738 9                
  21308870.027 7  21308878.534 9  21308873.203 9                 111978865.569 7
  87256299.801 9  83620594.293 9                
  20283730.815 4                                                 108237868.251 4
                                                
  19699914.221 8  19699918.201 9                                 105455182.899 8
  82020862.088 9                                
  22733423.944 5  22733430.276 9                                 121736474.684 5
  94683941.071 9                                
  22337963.507 6  22337970.572 9                                 119283496.059 6
  92776091.632 9                                
  23009456.555 5  23009465.289 7                                 122955553.968 5
  95631979.176 7                                
  21028635.899 4  21028641.138 8                                 112331200.606 4
  87368628.770 8                                
  22904095.083 6  22904101.865 9                                 122564422.630 6
  95327893.081 9                                
  20463069.400 7  20463072.152 9                                 109233247.116 7
  84959204.473 9                                
  21535743.338 6                                                 115201718.664 6
                                                
 23  9 21 18 41 30.0000000  0 22E08E13E15E24E25G02G10G18G21G23G24G28
                                G32R06R07R08R09R15R16R21R22R23
  24713162.255 7                                                 129868546.700 7
                                                
  24712464.313 6                                                 129864878.210 6
                                                
  24207133.987 7                                                 127209345.563 7
                                                
  27313672.413 6                                                 143534321.701 6
                                                
  27570476.868 6                                                 144883831.940 6
                                                
  24255086.752 6                                                 127461334.398 6
  99320561.54947                                  24255092.79947
  20184668.747 8  20184676.682 9  20184670.348 9                 106071146.247 8
  82652874.332 9  79208978.915 9                
  24383280.562 3  24383293.700 8  24383294.580 9                 128134978.819 3
  99845485.441 8  95685254.173 9                
  23414400.237 5                                                 123043498.098 5
  95878087.61347                                  23414407.28647
  21112586.993 6  21112594.613 9  21112593.592 9                 110947384.369 6
  86452536.677 9  82850345.330 9                
  22029576.518 6  22029587.503 9  22029582.656 9                 115766196.515 6
  90207470.808 9  86448809.255 9                
  24216008.769 4  24216020.459 9  24216021.137 9                 127256007.528 4
  99160888.006 9  95028886.950 9                
  21302932.520 7  21302941.194 9  21302935.684 9                 111947663.883 7
  87231986.808 9  83597294.349 9                
  20288274.622 3                                                 108262114.373 3
                                                
  19695981.465 8  19695985.676 9                                 105434130.968 8
  82004488.382 9                                
  22723978.375 6  22723984.648 9                                 121685892.290 6
  94644599.259 9                                
  22325979.964 6  22325986.190 9                                 119219503.983 6
  92726320.134 9                                
  23016088.970 5  23016097.222 8                                 122990995.835 5
  95659545.017 8                                
  21025212.005 5  21025217.834 8                                 112312911.534 5
  87354403.948 8                                
  22915852.560 5  22915859.964 9                                 122627340.396 5
  95376829.012 9                                
  20468119.298 7  20468122.722 9                                 109260207.109 7
  84980173.325 9                                
  21529140.359 6                                                 115166397.012 6
                                                
 23  9 21 18 41 45.0000000  0 22E08E13E15E24E25G02G10G18G21G23G24G28
                                G32R06R07R08R09R15R16R21R22R23
  24707136.219 7                                                 129836878.642 7
                                                
  24708487.010 6                                                 129843979.066 6
                                                
  24211654.137 7                                                 127233098.289 7
                                                
  27310318.045 5                                                 143516696.229 5
                                                
  27562119.787 6                                                 144839915.762 6
                                                
  24246870.581 6                                                 127418159.405 6
  99286918.74547                                  24246877.28147
  20182681.825 8  20182689.752 9  20182683.107 9                 106060703.628 8
  82644737.224 9  79201180.860 9                
  24393642.595 4  24393655.880 8  24393656.728 9                 128189431.795 4
  99887916.228 8  95725916.918 9                
  23408234.379 5                                                 123011099.334 5
  95852841.83547                                  23408242.36847
  21117596.498 6  21117603.690 9  21117602.651 9                 110973707.521 6
  86473048.202 9  82870002.199 9                
  22035870.179 6  22035881.275 9  22035876.236 9                 115799269.393 6
  90233241.822 9  86473506.493 9                
  24204064.545 3  24204076.322 9  24204077.339 9                 127193242.630 3
  99111980.423 9  94982017.196 9                
  21297004.126 7  21297013.053 9  21297007.327 9                 111916510.662 7
  87207711.582 9  83574030.600 9                
  20292826.044 4                                                 108286400.342 4
                                                
  19692058.898 8  19692062.355 9                                 105413133.575 8
  81988157.062 9                                
  22714532.054 5  22714538.125 9                                 121635309.300 5
  94605257.037 9                                
  22314002.772 6  22314009.616 9                                 119155548.945 6
  92676577.463 9                                
  23022743.751 4  23022752.615 8                                 123026557.926 4
  95687204.366 8                                
  21021821.268 6  21021825.840 8                                 112294793.691 6
  87340312.267 8                                
  22927611.727 6  22927619.274 9                                 122690262.268 6
  95425768.063 9                                
  20473198.456 7  20473201.563 9                                 109287317.872 7
  85001259.421 9                                
  21522566.595 6                                                 115131232.685 6
                                                
 23  9 21 18 42  0.0000000  0 22E08E13E15E24E25G02G10G18G21G23G24G28
                                G32R06R07R08R09R15R16R21R22R23
  24701113.555 6                                                 129805231.296 6
                                                
  24704524.786 6                                                 129823158.054 6
                                                
  24216186.391 7                                                 127256917.539 7
                                                
  27306978.474 5                                                 143499146.047 5
                                                
  27553763.324 6                                                 144796004.427 6
                                                
  24238665.559 6                                                 127375040.775 6
  99253319.87047                                  24238671.78047
  20180708.648 8  20180716.538 9  20180710.158 9                 106050335.210 8
  82636657.917 9  79193438.187 9                
  24404002.688 4  24404016.573 8  24404017.155 9                 128243874.573 4
  99930339.008 8  95766572.045 9                
  23402083.291 5                                                 122978774.938 5
  95827654.02647                                  23402091.06847
  21122617.442 6  21122624.829 9  21122624.054 9                 111000094.323 6
  86493609.312 9  82889706.589 9                
  22042181.561 6  22042192.472 9  22042187.617 9                 115832436.053 6
  90259085.951 9  86498273.768 9                
  24192119.370 4  24192131.138 9  24192132.569 9                 127130471.627 4
  99063068.108 9  94935142.924 9                
  21291085.548 7  21291094.661 9  21291089.020 9                 111885408.896 7
  87183476.470 9  83550805.279 9                
  20297385.105 4                                                 108310728.949 4
                                                
  19688147.311 8  19688151.275 9                                 105392193.707 8
  81971870.525 9                                
  22705087.390 5  22705092.634 9                                 121584729.457 5
  94565917.224 9                                
  22302033.351 6  22302040.549 9                                 119091634.615 6
  92626866.456 9                                
  23029421.663 5  23029430.703 7                                 123062242.954 5
  95714959.310 7                                
  21018461.618 6  21018466.797 8                                 112276850.385 6
  87326356.314 8                                
  22939371.302 6  22939378.171 9                                 122753190.502 6
  95474712.089 9                                
  20478306.010 7  20478309.477 9                                 109314581.967 7
  85022464.799 9                                
  21516023.090 6                                                 115096228.965 6
                                                
 23  9 21 18 42 15.0000000  0 22E08E13E15E24E25G02G10G18G21G23G24G28
                                G32R06R07R08R09R15R16R21R22R23
  24695094.523 7                                                 129773598.688 7
                                                
  24700576.719 6                                                 129802409.301 6
                                                
  24220730.696 7                                                 127280797.204 7
                                                
  27303651.923 6                                                 143481665.274 6
                                                
  27545406.597 6                                                 144752092.280 6
                                                
  24230469.664 6                                                 127331972.907 6
  99219760.53947                                  24230476.02247
  20178748.429 8  20178756.525 9  20178750.204 9                 106040035.218 8
  82628631.956 9  79185746.629 9                
  24414359.691 5  24414373.428 8  24414374.252 8                 128298300.872 5
  99972748.948 8  95807214.875 8                
  23395945.450 5                                                 122946519.012 5
  95802519.56947                                  23395952.99347
  21127649.815 6  21127657.040 9  21127656.264 9                 111026538.719 6
  86514215.311 9  82909453.999 9                
  22048509.808 6  22048520.610 9  22048515.612 9                 115865690.229 6
  90284998.267 9  86523106.393 9                
  24180172.243 4  24180184.044 9  24180185.387 9                 127067688.927 4
  99014146.658 9  94888259.923 9                
  21285175.702 7  21285185.005 9  21285179.322 9                 111854352.696 7
  87159276.838 9  83527613.986 9                
  20301951.470 4                                                 108335094.199 4
                                                
  19684245.075 8  19684248.783 9                                 105371305.151 8
  81955623.880 9                                
  22695641.463 5  22695646.695 9                                 121534146.571 5
  94526575.029 9                                
  22290071.613 6  22290078.124 9                                 119027755.601 6
  92577182.877 9                                
  23036121.095 5  23036128.008 7                                 123098044.190 5
  95742804.675 7                                
  21015134.479 6  21015139.635 8                                 112259075.858 6
  87312531.723 8                                
  22951130.510 6  22951138.425 9                                 122816118.741 6
  95523656.141 9                                
  20483440.741 7  20483443.432 9                                 109341992.929 7
  85043784.425 9                                
  21509508.388 6                                                 115061380.246 6
                                                
 23  9 21 18 42 30.0000000  0 22E08E13E15E24E25G02G10G18G21G23G24G28
                                G32R06R07R08R09R15R16R21R22R23
  24689076.189 7                                                 129741975.085 7
                                                
  24696641.429 6                                                 129781727.241 6
                                                
  24225285.048 7                                                 127304731.387 7
                                                
  27300337.673 6                                                 143464248.322 6
                                                
  27537049.658 6                                                 144708173.764 6
                                                
  24222282.851 6                                                 127288950.298 6
  99186236.44947                                  24222289.48847
  20176800.523 8  20176808.617 9  20176802.062 9                 106029798.204 8
  82620655.058 9  79178102.101 9                
  24424712.812 4  24424726.832 9  24424727.499 9                 128352704.629 4
 100015141.275 9  95847840.881 9                
  23389819.228 5                                                 122914326.114 5
  95777434.22947                                  23389826.21747
  21132692.017 6  21132698.989 9  21132698.181 9                 111053034.889 6
  86534861.633 9  82929240.055 9                
  22054853.342 6  22054864.433 9  22054859.285 9                 115899025.811 6
  90310974.012 9  86547999.809 9                
  24168221.657 3  24168233.708 9  24168234.848 9                 127004889.116 3
  98965211.872 9  94841364.085 9                
  21279273.499 7  21279282.619 9  21279276.906 9                 111823336.323 7
  87135108.260 9  83504452.437 9                
  20306522.897 3                                                 108359490.041 3
                                                
  19680351.534 8  19680355.294 9                                 105350462.514 8
  81939412.960 9                                
  22686193.065 5  22686198.831 9                                 121483554.757 5
  94487225.918 9                                
  22278114.559 7  22278120.974 9                                 118963906.557 7
  92527522.632 9                                
  23042841.772 5  23042848.676 7                                 123133955.617 5
  95770735.713 7                                
  21011836.749 6  21011841.346 8                                 112241464.484 6
  87298833.999 8                                
  22962889.363 6  22962897.052 9                                 122879040.566 6
  95572595.212 9                                
  20488602.501 7  20488605.176 9                                 109369544.631 7
  85065213.491 9                                
  21503021.626 6                                                 115026680.986 6
                                                
 23  9 21 18 42 45.0000000  0 23E08E13E15E24E25E34G02G10G18G21G23G24
                                G28G32R06R07R08R09R15R16R21R22R23
  24683061.538 7                                                 129710367.306 7
                                                
  24692719.767 6                                                 129761118.809 6
                                                
  24229851.483 7                                                 127328726.771 7
                                                
  27297036.960 5                                                 143446902.137 5
                                                
  27528692.325 6                                                 144664256.014 6
                                                
  27439655.930 4                                                 144196362.73714
                                                
  24214105.645 6                                                 127245979.979 6
  99152753.12247                                  24214112.58847
  20174865.543 7  20174873.735 9  20174867.448 9                 106019631.131 7
  82612732.645 9  79170509.801 9                
  24435062.643 4  24435076.704 9  24435077.424 9                 128407092.330 4
 100057521.119 9  95888454.862 9                
  23383706.334 5                                                 122882203.462 5
  95752403.62347                                  23383714.14347
  21137745.103 6  21137752.290 9  21137751.415 9                 111079589.567 6
  86555553.575 9  82949069.815 9                
  22061213.535 5  22061224.665 9  22061220.133 9                 115932449.301 5
  90337018.256 9  86572958.905 9                
  24156269.363 2  24156281.126 9  24156282.310 9                 126942079.221 2
  98916269.229 9  94794460.770 9                
  21273380.051 7  21273389.183 9  21273383.527 9                 111792366.663 7
  87110976.070 9  83481325.764 9                
  20311101.836 4                                                 108383923.306 4
                                                
  19676467.643 8  19676471.881 9                                 105329672.410 8
  81923242.884 9                                
  22676744.970 5  22676751.231 9                                 121432960.932 5
  94447875.209 9                                
  22266164.560 6  22266171.514 9                                 118900094.854 6
  92477891.436 9                                
  23049584.324 5  23049592.585 7                                 123169983.512 5
  95798757.334 7                                
  21008572.015 6  21008577.191 8                                 112224023.401 6
  87285268.748 8                                
  22974647.826 6  22974655.501 9                                 122941962.310 6
  95621534.157 9                                
  20493791.572 8  20493794.066 9                                 109397243.533 8
  85086757.044 9                                
  21496564.873 6                                                 114992138.242 6
                                                
 23  9 21 18 43  0.0000000  0 23E08E13E15E24E25E34G02G10G18G21G23G24
                                G28G32R06R07R08R09R15R16R21R22R23
  24677049.877 7                                                 129678774.256 7
                                                
  24688811.307 6                                                 129740583.039 6
                                                
  24234429.193 7                                                 127352782.059 7
                                                
  27293749.133 6                                                 143429625.682 6
                                                
  27520335.421 6                                                 144620338.130 6
                                                
  27448196.125 4                                                 144241241.112 4
                                                
  24205938.549 6                                                 127203061.231 6
  99119309.96147                                  24205945.25447
  20172944.148 7  20172952.293 9  20172945.716 9                 106009533.020 7
  82604863.989 9  79162969.000 9                
  24445409.044 4  24445422.998 9  24445423.427 9                 128461462.501 4
 100099887.332 9  95929055.779 9                
  23377606.798 5                                                 122850150.059 5
  95727426.96747                                  23377614.28447
  21142809.214 6  21142816.064 9  21142815.763 9                 111106201.607 6
  86576290.197 9  82968942.395 9                
  22067590.532 6  22067601.465 9  22067596.859 9                 115965959.252 6
  90363129.867 9  86597982.517 9                
  24144314.486 3  24144326.171 9  24144327.821 9                 126879258.426 3
  98867318.118 9  94747549.338 9                
  21267495.444 7  21267504.677 9  21267498.927 9                 111761442.601 7
  87086879.428 9  83458233.146 9                
  20315687.655 4                                                 108408392.819 4
                                                
  19672593.644 8  19672597.634 9                                 105308933.961 8
  81907112.990 9                                
  22667295.902 5  22667302.329 9                                 121382364.152 5
  94408522.266 9                                
  22254221.056 6  22254227.790 9                                 118836319.920 6
  92428288.836 9                                
  23056348.019 6  23056354.886 7                                 123206126.357 6
  95826868.390 7                                
  21005338.896 6  21005344.191 9                                 112206751.616 6
  87271835.177 9                                
  22986406.476 6  22986414.347 9                                 123004882.378 6
  95670471.828 9                                
  20499007.355 7  20499010.575 9                                 109425088.199 7
  85108413.972 9                                
  21490136.170 6                                                 114957751.399 6
                                                
 23  9 21 18 43 15.0000000  0 23E08E13E15E24E25E34G02G10G18G21G23G24
                                G28G32R06R07R08R09R15R16R21R22R23
  24671040.265 7                                                 129647193.903 7
                                                
  24684916.927 6                                                 129720118.019 6
                                                
  24239017.658 7                                                 127376895.099 7
                                                
  27290474.412 6                                                 143412417.070 6
                                                
  27511977.705 6                                                 144576418.405 6
                                                
  27456731.622 4                                                 144286095.861 4
                                                
  24197781.242 6                                                 127160192.202 6
  99085905.54347                                  24197787.89847
  20171035.199 7  20171043.440 9  20171036.868 9                 105999501.755 7
  82597047.427 9  79155478.117 9                
  24455751.719 3  24455765.560 9  24455766.631 9                 128515812.887 3
 100142238.075 9  95969641.882 9                
  23371520.094 6                                                 122818163.886 6
  95702502.71946                                  23371526.80246
  21147883.763 6  21147890.706 9  21147890.380 9                 111132868.871 6
  86597069.848 9  82988856.221 9                
  22073983.081 6  22073993.717 9  22073989.714 9                 115999553.266 6
  90389306.990 9  86623068.931 9                
  24132357.995 4  24132369.626 9  24132371.009 9                 126816425.078 4
  98818357.202 9  94700628.518 9                
  21261618.976 7  21261628.416 9  21261622.364 9                 111730562.206 7
  87062816.768 9  83435173.111 9                
  20320279.208 3                                                 108432896.522 3
                                                
  19668728.953 8  19668732.376 9                                 105288245.050 8
  81891021.593 9                                
  22657846.953 5  22657852.822 9                                 121331762.367 5
  94369165.436 9                                
  22242285.255 7  22242291.607 9                                 118772580.363 7
  92378713.758 9                                
  23063133.106 6  23063140.541 8                                 123242381.803 6
  95855066.992 8                                
  21002137.206 6  21002142.575 9                                 112189647.092 6
  87258531.709 9                                
  22998164.015 6  22998170.980 9                                 123067797.880 6
  95719405.978 9                                
  20504250.905 7  20504253.182 9                                 109453075.954 7
  85130182.203 9                                
  21483736.912 6                                                 114923518.726 6
                                                
 23  9 21 18 43 30.0000000  0 24E03E08E13E15E24E25E34G02G10G18G21G23
                                G24G28G32R06R07R08R09R15R16R21R22R23
  23204339.108 7                                                 121939623.02717
                                                
  24665032.530 7                                                 129615625.054 7
                                                
  24681036.015 6                                                 129699722.662 6
                                                
  24243616.762 7                                                 127401064.498 7
                                                
  27287212.113 6                                                 143395275.173 6
                                                
  27503619.566 6                                                 144532495.843 6
                                                
  27465262.302 4                                                 144330925.540 4
                                                
  24189632.836 6                                                 127117372.077 6
  99052539.26147                                  24189639.47247
  20169138.833 8  20169147.229 9  20169140.587 9                 105989536.450 8
  82589282.251 9  79148036.490 9                
  24466090.730 3  24466103.936 8  24466105.516 9                 128570141.845 3
 100184572.159 8  96010211.986 9                
  23365445.939 5                                                 122786244.026 5
  95677630.14647                                  23365452.49447
  21152968.629 6  21152976.036 9  21152975.425 9                 111159590.063 6
  86617891.533 9  83008810.323 9                
  22080391.624 6  22080402.069 9  22080398.202 9                 116033229.814 6
  90415548.439 9  86648216.968 9                
  24120397.898 4  24120410.164 9  24120411.473 9                 126753578.249 4
  98769385.778 9  94653697.586 9                
  21255750.834 7  21255760.362 9  21255754.060 9                 111699724.213 7
  87038787.203 9  83412144.777 9                
  20324877.647 4                                                 108457432.880 4
                                                
  19664873.034 8  19664877.168 9                                 105267604.346 8
  81874967.746 9                                
  22648396.268 5  22648402.092 9                                 121281154.713 5
  94329803.964 9                                
  22230355.002 7  22230361.496 9                                 118708875.314 7
  92329165.487 9                                
  23069938.129 6  23069943.652 7                                 123278748.162 6
  95883351.947 7                                
  20998965.927 6  20998972.254 9                                 112172708.862 6
  87245357.547 9                                
  23009920.349 6  23009927.876 9                                 123130707.314 6
  95768335.403 9                                
  20509520.180 7  20509523.219 9                                 109481205.328 7
  85152060.592 9                                
  21477365.606 6                                                 114889439.416 6
                                                
 23  9 21 18 43 45.0000000  0 24E03E08E13E15E24E25E34G02G10G18G21G23
                                G24G28G32R06R07R08R09R15R16R21R22R23
  23204808.275 7                                                 121942088.273 7
                                                
  24659027.847 6                                                 129584069.411 6
                                                
  24677168.441 6                                                 129679398.830 6
                                                
  24248227.320 6                                                 127425291.830 6
                                                
  27283963.320 6                                                 143378201.872 6
                                                
  27495261.259 6                                                 144488572.400 6
                                                
  27473789.062 5                                                 144375731.629 5
                                                
  24181494.395 6                                                 127074602.806 6
  99019212.57847                                  24181500.44347
  20167255.423 7  20167263.622 9  20167257.199 9                 105979638.856 7
  82581569.834 9  79140645.424 9                
  24476424.857 3  24476438.857 9  24476440.001 9                 128624450.797 3
 100226890.651 9  96050767.123 9                
  23359384.641 5                                                 122754392.434 5
  95652810.74747                                  23359391.81247
  21158064.122 6  21158071.514 9  21158070.842 9                 111186366.858 6
  86638756.537 9  83028805.956 9                
  22086816.023 6  22086826.567 9  22086822.813 9                 116066990.256 6
  90441855.271 9  86673427.663 9                
  24108436.803 4  24108447.999 9  24108449.742 9                 126690719.887 4
  98720405.371 9  94606758.072 9                
  21249891.041 7  21249900.540 9  21249894.218 9                 111668930.424 7
  87014792.053 9  83389149.436 9                
  20329482.184 3                                                 108482003.572 3
                                                
  19661026.752 8  19661030.104 9                                 105247013.897 8
  81858952.948 9                                
  22638945.558 5  22638951.245 9                                 121230542.360 5
  94290438.886 9                                
  22218431.778 7  22218438.003 9                                 118645207.090 7
  92279645.840 9                                
  23076764.546 6  23076769.606 7                                 123315226.586 6
  95911723.953 7                                
  20995826.947 7  20995831.970 9                                 112155938.822 7
  87232314.186 9                                
  23021676.038 6  23021682.743 9                                 123193611.829 6
  95817261.000 9                                
  20514816.692 7  20514819.734 9                                 109509477.635 7
  85174050.143 9                                
  21471024.355 7                                                 114855515.449 7
                                                
 23  9 21 18 44  0.0000000  0 24E03E08E13E15E24E25E34G02G10G18G21G23
                                G24G28G32R06R07R08R09R15R16R21R22R23
  23205282.671 7                                                 121944581.032 7
                                                
  24653026.241 7                                                 129552531.782 7
                                                
  24673315.440 6                                                 129659151.465 6
                                                
  24252849.745 6                                                 127449581.729 6
                                                
  27280728.346 6                                                 143361202.049 6
                                                
  27486903.671 6                                                 144444653.183 6
                                                
  27482312.047 5                                                 144420518.779 5
                                                
  24173365.918 6                                                 127031889.257 6
  98985929.36947                                  24173371.85947
  20165385.849 7  20165394.086 9  20165387.499 9                 105969813.892 7
  82573914.012 9  79133308.598 9                
  24486756.847 4  24486771.225 9  24486771.697 9                 128678744.211 4
 100269197.063 9  96091310.703 9                
  23353337.328 5                                                 122722613.998 5
  95628048.36247                                  23353344.33447
  21163171.368 6  21163178.107 9  21163177.787 9                 111213203.974 6
  86659668.524 9  83048846.613 9                
  22093257.314 6  22093267.800 9  22093264.017 9                 116100839.018 6
  90468230.915 9  86698704.303 9                
  24096473.900 5  24096485.660 9  24096486.702 9                 126627855.105 5
  98671419.961 9  94559813.761 9                
  21244040.368 7  21244049.914 9  21244043.654 9                 111638185.631 7
  86990835.102 9  83366190.690 9                
  20334094.075 3                                                 108506613.506 3
                                                
  19657190.363 8  19657193.475 9                                 105226478.364 8
  81842980.880 9                                
  22629492.952 5  22629498.678 9                                 121179930.529 5
  94251074.192 9                                
  22206517.025 6  22206523.037 9                                 118581581.391 6
  92230159.305 9                                
  23083613.236 6  23083620.712 7                                 123351821.613 6
  95940186.694 7                                
  20992719.589 7  20992724.903 9                                 112139342.292 7
  87219405.785 9                                
  23033431.253 5  23033439.025 9                                 123256515.859 5
  95866186.179 9                                
  20520140.312 7  20520143.802 9                                 109537897.314 7
  85196154.283 9                                
  21464712.346 6                                                 114821752.005 6
                                                
 23  9 21 18 44 15.0000000  0 24E03E08E13E15E24E25E34G02G10G18G21G23
                                G24G28G32R06R07R08R09R15R16R21R22R23
  23205761.687 7                                                 121947098.160 7
                                                
  24647027.901 7                                                 129521009.142 7
                                                
  24669476.316 6                                                 129638977.636 6
                                                
  24257483.258 7                                                 127473931.001 7
                                                
  27277506.614 6                                                 143344272.761 6
                                                
  27478546.469 6                                                 144400735.381 6
                                                
  27490831.300 5                                                 144465283.733 5
                                                
  24165247.787 6                                                 126989228.765 6
  98952687.48147                                  24165254.14047
  20163529.476 7  20163537.775 9  20163531.182 9                 105960058.709 7
  82566312.570 9  79126023.888 9                
  24497084.881 3  24497099.320 9  24497100.085 9                 128733018.723 3
 100311488.723 9  96131840.200 9                
  23347303.402 5                                                 122690905.915 5
  95603340.78847                                  23347310.32847
  21168289.090 6  21168295.943 9  21168295.618 9                 111240098.234 6
  86680625.080 9  83068929.961 9                
  22099714.782 6  22099725.254 9  22099721.364 9                 116134772.790 6
  90494672.790 9  86724044.408 9                
  24084509.113 5  24084521.188 9  24084522.293 9                 126564981.243 5
  98622427.478 9  94512862.635 9                
  21238198.688 7  21238208.188 9  21238201.767 9                 111607486.903 7
  86966914.017 9  83343266.330 9                
  20338712.152 3                                                 108531259.410 3
                                                
  19653363.787 8  19653367.341 9                                 105205994.950 8
  81827049.350 9                                
  22620041.221 5  22620046.948 9                                 121129316.522 5
  94211707.808 9                                
  22194609.090 6  22194616.044 9                                 118517995.180 6
  92180703.517 9                                
  23090482.865 6  23090488.971 7                                 123388529.663 6
  95968737.354 7                                
  20989644.717 7  20989650.360 9                                 112122916.046 7
  87206629.818 9                                
  23045185.211 5  23045193.502 9                                 123319415.627 5
  95915108.040 9                                
  20525491.818 7  20525494.951 9                                 109566460.976 7
  85218370.406 9                                
  21458429.815 6                                                 114788146.373 6
                                                
 23  9 21 18 44 30.0000000  0 25E03E05E08E13E15E24E25E34G02G10G18G21
                                G23G24G28G32R06R07R08R09R15R16R21R22
                                R23
  23206245.854 7                                                 121949642.679 7
                                                
  26108070.953 5                                                 137198835.59615
                                                
  24641032.493 7                                                 129489504.582 7
                                                
  24665652.324 6                                                 129618880.574 6
                                                
  24262128.604 7                                                 127498342.626 7
                                                
  27274299.279 6                                                 143327417.241 6
                                                
  27470189.623 6                                                 144356822.361 6
                                                
  27499346.081 5                                                 144510029.332 5
                                                
  24157140.449 6                                                 126946624.747 6
  98919489.60847                                  24157146.23247
  20161687.079 7  20161695.276 9  20161688.554 9                 105950376.601 7
  82558768.066 9  79118793.724 9                
  24507410.744 3  24507424.364 9  24507425.217 9                 128787277.188 3
 100353767.829 9  96172357.621 9                
  23341283.534 5                                                 122659271.660 5
  95578690.75247                                  23341291.11647
  21173418.484 6  21173425.381 9  21173425.049 9                 111267052.725 6
  86701628.537 9  83089058.273 9                
  22106188.742 6  22106199.490 9  22106195.279 9                 116168794.254 6
  90521182.999 9  86749450.025 9                
  24072543.529 5  24072555.131 9  24072556.139 9                 126502101.595 5
  98573430.492 9  94465907.236 9                
  21232366.059 7  21232375.601 9  21232369.213 9                 111576837.298 7
  86943031.220 9  83320378.655 9                
  20343338.537 3                                                 108555944.224 3
                                                
  19649547.681 8  19649550.655 9                                 105185566.574 8
  81811160.609 9                                
  22610589.920 5  22610595.693 9                                 121078703.186 5
  94172341.940 9                                
  22182709.572 7  22182716.389 9                                 118454452.543 7
  92131281.577 9                                
  23097374.037 6  23097380.841 8                                 123425353.577 6
  95997378.154 8                                
  20986601.995 7  20986607.063 9                                 112106663.538 7
  87193988.990 9                                
  23056939.609 5  23056947.478 9                                 123382313.777 5
  95964028.664 9                                
  20530869.912 7  20530873.034 9                                 109595171.315 7
  85240700.657 9                                
  21452178.100 6                                                 114754702.073 6
                                                
 23  9 21 18 44 45.0000000  0 25E03E05E08E13E15E24E25E34G02G10G18G21
                                G23G24G28G32R06R07R08R09R15R16R21R22
                                R23
  23206735.218 7                                                 121952213.562 7
                                                
  26113789.415 5                                                 137228886.928 5
                                                
  24635040.679 7                                                 129458017.183 7
                                                
  24661842.373 6                                                 129598859.475 6
                                                
  24266785.985 7                                                 127522815.440 7
                                                
  27271105.424 6                                                 143310634.610 6
                                                
  27461834.004 6                                                 144312913.411 6
                                                
  27507857.081 5                                                 144554754.486 5
                                                
  24149044.190 6                                                 126904076.605 6
  98886335.25147                                  24149048.70047
  20159858.308 8  20159866.603 9  20159859.867 9                 105940766.757 8
  82551279.859 9  79111617.532 9                
  24517732.158 4  24517745.890 9  24517746.996 9                 128841518.227 4
 100396033.393 9  96212862.069 9                
  23335277.660 6                                                 122627710.375 6
  95554097.56047                                  23335285.41047
  21178558.875 7  21178565.833 9  21178565.541 9                 111294066.403 7
  86722678.114 9  83109230.761 9                
  22112679.120 5  22112690.206 9  22112685.432 9                 116202902.160 5
  90547760.563 9  86774920.189 9                
  24060576.596 5  24060588.302 9  24060589.024 9                 126439215.550 5
  98524428.517 9  94418947.027 9                
  21226542.937 7  21226552.291 9  21226545.985 9                 111546235.928 7
  86919186.027 9  83297526.999 9                
  20347972.147 3                                                 108580667.138 3
                                                
  19645741.936 8  19645744.848 9                                 105165192.324 8
  81795313.970 9                                
  22601138.014 5  22601144.089 9                                 121028089.994 5
  94132976.182 9                                
  22170818.451 7  22170823.655 9                                 118390953.080 7
  92081893.187 9                                
  23104286.564 6  23104293.797 8                                 123462291.775 6
  96026107.795 8                                
  20983592.103 7  20983597.365 9                                 112090583.900 7
  87181482.601 9                                
  23068693.122 5  23068701.060 9                                 123445208.865 5
  96012946.896 9                                
  20536275.447 7  20536278.884 9                                 109624027.010 7
  85263143.926 9                                
  21445956.089 6                                                 114721418.426 6
                                                
 23  9 21 18 45  0.0000000  0 25E03E05E08E13E15E24E25E34G02G10G18G21
                                G23G24G28G32R06R07R08R09R15R16R21R22
                                R23
  23207228.935 7                                                 121954808.598 7
                                                
  26119504.980 5                                                 137258920.292 5
                                                
  24629051.756 7                                                 129426544.808 7
                                                
  24658046.609 6                                                 129578912.312 6
                                                
  24271454.068 7                                                 127547347.161 7
                                                
  27267925.359 6                                                 143293922.887 6
                                                
  27453479.110 5                                                 144269006.710 5
                                                
  27516364.136 5                                                 144599456.818 5
                                                
  24140957.351 6                                                 126861582.443 6
  98853222.94347                                  24140962.53247
  20158042.916 7  20158051.421 9  20158044.583 9                 105931226.724 7
  82543846.064 9  79104493.479 9                
  24528050.362 4  24528064.431 8  24528065.098 9                 128895739.442 4
 100438283.499 8  96253351.692 9                
  23329285.122 6                                                 122596220.159 6
  95529559.74747                                  23329292.53447
  21183710.319 7  21183717.201 9  21183717.171 9                 111321137.012 7
  86743772.073 9  83129445.791 9                
  22119185.997 5  22119196.551 9  22119192.180 9                 116237094.060 5
  90574403.535 9  86800453.055 9                
  24048608.266 5  24048619.618 9  24048620.698 9                 126376321.306 5
  98475420.136 9  94371980.684 9                
  21220728.542 7  21220738.036 9  21220731.406 9                 111515680.706 7
  86895376.762 9  83274709.800 9                
  20352611.539 3                                                 108605425.784 3
                                                
  19641945.399 8  19641948.638 9                                 105144870.126 8
  81779507.813 9                                
  22591686.438 5  22591692.074 9                                 120977474.306 5
  94093608.514 9                                
  22158934.038 6  22158939.919 9                                 118327494.897 6
  92032536.938 9                                
  23111220.199 6  23111227.280 8                                 123499341.809 6
  96054924.408 8                                
  20980613.768 7  20980619.200 9                                 112074675.044 7
  87169109.070 9                                
  23080446.112 5  23080453.996 9                                 123508098.229 5
  96061860.684 9                                
  20541707.792 7  20541710.858 9                                 109653025.322 7
  85285698.148 9                                
  21439763.911 6                                                 114688293.654 6
                                                
 23  9 21 18 45 15.0000000  0 25E03E05E08E13E15E24E25E34G02G10G18G21
                                G23G24G28G32R06R07R08R09R15R16R21R22
                                R23
  23207727.530 7                                                 121957428.036 7
                                                
  26125216.850 5                                                 137288935.959 5
                                                
  24623065.483 7                                                 129395087.798 7
                                                
  24654264.952 6                                                 129559039.568 6
                                                
  24276133.460 7                                                 127571938.021 7
                                                
  27264758.540 6                                                 143277282.495 6
                                                
  27445124.117 6                                                 144225102.811 6
                                                
  27524866.452 5                                                 144644136.420 5
                                                
  24132881.342 6                                                 126819142.893 6
  98820153.21147                                  24132887.69847
  20156240.838 7  20156249.466 9  20156242.730 9                 105921757.479 7
  82536467.426 9  79097422.281 9                
  24538363.972 5  24538378.452 8  24538379.029 8                 128949940.824 5
 100480518.172 8  96293826.539 8                
  23323306.420 6                                                 122564801.579 6
  95505077.77047                                  23323313.87847
  21188872.712 6  21188879.656 9  21188879.264 9                 111348264.870 6
  86764910.633 9  83149703.564 9                
  22125708.149 5  22125719.159 9  22125714.341 9                 116271369.843 5
  90601111.918 9  86826048.581 9                
  24036637.817 5  24036649.761 9  24036650.921 9                 126313419.455 5
  98426405.795 9  94325008.645 9                
  21214922.819 7  21214932.257 9  21214925.726 9                 111485171.999 7
  86871603.772 9  83251927.343 9                
  20357257.829 3                                                 108630220.277 3
                                                
  19638158.797 8  19638162.143 9                                 105124600.483 8
  81763742.557 9                                
  22582233.649 4  22582239.270 9                                 120926856.974 4
  94054239.514 9                                
  22147058.368 5  22147064.905 9                                 118264078.942 5
  91983213.548 9                                
  23118174.873 6  23118181.978 8                                 123536503.434 6
  96083827.832 8                                
  20977667.872 7  20977673.526 9                                 112058937.723 7
  87156868.942 9                                
  23092197.521 6  23092205.009 9                                 123570981.512 6
  96110769.755 9                                
  20547167.460 7  20547169.844 9                                 109682166.313 7
  85308363.324 9                                
  21433600.980 5                                                 114655328.430 5
                                                
 23  9 21 18 45 30.0000000  0 25E03E05E08E13E15E24E25E34G02G10G18G21
                                G23G24G28G32R06R07R08R09R15R16R21R22
                                R23
  23208230.098 7                                                 121960069.908 7
                                                
  26130925.043 5                                                 137318931.938 5
                                                
  24617082.069 7                                                 129363644.253 7
                                                
  24650497.110 6                                                 129539239.469 6
                                                
  24280823.871 7                                                 127596585.932 7
                                                
  27261605.590 6                                                 143260711.617 6
                                                
  27436769.819 5                                                 144181200.066 5
                                                
  27533363.007 4                                                 144688791.249 4
                                                
  24124815.493 6                                                 126776756.160 6
  98787124.64147                                  24124822.39447
  20154452.092 8  20154460.449 9  20154454.023 9                 105912357.145 8
  82529142.498 9  79090402.552 9                
  24548674.697 5  24548688.646 8  24548688.871 8                 129004120.154 5
 100522735.670 8  96334284.972 8                
  23317340.996 5                                                 122533452.816 5
  95480650.20047                                  23317347.93247
  21194045.508 6  21194052.335 9  21194052.027 9                 111375447.976 6
  86786092.241 9  83170002.600 9                
  22132246.060 5  22132257.146 9  22132252.264 9                 116305727.331 5
  90627883.976 9  86851705.133 9                
  24024666.334 5  24024677.940 9  24024678.722 9                 126250508.355 5
  98377384.310 9  94278029.739 9                
  21209125.590 7  21209135.062 9  21209128.428 9                 111454707.929 7
  86847865.548 9  83229178.206 9                
  20361910.945 3                                                 108655048.779 3
                                                
  19634381.385 8  19634385.234 9                                 105104381.333 8
  81748016.565 9                                
  22572780.876 5  22572785.859 9                                 120876235.839 5
  94014867.597 9                                
  22135189.910 5  22135197.057 9                                 118200703.999 5
  91933921.993 9                                
  23125149.489 6  23125157.073 8                                 123573774.460 6
  96112816.354 8                                
  20974753.271 8  20974758.803 9                                 112043369.991 8
  87144760.689 9                                
  23103946.800 6  23103955.472 9                                 123633856.409 6
  96159672.307 9                                
  20552652.445 7  20552655.980 9                                 109711447.538 7
  85331137.555 9                                
  21427467.770 6                                                 114622521.188 6
                                                
 23  9 21 18 45 45.0000000  0 25E03E05E08E13E15E24E25E34G02G10G18G21
                                G23G24G28G32R06R07R08R09R15R16R21R22
                                R23
  23208738.652 7                                                 121962742.463 7
                                                
  26136630.683 6                                                 137348916.507 6
                                                
  24611102.635 7                                                 129332222.487 7
                                                
  24646744.733 6                                                 129519520.471 6
                                                
  24285526.809 7                                                 127621299.052 7
                                                
  27258467.084 6                                                 143244218.739 6
                                                
  27428417.270 6                                                 144137307.082 6
                                                
  27541856.607 3                                                 144733429.402 3
                                                
  24116761.135 6                                                 126734431.006 6
  98754144.06047                                  24116768.55847
  20152677.760 8  20152686.107 9  20152679.909 9                 105903034.157 8
  82521877.824 9  79083440.580 9                
  24558982.108 4  24558996.328 8  24558996.552 8                 129058285.429 4
 100564942.210 8  96374732.899 8                
  23311390.470 5                                                 122502182.099 5
  95456283.42847                                  23311396.98947
  21199230.531 6  21199237.234 9  21199236.908 9                 111402694.594 6
  86807323.343 9  83190349.063 9                
  22138801.394 6  22138812.149 9  22138807.400 9                 116340174.526 6
  90654725.906 9  86877428.648 9                
  24012694.773 5  24012706.104 9  24012706.991 9                 126187596.683 5
  98328362.379 9  94231050.401 9                
  21203338.894 7  21203348.007 9  21203341.288 9                 111424296.830 7
  86824168.621 9  83206468.652 9                
  20366571.769 3                                                 108679919.410 3
                                                
  19630615.576 8  19630618.879 9                                 105084221.241 8
  81732336.496 9                                
  22563328.150 5  22563333.407 9                                 120825619.386 5
  93975499.313 9                                
  22123331.608 6  22123338.049 9                                 118137378.864 6
  91884669.230 9                                
  23132145.536 6  23132153.618 8                                 123611162.967 6
  96141896.231 8                                
  20971872.555 8  20971877.619 9                                 112027980.515 8
  87132791.129 9                                
  23115696.290 5  23115704.503 9                                 123696730.724 5
  96208574.397 9                                
  20558165.744 7  20558168.657 9                                 109740877.194 7
  85354027.299 9                                
  21421365.980 6                                                 114589880.725 6
                                                
 23  9 21 18 46  0.0000000  0 25E03E05E08E13E15E24E25E34G02G10G18G21
                                G23G24G28G32R06R07R08R09R15R16R21R22
                                R23
  23209253.650 7                                                 121965448.959 7
                                                
  26142335.376 6                                                 137378892.905 6
                                                
  24605128.390 7                                                 129300825.933 7
                                                
  24643008.321 6                                                 129499886.068 6
                                                
  24290242.401 7                                                 127646080.599 7
                                                
  27255343.968 6                                                 143227807.312 6
                                                
  27420067.277 5                                                 144093427.530 5
                                                
  27550348.392 2                                                 144778054.032 2
                                                
  24108719.672 6                                                 126692170.945 6
  98721214.19047                                  24108726.16247
  20150919.169 8  20150927.423 9  20150921.038 9                 105893791.918 8
  82514676.085 9  79076538.912 9                
  24569287.617 4  24569301.755 8  24569301.989 8                 129112439.768 4
 100607140.217 8  96415172.639 8                
  23305455.159 6                                                 122470993.471 6
  95431980.62747                                  23305462.09947
  21204428.078 6  21204434.933 9  21204434.510 9                 111430008.010 6
  86828606.509 9  83210745.418 9                
  22145373.947 5  22145385.061 9  22145380.398 9                 116374714.387 5
  90681640.049 9  86903221.369 9                
  24000723.346 5  24000735.326 9  24000735.840 9                 126124688.133 5
  98279342.826 9  94184073.373 9                
  21197562.346 7  21197571.677 9  21197564.826 9                 111393942.179 7
  86800515.645 9  83183801.218 9                
  20371240.958 3                                                 108704835.809 3
                                                
  19626861.169 8  19626864.505 9                                 105064123.691 8
  81716705.076 9                                
  22553876.998 5  22553882.486 9                                 120775011.573 5
  93936137.733 9                                
  22111482.899 6  22111489.389 9                                 118074107.795 6
  91835458.536 9                                
  23139165.139 5  23139172.459 8                                 123648671.596 5
  96171069.561 8                                
  20969025.358 7  20969031.112 9                                 112012772.967 7
  87120963.018 9                                
  23127446.428 5  23127455.418 9                                 123759607.585 5
  96257478.439 9                                
  20563707.344 7  20563710.213 9                                 109770458.172 7
  85377034.673 9                                
  21415296.283 6                                                 114557410.642 6
                                                
 23  9 21 18 46 15.0000000  0 25E03E05E08E13E15E24E25E34G02G10G18G21
                                G23G24G28G32R06R07R08R09R15R16R21R22
                                R23
  23209773.420 7                                                 121968180.283 7
                                                
  26148036.547 6                                                 137408852.018 6
                                                
  24599156.556 7                                                 129269445.497 7
                                                
  24639286.634 6                                                 129480327.318 6
                                                
  24294969.222 7                                                 127670921.358 7
                                                
  27252235.028 6                                                 143211468.326 6
                                                
  27411718.170 6                                                 144049552.555 6
                                                
  27558836.007 1                                                 144822655.849 1
                                                
  24100688.482 6                                                 126649967.327 6
  98688328.28146                                  24100694.39246
  20149174.286 7  20149182.601 9  20149176.051 9                 105884621.635 7
  82507530.404 9  79069690.964 9                
  24579589.070 4  24579603.692 8  24579603.773 8                 129166573.773 4
 100649322.401 8  96455597.212 8                
  23299534.496 6                                                 122439878.001 6
  95407734.84047                                  23299541.42047
  21209636.707 7  21209643.771 9  21209642.753 9                 111457379.047 7
  86849934.580 9  83231184.813 9                
  22151962.598 5  22151973.447 9  22151968.768 9                 116409337.530 5
  90708619.094 9  86929076.287 9                
  23988750.970 5  23988762.957 9  23988763.325 9                 126061773.899 5
  98230318.871 9  94137092.095 9                
  21191794.736 7  21191804.478 9  21191797.236 9                 111363634.868 7
  86776899.573 9  83161169.151 9                
  20375916.499 3                                                 108729788.431 3
                                                
  19623117.099 8  19623120.470 9                                 105044079.259 8
  81701114.978 9                                
  22544426.865 5  22544431.735 9                                 120724402.774 5
  93896775.397 9                                
  22099642.271 6  22099649.075 9                                 118010882.089 6
  91786283.123 9                                
  23146205.349 6  23146212.859 8                                 123686291.050 6
  96200329.045 8                                
  20966211.021 8  20966216.673 9                                 111997738.072 8
  87109269.241 9                                
  23139195.014 6  23139203.166 9                                 123822476.977 6
  96306376.686 9                                
  20569275.435 7  20569278.643 9                                 109800180.852 7
  85400152.263 9                                
  21409256.072 5                                                 114525102.053 5
                                                
 23  9 21 18 46 30.0000000  0 24E03E05E08E13E15E24E25E34G02G10G21G23
                                G24G28G32R06R07R08R09R15R16R21R22R23
  23210298.041 7                                                 121970936.611 7
                                                
  26153734.164 6                                                 137438794.022 6
                                                
  24593188.204 7                                                 129238081.435 7
                                                
  24635579.559 6                                                 129460844.621 6
                                                
  24299707.793 7                                                 127695821.448 7
                                                
  27249139.715 6                                                 143195202.222 6
                                                
  27403369.689 5                                                 144005682.675 5
                                                
  27567320.038 1                                                 144867234.928 1
                                                
  24092667.936 5                                                 126607820.474 5
  98655486.58846                                  24092673.68546
  20147442.839 8  20147451.349 9  20147444.760 9                 105875523.520 8
  82500440.960 9  79062896.912 9                
  23293627.189 6                                                 122408836.086 6
  95383546.36347                                  23293633.91047
  21214856.031 6  21214863.164 9  21214862.666 9                 111484807.931 6
  86871307.668 9  83251667.371 9                
  22158566.843 5  22158577.536 9  22158573.479 9                 116444043.897 5
  90735662.982 9  86954993.335 9                
  23976777.743 5  23976789.488 9  23976790.513 9                 125998854.536 5
  98181290.896 9  94090106.979 9                
  21186036.799 7  21186046.193 9  21186039.022 9                 111333375.228 7
  86753320.649 9  83138572.684 9                
  20380599.523 2                                                 108754777.531 2
                                                
  19619382.447 8  19619385.607 9                                 105024088.463 8
  81685566.579 9                                
  22534975.713 5  22534980.806 9                                 120673793.498 5
  93857412.708 9                                
  22087810.890 6  22087816.622 9                                 117947702.506 6
  91737143.507 9                                
  23153266.001 6  23153273.530 8                                 123724020.908 6
  96229674.410 8                                
  20963428.566 8  20963433.984 9                                 111982876.410 8
  87097710.171 9                                
  23150942.080 6  23150950.712 9                                 123885338.942 6
  96355269.179 9                                
  20574869.936 7  20574873.111 9                                 109830045.181 7
  85423380.031 9                                
  21403246.538 6                                                 114492955.514 6
                                                
 23  9 21 18 46 45.0000000  0 24E03E05E08E13E15E24E25E34G02G10G21G23
                                G24G28G32R06R07R08R09R15R16R21R22R23
  23510618.982 7                                                 123549134.468 7
                                                
  26459220.625 6                                                 139044133.661 6
                                                
  24887015.495 7                                                 130782152.628 7
                                                
  24931678.605 6                                                 131016856.146 6
                                                
  24604248.741 7                                                 129296195.792 7
                                                
  27545850.404 6                                                 144754426.926 6
                                                
  27694814.574 5                                                 145537237.851 5
                                                
  27875589.896 2                                                 146487204.870 2
                                                
  24384450.870 5                                                 128141150.344 5
  99850289.11246                                  24384457.07946
  20445517.447 7  20445525.790 9  20445519.218 9                 107441915.293 7
  83721005.969 9  80232605.053 9                
  23587526.366 5                                                 123953286.641 5
  96587014.34247                                  23587532.68347
  21519878.104 6  21519885.191 9  21519884.746 9                 113087709.498 6
  88120321.848 9  84448639.285 9                
  22464978.605 6  22464988.958 9  22464985.114 9                 118054247.586 6
  91990367.140 9  88157418.129 9                
  24264596.215 5  24264608.018 9  24264608.715 9                 127511351.308 5
  99359859.950 9  95219569.021 9                
  21480079.885 7  21480089.209 9  21480082.270 9                 112878582.073 7
  87957377.963 9  84292460.936 9                
  20685080.556 2                                                 110379548.207 2
                                                
  19915450.175 8  19915453.644 9                                 106608961.813 8
  82918245.872 9                                
  22825317.277 5  22825322.436 9                                 122228558.765 5
  95066674.661 9                                
  22375780.421 7  22375786.181 9                                 119485445.282 7
  92933165.715 9                                
  23460138.264 6  23460146.836 9                                 125363854.990 6
  97505100.836 9                                
  21260471.526 8  21260476.799 9                                 113569623.373 8
  88331846.712 9                                
  23462478.937 6  23462487.755 9                                 125552435.301 6
  97651899.480 9                                
  20880282.203 7  20880285.556 9                                 111460357.894 7
  86691400.992 9                                
  21697059.991 6                                                 116064657.866 6
                                                
 23  9 21 18 47  0.0000000  0 24E03E05E08E13E15E24E25E34G02G10G21G23
                                G24G28G32R06R07R08R09R15R16R21R22R23
  23511150.639 7                                                 123551927.561 7
                                                
  26464909.476 6                                                 139074028.242 6
                                                
  24881050.659 7                                                 130750808.350 7
                                                
  24927997.413 6                                                 130997512.909 6
                                                
  24609007.113 7                                                 129321201.001 7
                                                
  27542780.272 6                                                 144738293.847 6
                                                
  27686466.144 5                                                 145493365.900 5
                                                
  27884062.975 2                                                 146531724.757 2
                                                
  24376449.853 6                                                 128099105.129 6
  99817526.66447                                  24376456.58447
  20443811.314 7  20443819.517 9  20443813.133 9                 107432949.174 7
  83714019.384 9  80225909.576 9                
  23581644.808 5                                                 123922379.219 5
  96562930.64347                                  23581651.56547
  21525117.266 6  21525124.190 9  21525123.471 9                 113115240.780 6
  88141774.767 9  84469198.334 9                
  22471611.912 5  22471622.465 9  22471618.998 9                 118089106.301 5
  92017529.729 9  88183448.953 9                
  24252618.758 5  24252630.561 9  24252631.074 9                 127448409.592 5
  99310814.586 9  95172567.229 9                
  21474337.047 7  21474347.022 9  21474339.334 9                 112848404.855 7
  87933863.263 9  84269926.016 9                
  20689775.014 2                                                 110404596.731 2
                                                
  19911733.257 8  19911736.676 9                                 106589065.030 8
  82902770.613 9                                
  22815863.626 5  22815868.490 9                                 122177935.522 5
  95027301.064 9                                
  22363964.103 6  22363969.592 8                                 119422346.299 6
  92884088.803 8                                
  23467237.584 6  23467244.978 9                                 125401791.146 6
  97534606.712 9                                
  21257751.472 8  21257757.010 9                                 113555095.211 8
  88320547.025 9                                
  23474221.130 6  23474229.556 9                                 125615267.139 6
  97700768.516 9                                
  20885927.408 7  20885930.456 9                                 111490490.882 7
  86714837.728 9                                
  21691109.101 6                                                 116032823.363 6
                                                
 23  9 21 18 47 15.0000000  0 24E03E05E08E13E15E24E25E34G02G10G21G23
                                G24G28G32R06R07R08R09R15R16R21R22R23
  23511685.785 7                                                 123554741.170 7
                                                
  26470593.990 6                                                 139103901.225 6
                                                
  24875088.780 7                                                 130719476.246 7
                                                
  24924330.313 6                                                 130978241.840 6
                                                
  24613775.904 7                                                 129346260.797 7
                                                
  27539723.366 6                                                 144722229.694 6
                                                
  27678117.737 4                                                 145449495.589 4
                                                
  27892531.800 1                                                 146576217.071 1
                                                
  24368459.350 5                                                 128057113.476 5
  99784805.97347                                  24368465.87247
  20442118.063 8  20442126.282 9  20442119.870 9                 107424051.451 8
  83707086.092 9  80219265.158 9                
  23575776.632 5                                                 123891541.662 5
  96538901.42747                                  23575783.87047
  21530366.249 7  21530373.677 9  21530372.533 9                 113142825.399 7
  88163269.258 9  84489797.209 9                
  22478260.220 5  22478271.089 9  22478267.402 9                 118124042.944 5
  92044753.041 9  88209537.951 9                
  24240639.417 5  24240651.455 9  24240652.347 9                 127385459.410 5
  99261762.595 9  95125559.087 9                
  21468603.035 7  21468612.490 9  21468604.838 9                 112818271.148 7
  87910382.461 9  84247423.572 9                
  20694475.524 2                                                 110429677.219 2
                                                
  19908025.522 8  19908028.483 9                                 106569217.482 8
  82887333.612 9                                
  22806408.867 5  22806413.703 9                                 122127307.389 5
  94987923.676 9                                
  22352155.492 7  22352162.069 8                                 119359290.396 7
  92835045.397 8                                
  23474356.352 6  23474365.022 9                                 125439832.188 6
  97564194.100 9                                
  21255063.599 8  21255068.661 9                                 113540736.408 8
  88309379.072 9                                
  23485959.998 6  23485968.413 9                                 125678085.318 6
  97749626.960 9                                
  20891597.948 7  20891601.099 9                                 111520759.984 7
  86738380.336 9                                
  21685187.623 6                                                 116001147.660 6
                                                
 23  9 21 18 47 30.0000000  0 24E03E05E08E13E15E24E25E34G02G10G21G23
                                G24G28G32R06R07R08R09R15R16R21R22R23
  23512225.281 7                                                 123557575.951 7
                                                
  26476274.897 6                                                 139133753.316 6
                                                
  24869128.922 7                                                 130688157.023 7
                                                
  24920677.379 6                                                 130959043.776 6
                                                
  24618554.861 6                                                 129371375.738 6
                                                
  27536679.778 6                                                 144706235.285 6
                                                
  27669769.899 4                                                 145405627.979 4
                                                
  27900993.826 1                                                 146620682.280 1
                                                
  24360478.430 6                                                 128015176.332 6
  99752127.73447                                  24360485.72447
  20440438.022 7  20440446.465 9  20440439.798 9                 107415222.981 7
  83700206.758 9  80212672.470 9                
  23569921.978 5                                                 123860774.919 5
  96514927.36647                                  23569929.01947
  21535625.661 7  21535633.496 9  21535632.248 9                 113170464.001 7
  88184805.802 9  84510436.389 9                
  22484923.002 5  22484934.074 9  22484930.221 9                 118159057.868 5
  92072037.362 9  88235685.421 9                
  24228658.794 5  24228670.797 9  24228671.584 9                 127322501.758 5
  99212704.828 9  95078545.410 9                
  21462877.378 7  21462886.658 9  21462878.704 9                 112788181.714 7
  87886936.170 9  84224954.218 9                
  20699181.496 2                                                 110454790.190 2
                                                
  19904327.286 8  19904330.307 9                                 106549420.202 8
  82871935.749 9                                
  22796953.860 5  22796958.799 9                                 122076675.417 5
  94948543.325 9                                
  22340355.770 7  22340361.717 8                                 119296279.327 7
  92786036.866 8                                
  23481495.227 6  23481503.125 9                                 125477978.249 6
  97593863.198 9                                
  21252407.668 8  21252412.627 9                                 113526547.858 8
  88298343.561 9                                
  23497697.078 6  23497705.377 9                                 125740890.296 6
  97798475.119 9                                
  20897293.874 7  20897296.862 9                                 111551165.433 7
  86762028.988 9                                
  21679296.430 6                                                 115969631.826 6
                                                
 23  9 21 18 47 45.0000000  0 24E03E05E08E13E15E24E25E34G02G10G21G23
                                G24G28G32R06R07R08R09R15R16R21R22R23
  23512768.347 7                                                 123560429.536 7
                                                
  26481950.588 6                                                 139163582.108 6
                                                
  24863171.257 7                                                 130656848.419 7
                                                
  24917037.480 6                                                 130939916.595 6
                                                
  24623343.958 6                                                 129396543.396 6
                                                
  27533648.904 6                                                 144690308.470 6
                                                
  27661420.519 2                                                 145361760.888 2
                                                
  27909451.122 1                                                 146665117.91011
                                                
  24352508.060 5                                                 127973291.551 5
  99719490.29746                                  24352515.32046
  20438770.688 7  20438778.992 9  20438772.597 9                 107406461.493 7
  83693379.630 9  80206129.798 9                
  23564080.227 5                                                 123830076.844 5
  96491006.83647                                  23564087.77947
  21540894.884 6  21540902.664 9  21540901.526 9                 113198154.239 6
  88206382.550 9  84531114.104 9                
  22491600.751 5  22491611.511 9  22491607.323 9                 118194148.442 5
  92099380.671 9  88261889.396 9                
  24216676.520 5  24216688.518 9  24216689.320 9                 127259534.689 5
  99163639.687 9  95031524.711 9                
  21457159.135 7  21457168.910 9  21457161.188 9                 112758134.322 7
  87863522.627 9  84202516.230 9                
  20703893.466 2                                                 110479933.411 2
                                                
  19900637.761 8  19900640.557 9                                 106529670.555 8
  82856574.917 9                                
  22787497.884 6  22787502.494 9                                 122026037.422 6
  94909158.281 9                                
  22328563.550 7  22328569.643 9                                 119233311.118 7
  92737061.677 9                                
  23488653.178 6  23488661.312 9                                 125516226.793 6
  97623612.006 9                                
  21249782.725 8  21249787.869 9                                 113512527.261 8
  88287438.674 9                                
  23509430.660 6  23509438.882 9                                 125803679.106 6
  97847310.731 9                                
  20903014.500 7  20903018.084 9                                 111581704.357 7
  86785781.434 9                                
  21673434.073 6                                                 115938273.757 6
                                                
 23  9 21 18 48  0.0000000  0 24E03E05E08E13E15E24E25E34G02G10G21G23
                                G24G28G32R06R07R08R09R15R16R21R22R23
  23513314.596 7                                                 123563300.669 7
                                                
  26487622.406 6                                                 139193386.358 6
                                                
  24857215.225 7                                                 130625549.262 7
                                                
  24913411.143 7                                                 130920859.205 7
                                                
  24628142.680 6                                                 129421762.407 6
                                                
  27530630.893 6                                                 144674448.143 6
                                                
  27653072.801 3                                                 145317893.495 3
                                                
  27917899.584 1                                                 146709522.677 1
                                                
  24344547.656 5                                                 127931458.194 5
  99686892.92747                                  24344553.74947
  20437115.989 7  20437124.438 9  20437117.877 9                 107397766.113 7
  83686603.993 9  80199636.478 9                
  23558251.764 5                                                 123799446.257 5
  96467138.89247                                  23558258.81947
  21546173.770 7  21546181.348 9  21546180.298 9                 113225894.809 7
  88227998.548 9  84551829.417 9                
  22498292.671 5  22498303.171 9  22498299.025 9                 118229313.160 5
  92126781.706 9  88288148.736 9                
  24204692.415 5  24204703.948 9  24204705.005 9                 127196557.337 5
  99114566.539 9  94984496.298 9                
  21451449.483 7  21451458.675 9  21451451.192 9                 112728127.806 7
  87840140.939 9  84180108.768 9                
  20708611.032 2                                                 110505105.414 2
                                                
  19896957.378 8  19896959.740 9                                 106509967.503 8
  82841250.338 9                                
  22778039.969 6  22778045.192 9                                 121975392.180 6
  94869767.616 9                                
  22316779.404 6  22316785.691 9                                 119170385.188 6
  92688119.345 9                                
  23495829.206 6  23495837.749 9                                 125554576.104 6
  97653439.198 9                                
  21247189.454 7  21247194.367 9                                 113498673.467 7
  88276663.517 9                                
  23521161.125 6  23521169.606 9                                 125866450.064 6
  97896132.434 9                                
  20908760.248 7  20908763.942 9                                 111612375.255 7
  86809636.549 9                                
  21667601.105 6                                                 115907072.607 6
                                                
 23  9 21 18 48 15.0000000  0 24E03E05E08E13E15E24E25E34G02G10G21G23
                                G24G28G32R06R07R08R09R15R16R21R22R23
  23513864.850 7                                                 123566191.985 7
                                                
  26493289.993 6                                                 139223168.744 6
                                                
  24851261.142 7                                                 130594262.274 7
                                                
  24909798.323 6                                                 130901874.487 6
                                                
  24632952.447 7                                                 129447035.360 7
                                                
  27527625.988 6                                                 144658657.135 6
                                                
  27644726.822 4                                                 145274028.800 4
                                                
  27926341.921 1                                                 146753898.913 1
                                                
  24336597.050 5                                                 127889679.448 5
  99654338.10746                                  24336603.35846
  20435474.667 7  20435482.851 9  20435476.266 9                 107389139.637 7
  83679882.066 9  80193194.627 9                
  23552435.926 5                                                 123768886.368 5
  96443326.02547                                  23552443.67747
  21551462.807 7  21551470.418 9  21551469.167 9                 113253688.394 7
  88249655.863 9  84572584.319 9                
  22504998.880 5  22505009.721 9  22505005.194 9                 118264554.442 5
  92154242.405 9  88314465.212 9                
  24192706.661 5  24192718.171 9  24192719.409 9                 127133572.719 5
  99065487.746 9  94937462.459 9                
  21445747.678 7  21445756.992 9  21445749.240 9                 112698164.903 7
  87816793.244 9  84157733.878 9                
  20713333.559 3                                                 110530308.895 3
                                                
  19893285.854 8  19893288.962 9                                 106490314.215 8
  82825964.466 9                                
  22768580.871 5  22768585.776 9                                 121924742.444 5
  94830373.419 9                                
  22305003.736 6  22305009.721 9                                 119107504.944 6
  92639212.564 9                                
  23503025.095 6  23503033.329 9                                 125593028.254 6
  97683346.373 9                                
  21244627.455 7  21244632.611 9                                 113484989.567 7
  88266020.486 9                                
  23532888.278 6  23532897.947 9                                 125929205.266 6
  97944941.939 9                                
  20914531.773 7  20914534.894 9                                 111643180.545 7
  86833596.173 9                                
  21661798.206 6                                                 115876031.471 6
                                                
 23  9 21 18 48 30.0000000  0 24E03E05E08E13E15E24E25E34G02G10G21G23
                                G24G28G32R06R07R08R09R15R16R21R22R23
  23514420.584 7                                                 123569111.937 7
                                                
  26498954.686 6                                                 139252937.646 6
                                                
  24845311.753 7                                                 130562995.973 7
                                                
  24906201.125 6                                                 130882971.041 6
                                                
  24637773.802 6                                                 129472370.563 6
                                                
  27524635.422 6                                                 144642944.067 6
                                                
  27636382.086 5                                                 145230175.601 5
                                                
  27934781.079 1                                                 146798254.991 1
                                                
  24328658.670 5                                                 127847964.051 5
  99621832.65146                                  24328665.65446
  20433847.820 8  20433856.088 9  20433849.567 9                 107380590.699 8
  83673220.551 9  80186810.682 9                
  23546635.502 5                                                 123738405.959 5
  96419575.09247                                  23546643.55847
  21556763.526 7  21556770.978 9  21556770.087 9                 113281543.408 7
  88271361.026 9  84593385.103 9                
  22511721.158 5  22511732.100 9  22511727.880 9                 118299880.334 5
  92181769.040 9  88340844.912 9                
  24180721.188 5  24180732.660 9  24180733.953 9                 127070589.621 5
  99016410.139 9  94890429.751 9                
  21440055.756 7  21440065.145 9  21440057.260 9                 112668254.184 7
  87793486.211 9  84135397.969 9                
  20718064.692 3                                                 110555552.415 3
                                                
  19889625.503 8  19889628.003 9                                 106470718.944 8
  82810723.702 9                                
  22759123.197 5  22759128.474 9                                 121874097.113 5
  94790982.690 9                                
  22293238.689 6  22293245.207 9                                 119044679.500 6
  92590348.436 9                                
  23510241.409 6  23510250.415 9                                 125631591.719 6
  97713340.107 9                                
  21242099.453 7  21242104.797 9                                 113471484.265 7
  88255516.364 9                                
  23544614.269 6  23544623.820 9                                 125991952.993 6
  97993745.526 9                                
  20920328.811 7  20920332.559 9                                 111674128.282 7
  86857666.608 9                                
  21656026.785 6                                                 115845159.430 6
                                                
 23  9 21 18 48 45.0000000  0 24E03E05E08E13E15E24E25E34G02G10G21G23
                                G24G28G32R06R07R08R09R15R16R21R22R23
  23514982.577 7                                                 123572065.683 7
                                                
  26504617.769 6                                                 139282698.290 6
                                                
  24839366.775 7                                                 130531755.602 7
                                                
  24902620.192 6                                                 130864154.260 6
                                                
  24642607.778 7                                                 129497773.112 7
                                                
  27521660.847 6                                                 144627314.253 6
                                                
  27628039.990 5                                                 145186339.314 5
                                                
  27943219.165 2                                                 146842595.956 2
                                                
  24320733.915 5                                                 127806317.497 5
  99589380.81747                                  24320740.87447
  20432236.665 8  20432244.916 9  20432238.303 9                 107372124.516 8
  83666623.521 9  80180488.532 9                
  23540851.159 5                                                 123708010.349 5
  96395890.22047                                  23540859.76047
  21562076.878 7  21562084.172 9  21562083.324 9                 113309465.016 7
  88293118.083 9  84614235.602 9                
  22518460.202 5  22518471.449 9  22518467.310 9                 118335295.808 5
  92209365.483 9  88367291.485 9                
  24168737.226 5  24168748.242 9  24168749.710 9                 127007613.640 5
  98967337.995 9  94843402.357 9                
  21434374.808 7  21434384.264 9  21434376.587 9                 112638400.930 7
  87770223.949 9  84113104.960 9                
  20722803.685 2                                                 110580841.131 2
                                                
  19885976.681 8  19885979.230 9                                 106451187.058 8
  82795532.244 9                                
  22749667.519 5  22749672.563 9                                 121823461.467 5
  94751599.480 9                                
  22281484.879 6  22281491.241 9                                 118981914.682 6
  92541531.455 9                                
  23517480.497 5  23517488.809 9                                 125670271.240 5
  97743424.125 9                                
  21239605.717 7  21239610.356 9                                 113458162.969 7
  88245155.376 9                                
  23556339.969 6  23556349.104 9                                 126054698.165 6
  98042547.156 9                                
  20926153.862 7  20926157.885 9                                 111705223.385 7
  86881851.663 9                                
  21650288.669 6                                                 115814461.913 6
                                                
 23  9 21 18 49  0.0000000  0 24E03E05E08E13E15E24E25E34G02G10G21G23
                                G24G28G32R06R07R08R09R15R16R21R22R23
  23515550.744 7                                                 123575051.708 7
                                                
  26510279.423 6                                                 139312449.130 6
                                                
  24833426.817 7                                                 130500539.759 7
                                                
  24899055.690 6                                                 130845422.803 6
                                                
  24647454.390 7                                                 129523241.408 7
                                                
  27518702.512 5                                                 144611766.417 5
                                                
  27619700.993 4                                                 145142518.822 4
                                                
  27951653.250 2                                                 146886920.249 2
                                                
  24312821.603 5                                                 127764738.549 5
  99556981.67447                                  24312828.50047
  20430641.157 7  20430649.572 9  20430642.912 9                 107363739.982 7
  83660090.117 9  80174227.352 9                
  23535083.321 5                                                 123677698.017 5
  96372270.27647                                  23535090.71647
  21567402.524 7  21567410.033 9  21567408.936 9                 113337451.681 7
  88314925.825 9  84635134.694 9                
  22525216.493 5  22525227.385 9  22525223.623 9                 118370799.088 5
  92237030.326 9  88393803.637 9                
  24156754.730 5  24156765.835 9  24156766.815 9                 126944643.555 5
  98918270.509 9  94796379.361 9                
  21428704.565 7  21428713.891 9  21428706.375 9                 112608603.728 7
  87747005.361 9  84090853.802 9                
  20727550.685 3                                                 110606173.700 3
                                                
  19882339.246 8  19882341.112 9                                 106431717.294 8
  82780389.081 9                                
  22740213.749 5  22740217.720 9                                 121772834.116 5
  94712222.673 9                                
  22269742.269 7  22269748.844 9                                 118919209.677 7
  92492760.966 9                                
  23524739.966 5  23524748.072 9                                 125709065.063 5
  97773597.020 9                                
  21237146.280 7  21237151.109 9                                 113445024.510 7
  88234936.590 9                                
  23568064.460 6  23568073.743 9                                 126117438.618 6
  98091345.151 9                                
  20932006.584 7  20932009.676 9                                 111736464.026 7
  86906149.901 9                                
  21644582.482 6                                                 115783937.742 6
                                                
 23  9 21 18 49 15.0000000  0 24E03E05E08E13E15E24E25E34G02G10G21G23
                                G24G28G32R06R07R08R09R15R16R21R22R23
  23516124.224 7                                                 123578065.938 7
                                                
  26515938.192 6                                                 139342186.080 6
                                                
  24827490.519 7                                                 130469344.425 7
                                                
  24895506.758 7                                                 130826772.792 7
                                                
  24652312.166 6                                                 129548771.286 6
                                                
  27515758.596 5                                                 144596296.566 5
                                                
  27611364.159 4                                                 145098710.269 4
                                                
  27960084.395 3                                                 146931223.501 3
                                                
  24304921.435 5                                                 127723223.465 5
  99524632.31547                                  24304928.60547
  20429060.326 8  20429068.638 9  20429062.335 9                 107355433.195 8
  83653617.287 9  80168024.218 9                
  23529330.015 5                                                 123647465.545 5
  96348712.51547                                  23529337.74847
  21572739.889 7  21572747.305 9  21572745.958 9                 113365499.311 7
  88336781.097 9  84656079.326 9                
  22531988.623 5  22531999.361 9  22531995.739 9                 118406385.764 5
  92264760.178 9  88420378.046 9                
  24144772.586 5  24144783.048 9  24144784.214 9                 126881675.692 5
  98869204.759 9  94749358.044 9                
  21423044.562 7  21423053.602 9  21423046.227 9                 112578858.567 7
  87723827.359 9  84068641.522 9                
  20732305.694 3                                                 110631545.841 3
                                                
  19878713.350 8  19878715.335 9                                 106412305.791 8
  82765291.255 9                                
  22730759.622 5  22730764.384 9                                 121722211.290 5
  94672849.471 9                                
  22258009.772 6  22258016.944 9                                 118856560.839 6
  92444034.142 9                                
  23532020.055 6  23532028.088 9                                 125747968.529 6
  97803855.258 9                                
  21234719.971 7  21234724.906 9                                 113432064.814 7
  88224856.846 9                                
  23579786.951 5  23579796.606 9                                 126180169.872 5
  98140135.956 9                                
  20937885.189 7  20937889.124 9                                 111767845.670 7
  86930557.811 9                                
  21638908.073 6                                                 115753583.146 6
                                                
 23  9 21 18 49 30.0000000  0 23E03E05E08E13E15E24E25G02G10G21G23G24
                                G28G32R06R07R08R09R15R16R21R22R23
  23516702.242 7                                                 123581103.691 7
                                                
  26521593.277 6                                                 139371904.487 6
                                                
  24821557.516 7                                                 130438165.012 7
                                                
  24891972.114 6                                                 130808199.753 6
                                                
  24657181.264 6                                                 129574357.994 6
                                                
  27512828.986 5                                                 144580900.254 5
                                                
  27603028.568 5                                                 145054909.440 5
                                                
  24297032.561 5                                                 127681767.974 5
  99492329.39847                                  24297039.80147
  20427493.585 8  20427501.945 9  20427495.573 9                 107347199.626 8
  83647201.528 9  80161875.785 9                
  23523591.409 6                                                 123617308.514 6
  96325213.52347                                  23523599.21847
  21578087.859 7  21578095.104 9  21578094.458 9                 113393603.249 7
  88358680.236 9  84677065.994 9                
  22538775.311 5  22538786.243 9  22538782.539 9                 118442050.948 5
  92292551.168 9  88447011.090 9                
  24132789.375 5  24132801.109 9  24132801.522 9                 126818705.794 5
  98820137.392 9  94702335.173 9                
  21417393.142 7  21417402.319 9  21417394.802 9                 112549160.936 7
  87700686.334 9  84046464.729 9                
  20737066.894 3                                                 110656952.722 3
                                                
  19875096.903 8  19875099.060 9                                 106392947.503 8
  82750234.810 9                                
  22721306.594 5  22721311.059 9                                 121671587.829 5
  94633475.700 9                                
  22246287.868 6  22246294.211 9                                 118793964.273 6
  92395348.017 9                                
  23539319.755 5  23539328.595 9                                 125786976.457 5
  97834194.736 9                                
  21232326.796 7  21232331.549 9                                 113419279.485 7
  88214912.688 9                                
  23591507.864 6  23591516.910 9                                 126242886.580 6
  98188915.458 9                                
  20943789.662 7  20943793.366 9                                 111799363.272 7
  86955071.452 9                                
  21633264.193 6                                                 115723393.783 6
                                                
 23  9 21 18 49 45.0000000  0 23E03E05E08E13E15E24E25G02G10G21G23G24
                                G28G32R06R07R08R09R15R16R21R22R23
  23517285.882 7                                                 123584170.329 7
                                                
  26527246.165 6                                                 139401609.714 6
                                                
  24815627.952 7                                                 130407006.957 7
                                                
  24888453.680 6                                                 130789709.233 6
                                                
  24662062.334 6                                                 129600006.798 6
                                                
  27509914.192 6                                                 144565583.029 6
                                                
  27594696.242 5                                                 145011121.992 5
                                                
  24289156.457 6                                                 127640377.944 6
  99460077.46947                                  24289164.28547
  20425941.888 8  20425950.083 9  20425943.648 9                 107339044.787 8
  83640847.104 9  80155786.124 9                
  23517868.054 6                                                 123587232.288 6
  96301777.53447                                  23517876.41847
  21583447.966 6  21583455.283 9  21583453.757 9                 113421768.832 6
  88380627.417 9  84698098.691 9                
  22545577.909 5  22545588.538 9  22545585.276 9                 118477799.667 5
  92320407.284 9  88473706.524 9                
  24120807.282 5  24120818.368 9  24120818.849 9                 126755739.551 5
  98771072.886 9  94655315.071 9                
  21411751.799 7  21411761.124 9  21411753.828 9                 112519516.254 7
  87677586.613 9  84024327.476 9                
  20741835.067 2                                                 110682399.941 2
                                                
  19871491.768 8  19871494.147 9                                 106373648.311 8
  82735224.335 9                                
  22711853.881 4  22711858.717 9                                 121620969.942 4
  94594106.311 9                                
  22234575.600 6  22234582.754 9                                 118731425.755 6
  92346707.070 9                                
  23546640.317 4  23546648.564 9                                 125826094.105 4
  97864619.516 9                                
  21229966.564 7  21229971.842 9                                 113406674.012 7
  88205108.438 9                                
  23603226.236 5  23603235.626 9                                 126305593.750 5
  98237687.536 9                                
  20949720.672 7  20949723.768 9                                 111831021.861 7
  86979694.772 9                                
  21627652.324 6                                                 115693375.574 6
                                                
 23  9 21 18 50  0.0000000  0 23E03E05E08E13E15E24E25G02G10G21G23G24
                                G28G32R06R07R08R09R15R16R21R22R23
  23517876.081 7                                                 123587271.886 7
                                                
  26532897.368 6                                                 139431307.806 6
                                                
  24809703.822 7                                                 130375876.385 7
                                                
  24884951.847 6                                                 130771307.470 6
                                                
  24666956.062 7                                                 129625723.632 7
                                                
  27507015.471 5                                                 144550351.053 5
                                                
  27586367.837 5                                                 144967354.288 5
                                                
  24281293.627 6                                                 127599059.559 6
  99427881.35947                                  24281301.93247
  20424406.284 7  20424414.706 9  20424408.073 9                 107330975.012 7
  83634558.966 9  80149759.986 9                
  23512161.266 6                                                 123557243.163 6
  96278409.44247                                  23512169.80947
  21588820.627 6  21588827.867 9  21588826.270 9                 113450002.110 6
  88402627.347 9  84719181.953 9                
  22552398.108 5  22552408.667 9  22552405.495 9                 118513637.752 5
  92348333.036 9  88500468.689 9                
  24108826.627 4  24108838.284 9  24108838.518 9                 126692783.412 4
  98722016.287 9  94608302.478 9                
  21406121.825 7  21406131.067 9  21406123.803 9                 112489930.707 7
  87654532.952 9  84002234.387 9                
  20746612.873 3                                                 110707893.563 3
                                                
  19867898.733 8  19867900.449 9                                 106354414.471 8
  82720264.688 9                                
  22702403.615 4  22702408.049 9                                 121570363.527 4
  94554745.815 9                                
  22222876.326 6  22222883.516 9                                 118668952.116 6
  92298116.547 9                                
  23553982.364 5  23553990.716 9                                 125865327.071 5
  97895133.960 9                                
  21227642.115 7  21227646.567 9                                 113394254.676 7
  88195448.966 9                                
  23614943.700 6  23614953.803 9                                 126368297.271 6
  98286456.753 9                                
  20955679.039 7  20955682.531 9                                 111862827.114 7
  87004432.146 9                                
  21622073.809 6                                                 115663534.903 6
                                                
 23  9 21 18 50 15.0000000  0 23E03E05E08E13E15E24E25G02G10G21G23G24
                                G28G32R06R07R08R09R15R16R21R22R23
  23518473.117 7                                                 123590409.207 7
                                                
  26538547.533 6                                                 139460999.622 6
                                                
  24803785.435 7                                                 130344774.231 7
                                                
  24881467.335 6                                                 130752995.533 6
                                                
  24671863.241 7                                                 129651509.270 7
                                                
  27504133.267 6                                                 144535205.422 6
                                                
  27578043.365 5                                                 144923607.535 5
                                                
  24273445.253 6                                                 127557814.023 6
  99395742.03147                                  24273452.77347
  20422887.036 7  20422895.379 9  20422888.812 9                 107322991.230 7
  83628337.832 9  80143798.080 9                
  23506471.575 6                                                 123527342.279 6
  96255110.06447                                  23506478.25347
  21594206.016 6  21594213.400 9  21594212.154 9                 113478303.913 6
  88424680.652 9  84740316.371 9                
  22559234.716 5  22559245.784 9  22559242.428 9                 118549565.729 5
  92376328.830 9  88527297.974 9                
  24096848.602 5  24096859.909 9  24096860.619 9                 126629838.589 5
  98672968.504 9  94561298.351 9                
  21400503.243 7  21400512.396 9  21400505.492 9                 112460405.228 7
  87631526.104 9  83980186.161 9                
  20751398.730 3                                                 110733434.271 3
                                                
  19864318.027 8  19864319.985 9                                 106335246.672 8
  82705356.399 9                                
  22692955.531 4  22692959.863 9                                 121519769.759 4
  94515395.203 9                                
  22211189.250 6  22211196.212 9                                 118606545.076 6
  92249577.832 9                                
  23561345.908 4  23561354.178 9                                 125904675.912 4
  97925738.563 9                                
  21225351.626 7  21225356.312 9                                 113382022.507 7
  88185935.056 9                                
  23626661.474 6  23626670.451 9                                 126430997.516 6
  98335223.444 9                                
  20961664.326 7  20961667.939 9                                 111894779.650 7
  87029284.072 9                                
  21616529.064 6                                                 115633873.211 6
                                                
 23  9 21 18 50 30.0000000  0 23E03E05E08E13E15E24E25G02G10G21G23G24
                                G28G32R06R07R08R09R15R16R21R22R23
  23519077.206 7                                                 123593584.132 7
                                                
  26544196.852 6                                                 139490686.993 6
                                                
  24797872.546 7                                                 130313702.403 7
                                                
  24877999.899 6                                                 130734775.393 6
                                                
  24676783.477 7                                                 129677365.444 7
                                                
  27501268.239 5                                                 144520148.036 5
                                                
  27569722.978 6                                                 144879883.894 6
                                                
  24265610.797 6                                                 127516643.473 6
  99363661.11047                                  24265617.96547
  20421384.482 8  20421392.980 9  20421386.286 9                 107315095.747 8
  83622185.504 9  80137902.090 9                
  23500798.415 6                                                 123497531.798 6
  96231881.10847                                  23500805.25547
  21599604.985 6  21599612.641 9  21599611.579 9                 113506676.056 6
  88446788.778 9  84761503.308 9                
  22566089.268 5  22566100.288 9  22566096.488 9                 118585585.204 5
  92404395.888 9  88554195.575 9                
  24084873.013 4  24084883.904 9  24084884.592 9                 126566907.265 4
  98623931.199 9  94514304.334 9                
  21394896.578 7  21394905.609 9  21394898.879 9                 112430941.758 7
  87608567.571 9  83958184.238 9                
  20756195.320 2                                                 110759024.251 2
                                                
  19860749.798 8  19860752.435 9                                 106316147.248 8
  82690501.321 9                                
  22683510.517 3  22683514.625 9                                 121469190.634 3
  94476055.925 9                                
  22199515.120 6  22199521.727 9                                 118544206.791 6
  92201092.646 9                                
  23568731.797 4  23568740.058 9                                 125944142.064 4
  97956434.422 9                                
  21223097.670 7  21223102.796 9                                 113369979.775 7
  88176568.496 9                                
  23638378.379 6  23638387.717 9                                 126493695.787 6
  98383988.578 9                                
  20967678.728 7  20967682.049 9                                 111926880.893 7
  87054251.661 9                                
  21611017.705 6                                                 115604392.537 6
                                                
 23  9 21 18 50 45.0000000  0 23E03E05E08E13E15E24E25G02G10G21G23G24
                                G28G32R06R07R08R09R15R16R21R22R23
  23519688.834 7                                                 123596797.846 7
                                                
  26549845.359 6                                                 139520371.129 6
                                                
  24791965.515 7                                                 130282662.185 7
                                                
  24874550.633 6                                                 130716648.472 6
                                                
  24681717.544 7                                                 129703293.241 7
                                                
  27498420.433 5                                                 144505180.332 5
                                                
  27561407.234 6                                                 144836184.898 6
                                                
  24257790.913 6                                                 127475549.504 6
  99331639.87247                                  24257797.80147
  20419899.034 7  20419907.257 9  20419900.808 9                 107307289.707 7
  83616102.869 9  80132072.908 9                
  23495143.130 6                                                 123467813.197 6
  96208723.76947                                  23495150.59847
  21605017.628 6  21605024.992 9  21605024.468 9                 113535119.731 6
  88468952.635 9  84782743.667 9                
  22572960.927 5  22572972.092 9  22572968.343 9                 118621697.083 5
  92432534.969 9  88581162.179 9                
  24072900.747 4  24072911.790 9  24072911.839 9                 126503991.021 4
  98574905.696 9  94467321.567 9                
  21389302.041 7  21389310.983 9  21389304.228 9                 112401541.611 7
  87585658.384 9  83936229.598 9                
  20761000.432 2                                                 110784664.335 2
                                                
  19857195.332 8  19857197.121 9                                 106297117.322 8
  82675700.283 9                                
  22674067.831 4  22674072.195 9                                 121418627.400 4
  94436729.025 9                                
  22187854.540 6  22187861.559 9                                 118481939.442 6
  92152662.544 9                                
  23576140.060 4  23576147.923 9                                 125983726.361 4
  97987222.146 9                                
  21220878.667 7  21220884.151 9                                 113358127.637 7
  88167350.158 9                                
  23650095.156 6  23650105.111 9                                 126556392.914 6
  98432752.878 9                                
  20973720.455 7  20973723.747 9                                 111959131.831 7
  87079335.702 9                                
  21605540.886 6                                                 115575094.456 6
                                                
 23  9 21 18 51  0.0000000  0 23E03E05E08E13E15E24E25G02G10G21G23G24
                                G28G32R06R07R08R09R15R16R21R22R23
  23520306.931 7                                                 123600047.201 7
                                                
  26555492.920 6                                                 139550048.850 6
                                                
  24786064.397 7                                                 130251650.491 7
                                                
  24871118.133 6                                                 130698611.795 6
                                                
  24686664.475 7                                                 129729289.458 7
                                                
  27495588.526 5                                                 144490299.301 5
                                                
  27553095.872 6                                                 144792507.697 6
                                                
  24249984.803 6                                                 127434529.228 6
  99299676.05547                                  24249991.50447
  20418429.950 7  20418438.500 9  20418431.614 9                 107299570.153 7
  83610087.625 9  80126308.301 9                
  23489504.920 6                                                 123438183.590 6
  96185635.81347                                  23489512.78347
  21610443.633 6  21610450.657 9  21610450.229 9                 113563631.772 6
  88491169.764 9  84804035.091 9                
  22579849.791 6  22579861.110 9  22579857.038 9                 118657897.854 6
  92460743.320 9  88608195.174 9                
  24060930.074 5  24060941.266 9  24060941.736 9                 126441087.175 5
  98525889.812 9  94420348.037 9                
  21383718.802 7  21383727.271 9  21383720.907 9                 112372201.739 7
  87562796.158 9  83914319.966 9                
  20765813.751 3                                                 110810351.544 3
                                                
  19853652.423 8  19853655.250 9                                 106278153.819 8
  82660950.886 9                                
  22664627.710 4  22664632.047 9                                 121368077.319 4
  94397412.382 9                                
  22176207.306 6  22176214.269 9                                 118419740.362 6
  92104285.568 9                                
  23583568.474 4  23583577.157 9                                 126023425.353 4
  98018099.171 9                                
  21218695.255 7  21218700.035 9                                 113346463.283 7
  88158277.881 9                                
  23661810.381 6  23661820.497 9                                 126619085.329 6
  98481513.508 9                                
  20979789.278 7  20979792.735 9                                 111991528.787 7
  87104533.275 9                                
  21600097.676 6                                                 115545976.157 6
                                                
 23  9 21 18 51 15.0000000  0 23E03E05E08E13E15E24E25G02G10G21G23G24
                                G28G32R06R07R08R09R15R16R21R22R23
  23520932.774 7                                                 123603334.796 7
                                                
  26561139.811 6                                                 139579722.765 6
                                                
  24780168.662 7                                                 130220670.001 7
                                                
  24867703.523 6                                                 130680668.144 6
                                                
  24691624.886 7                                                 129755356.552 7
                                                
  27492773.152 5                                                 144475507.692 5
                                                
  27544789.079 6                                                 144748855.291 6
                                                
  24242193.418 6                                                 127393585.796 6
  99267772.09647                                  24242200.64647
  20416977.872 7  20416986.587 9  20416979.660 9                 107291939.799 7
  83604141.901 9  80120610.310 9                
  23483883.844 6                                                 123408645.826 6
  96162619.38547                                  23483891.48347
  21615882.833 6  21615890.087 9  21615889.542 9                 113592214.757 6
  88513442.167 9  84825379.479 9                
  22586755.908 5  22586767.092 9  22586763.214 9                 118694189.911 5
  92489022.803 9  88635296.339 9                
  24048962.559 4  24048973.548 9  24048974.617 9                 126378198.607 4
  98476885.796 9  94373385.908 9                
  21378147.617 7  21378156.167 9  21378149.890 9                 112342924.803 7
  87539982.973 9  83892457.332 9                
  20770637.067 3                                                 110836088.472 3
                                                
  19850122.953 8  19850125.434 9                                 106259259.577 8
  82646255.356 9                                
  22655190.666 4  22655195.149 9                                 121317542.880 4
  94358107.904 9                                
  22164572.256 6  22164578.687 9                                 118357612.473 6
  92055963.970 9                                
  23591019.172 4  23591028.247 9                                 126063241.127 4
  98049066.938 9                                
  21216547.154 7  21216552.134 9                                 113334989.181 7
  88149353.565 9                                
  23673525.882 6  23673535.471 9                                 126681775.170 6
  98530272.090 9                                
  20985886.461 7  20985889.656 9                                 112024074.045 7
  87129846.235 9                                
  21594688.775 6                                                 115517040.597 6
                                                
 23  9 21 18 51 30.0000000  0 23E03E05E08E13E15E24E25G02G10G21G23G24
                                G28G32R06R07R08R09R15R16R21R22R23
  23521565.563 7                                                 123606659.547 7
                                                
  26566785.899 6                                                 139609391.842 6
                                                
  24774278.959 7                                                 130189719.730 7
                                                
  24864306.833 6                                                 130662816.650 6
                                                
  24696598.399 7                                                 129781493.359 7
                                                
  27489975.201 5                                                 144460804.648 5
                                                
  27536486.255 6                                                 144705226.898 6
                                                
  24234416.355 6                                                 127352718.408 6
  99235927.40547                                  24234423.83147
  20415542.765 8  20415551.114 9  20415544.647 9                 107284398.017 8
  83598265.192 9  80114978.456 9                
  23478280.446 6                                                 123379199.112 6
  96139673.90147                                  23478287.60247
  21621335.125 6  21621342.884 9  21621341.978 9                 113620867.565 6
  88535769.021 9  84846776.039 9                
  22593679.065 6  22593690.768 9  22593686.321 9                 118730571.918 6
  92517372.370 9  88662464.649 9                
  24036998.497 5  24037008.811 9  24037010.125 9                 126315324.616 5
  98427893.191 9  94326434.703 9                
  21372588.227 7  21372596.607 9  21372590.786 9                 112313709.886 7
  87517218.111 9  83870641.021 9                
  20775468.478 3                                                 110861873.977 3
                                                
  19846606.003 8  19846608.285 9                                 106240433.446 8
  82631612.827 9                                
  22645756.054 4  22645761.034 9                                 121267023.307 4
  94318814.985 9                                
  22152950.698 6  22152956.654 9                                 118295555.879 6
  92007697.837 9                                
  23598491.908 4  23598501.055 9                                 126103172.412 4
  98080124.576 9                                
  21214434.868 7  21214439.152 9                                 113323704.770 7
  88140576.766 9                                
  23685239.860 6  23685250.003 9                                 126744460.868 6
  98579027.438 9                                
  20992010.520 7  20992013.928 9                                 112056766.110 7
  87155273.368 9                                
  21589313.116 6                                                 115488286.997 6
                                                
 23  9 21 18 51 45.0000000  0 23E03E05E08E13E15E24E25G02G10G21G23G24
                                G28G32R06R07R08R09R15R16R21R22R23
  23522203.540 7                                                 123610013.166 7
                                                
  26572429.064 6                                                 139639047.739 6
                                                
  24768393.340 7                                                 130158791.458 7
                                                
  24860925.776 6                                                 130645049.202 6
                                                
  24701583.702 7                                                 129807691.551 7
                                                
  27487192.637 5                                                 144446181.974 5
                                                
  27528187.516 6                                                 144661614.554 6
                                                
  24226652.360 6                                                 127311918.999 6
  99204135.72447                                  24226659.97847
  20414122.868 7  20414131.443 9  20414124.807 9                 107276936.692 7
  83592451.174 9  80109406.699 9                
  23472693.020 6                                                 123349835.349 6
  96116793.08247                                  23472699.74847
  21626799.390 6  21626806.509 9  21626806.271 9                 113649581.936 6
  88558143.827 9  84868218.548 9                
  22600617.949 5  22600629.486 9  22600624.952 9                 118767035.263 5
  92545785.324 9  88689693.729 9                
  24025034.681 4  24025046.254 9  24025046.418 9                 126252457.294 4
  98378905.802 9  94279488.449 9                
  21367038.827 7  21367047.285 9  21367041.666 9                 112284548.740 7
  87494495.175 9  83848864.867 9                
  20780309.105 4                                                 110887699.655 4
                                                
  19843100.129 8  19843102.202 9                                 106221667.316 8
  82617016.957 9                                
  22636323.743 4  22636327.940 9                                 121216510.066 4
  94279526.938 9                                
  22141340.839 6  22141347.773 9                                 118233562.296 6
  91959480.712 9                                
  23605984.361 3  23605993.241 8                                 126143210.188 3
  98111265.059 8                                
  21212356.022 8  21212360.861 9                                 113312601.655 8
  88131941.012 9                                
  23696952.086 6  23696961.450 9                                 126807133.517 6
  98627772.645 9                                
  20998160.691 7  20998164.504 9                                 112089596.183 7
  87180807.833 9                                
  21583970.639 6                                                 115459707.385 6
                                                
 23  9 21 18 52  0.0000000  0 23E03E05E08E13E15E24E25G02G10G21G23G24
                                G28G32R06R07R08R09R15R16R21R22R23
  23522847.741 7                                                 123613398.014 7
                                                
  26578070.347 6                                                 139668692.841 6
                                                
  24762512.961 7                                                 130127887.642 7
                                                
  24857560.916 6                                                 130627368.345 6
                                                
  24706581.576 7                                                 129833953.339 7
                                                
  27484426.064 5                                                 144431642.300 5
                                                
  27519891.819 6                                                 144618020.985 6
                                                
  24218901.908 5                                                 127271190.465 5
  99172399.24647                                  24218909.23947
  20412719.023 7  20412727.411 9  20412720.696 9                 107269558.249 7
  83586701.735 9  80103896.820 9                
  23467121.398 6                                                 123320557.055 6
  96093978.85647                                  23467128.66347
  21632275.673 6  21632283.396 9  21632282.434 9                 113678360.203 6
  88580568.426 9  84889708.769 9                
  22607572.600 5  22607584.115 9  22607579.760 9                 118803582.036 5
  92574263.272 9  88716985.090 9                
  24013072.697 4  24013084.860 9  24013084.908 9                 126189599.396 4
  98329925.763 9  94232549.251 9                
  21361500.503 7  21361509.023 9  21361503.196 9                 112255443.913 7
  87471816.086 9  83827130.750 9                
  20785156.839 3                                                 110913567.839 3
                                                
  19839606.571 8  19839608.624 9                                 106202963.517 8
  82602469.571 9                                
  22626892.569 5  22626896.319 9                                 121166005.929 5
  94240246.000 9                                
  22129743.940 6  22129750.981 9                                 118171634.963 6
  91911315.060 9                                
  23613497.287 3  23613506.105 9                                 126183356.480 3
  98142489.896 9                                
  21210312.285 7  21210317.025 9                                 113301682.502 7
  88123448.347 9                                
  23708662.034 6  23708672.132 9                                 126869795.272 6
  98676509.370 9                                
  21004336.963 7  21004340.421 9                                 112122566.289 7
  87206451.204 9                                
  21578661.009 6                                                 115431304.402 6
                                                
 23  9 21 18 52 15.0000000  0 22E03E05E08E13E15E24E25G02G10G21G23G24
                                G28G32R06R07R08R09R15R16R22R23
  23523497.431 7                                                 123616812.529 7
                                                
  26583709.471 6                                                 139698325.648 6
                                                
  24756636.267 7                                                 130097006.804 7
                                                
  24854213.201 6                                                 130609772.741 6
                                                
  24711590.872 7                                                 129860277.080 7
                                                
  27481674.978 5                                                 144417184.179 5
                                                
  27511599.065 6                                                 144574444.941 6
                                                
  24211165.095 5                                                 127230531.472 5
  99140716.95447                                  24211171.96747
  20411330.494 7  20411338.571 9  20411332.044 9                 107262261.314 7
  83581015.821 9  80098447.819 9                
  23461565.937 6                                                 123291363.079 6
  96071230.30447                                  23461572.64147
  21637763.913 6  21637770.969 9  21637770.883 9                 113707200.810 6
  88603041.587 9  84911245.549 9                
  22614543.002 5  22614554.094 9  22614549.987 9                 118840210.389 5
  92602804.812 9  88744337.392 9                
  24001113.183 5  24001124.684 9  24001125.277 9                 126126749.755 5
  98280952.188 9  94185616.229 9                
  21355972.579 7  21355980.520 9  21355975.332 9                 112226393.901 7
  87449179.739 9  83805437.581 9                
  20790012.193 3                                                 110939477.023 3
                                                
  19836123.720 8  19836125.812 9                                 106184320.544 8
  82587969.484 9                                
  22617462.191 5  22617466.462 9                                 121115509.320 5
  94200970.915 9                                
  22118159.034 6  22118165.608 9                                 118109772.877 6
  91863200.179 9                                
  23621029.763 3  23621038.868 9                                 126223609.253 3
  98173797.567 9                                
  21208302.553 7  21208307.079 9                                 113290945.830 7
  88115097.592 9                                
  21010539.546 7  21010542.851 9                                 112155674.513 7
  87232202.027 9                                
  21573384.100 6                                                 115403076.830 6
                                                
 23  9 21 18 52 30.0000000  0 22E03E05E08E13E15E24E25G02G10G21G23G24
                                G28G32R06R07R08R09R15R16R22R23
  23524152.696 7                                                 123620255.720 7
                                                
  26589346.449 6                                                 139727945.090 6
                                                
  24750763.654 7                                                 130066148.022 7
                                                
  24850880.465 6                                                 130592261.518 6
                                                
  24716611.735 7                                                 129886661.684 7
                                                
  27478938.718 6                                                 144402806.719 6
                                                
  27503310.367 6                                                 144530885.771 6
                                                
  24203441.272 6                                                 127189941.318 6
  99109088.30247                                  24203447.67747
  20409957.226 7  20409965.575 9  20409958.643 9                 107255045.070 7
  83575392.768 9  80093059.064 9                
  23456026.534 6                                                 123262252.617 6
  96048546.84347                                  23456033.17047
  21643263.822 7  21643270.947 9  21643270.596 9                 113736102.741 7
  88625562.565 9  84932828.127 9                
  22621528.351 5  22621539.168 9  22621535.582 9                 118876919.098 5
  92631408.962 9  88771749.690 9                
  23989154.801 5  23989165.832 9  23989166.863 9                 126063907.745 5
  98231984.509 9  94138688.937 9                
  21350454.665 7  21350463.023 9  21350457.541 9                 112197397.809 7
  87426585.394 9  83783784.675 9                
  20794875.206 3                                                 110965426.076 3
                                                
  19832652.167 8  19832654.465 9                                 106165737.511 8
  82573516.022 9                                
  22608034.335 4  22608037.358 9                                 121065019.229 4
  94161700.917 9                                
  22106586.077 5  22106592.492 9                                 118047975.768 5
  91815135.877 9                                
  23628582.394 4  23628591.721 9                                 126263967.307 4
  98205187.141 9                                
  21206326.449 8  21206331.686 9                                 113280390.712 8
  88106888.056 9                                
  21016767.252 7  21016770.876 9                                 112188919.433 7
  87258059.148 9                                
  21568140.134 6                                                 115375024.233 6
                                                
 23  9 21 18 52 45.0000000  0 22E03E05E08E13E15E24E25G02G10G21G23G24
                                G28G32R06R07R08R09R15R16R22R23
  23524814.322 7                                                 123623732.467 7
                                                
  26594981.255 6                                                 139757556.113 6
                                                
  24744896.624 7                                                 130035316.243 7
                                                
  24847565.351 6                                                 130574839.774 6
                                                
  24721645.099 7                                                 129913111.944 7
                                                
  27476218.589 5                                                 144388515.014 5
                                                
  27495025.422 6                                                 144487348.708 6
                                                
  24195731.182 6                                                 127149425.182 6
  99077517.29047                                  24195737.83047
  20408600.344 7  20408608.438 9  20408601.901 9                 107247914.813 7
  83569836.732 9  80087734.519 9                
  23450503.625 6                                                 123233230.767 6
  96025932.45747                                  23450510.22547
  21648776.291 7  21648783.276 9  21648783.290 9                 113765070.877 7
  88648135.079 9  84954460.140 9                
  22628530.094 5  22628540.934 9  22628537.058 9                 118913712.727 5
  92660079.286 9  88799225.418 9                
  23977198.188 4  23977210.115 9  23977210.321 9                 126001078.685 4
  98183026.889 9  94091771.229 9                
  21344948.080 7  21344955.977 9  21344950.885 9                 112168460.633 7
  87404036.942 9  83762175.771 9                
  20799745.762 3                                                 110991420.048 3
                                                
  19829192.728 8  19829195.547 9                                 106147219.657 8
  82559113.271 9                                
  22598607.478 5  22598610.590 9                                 121014541.181 5
  94122440.256 9                                
  22095026.684 6  22095033.889 9                                 117986249.007 6
  91767126.272 9                                
  23636155.450 4  23636165.081 9                                 126304435.211 4
  98236662.179 9                                
  21204385.595 7  21204390.189 9                                 113270022.268 7
  88098823.731 9                                
  21023021.451 7  21023025.457 9                                 112222305.608 7
  87284026.134 9                                
  21562929.885 6                                                 115347151.614 6
                                                
 23  9 21 18 53  0.0000000  0 22E03E05E08E13E15E24E25G02G10G21G23G24
                                G28G32R06R07R08R09R15R16R22R23
  23525483.333 7                                                 123627248.678 7
                                                
  26600615.499 6                                                 139787164.596 6
                                                
  24739035.766 7                                                 130004517.476 7
                                                
  24844268.518 6                                                 130557513.612 6
                                                
  24726691.645 7                                                 129939633.653 7
                                                
  27473516.522 5                                                 144374315.146 5
                                                
  27486746.115 6                                                 144443839.956 6
                                                
  24188036.352 6                                                 127108989.354 6
  99046008.88147                                  24188043.51547
  20407260.978 7  20407269.132 9  20407262.689 9                 107240876.273 7
  83564352.148 9  80082478.458 9                
  23444998.871 6                                                 123204303.791 6
  96003391.98847                                  23445005.51147
  21654302.667 6  21654309.787 9  21654309.359 9                 113794111.074 6
  88670763.777 9  84976145.959 9                
  22635549.179 5  22635559.979 9  22635555.979 9                 118950596.954 5
  92688820.175 9  88826768.772 9                
  23965245.672 5  23965257.521 9  23965258.422 9                 125938268.694 5
  98134084.198 9  94044867.815 9                
  21339453.870 7  21339461.480 9  21339456.782 9                 112139588.361 7
  87381539.079 9  83740615.334 9                
  20804626.926 3                                                 111017464.832 3
                                                
  19825746.773 8  19825748.160 9                                 106128772.771 8
  82544765.684 9                                
  22589183.465 5  22589187.621 9                                 120964080.997 5
  94083193.469 9                                
  22083481.557 6  22083488.637 9                                 117924599.297 6
  91719176.566 9                                
  23643749.479 5  23643759.559 9                                 126345018.449 5
  98268226.803 9                                
  21202480.695 7  21202485.658 9                                 113259846.802 7
  88090909.521 9                                
  21029303.871 7  21029307.454 9                                 112255838.716 7
  87310107.404 9                                
  21557754.215 6                                                 115319465.354 6
                                                
 23  9 21 18 53 15.0000000  0 22E03E05E08E13E15E24E25G02G10G21G23G24
                                G28G32R06R07R08R09R15R16R22R23
  23526158.538 7                                                 123630796.697 7
                                                
  26606247.779 6                                                 139816762.916 6
                                                
  24733179.877 7                                                 129973744.161 7
                                                
  24840988.321 6                                                 130540275.568 6
                                                
  24731750.678 7                                                 129966219.092 7
                                                
  27470830.621 5                                                 144360199.654 5
                                                
  27478470.354 6                                                 144400352.268 6
                                                
  24180355.439 5                                                 127068626.500 5
  99014557.36347                                  24180363.28747
  20405937.680 7  20405945.884 9  20405939.408 9                 107233922.215 7
  83558933.412 9  80077285.497 9                
  23439511.444 6                                                 123175464.333 6
  95980919.70747                                  23439517.96447
  21659840.995 6  21659848.519 9  21659847.647 9                 113823215.715 6
  88693442.678 9  84997879.912 9                
  22642583.665 5  22642594.750 9  22642590.683 9                 118987563.798 5
  92717625.461 9  88854373.819 9                
  23953295.951 5  23953307.629 9  23953308.231 9                 125875470.636 5
  98085150.748 9  93997973.343 9                
  21333970.396 7  21333978.206 9  21333973.546 9                 112110773.496 7
  87359085.959 9  83719097.754 9                
  20809515.552 4                                                 111043552.809 4
                                                
  19822312.374 8  19822314.753 9                                 106110389.585 8
  82530467.648 9                                
  22579762.014 5  22579766.761 9                                 120913631.397 5
  94043954.944 9                                
  22071949.794 6  22071956.052 9                                 117863019.534 6
  91671281.283 9                                
  23651365.189 5  23651373.746 8                                 126385708.980 5
  98299874.933 8                                
  21200610.497 8  21200615.289 9                                 113249856.499 8
  88083139.288 9                                
  21035611.361 7  21035615.333 9                                 112289510.524 7
  87336296.553 9                                
  21552611.363 6                                                 115291958.202 6
                                                
 23  9 21 18 53 30.0000000  0 22E03E05E08E13E15E24E25G02G10G21G23G24
                                G28G32R06R07R08R09R15R16R22R23
  23526839.470 7                                                 123634374.365 7
                                                
  26611877.779 6                                                 139846348.934 6
                                                
  24727328.164 7                                                 129942994.185 7
                                                
  24837724.218 6                                                 130523123.658 6
                                                
  24736821.575 7                                                 129992866.016 7
                                                
  27468160.477 5                                                 144346166.515 5
                                                
  27470198.467 6                                                 144356883.780 6
                                                
  24172688.001 6                                                 127028334.869 6
  98983161.32647                                  24172695.89847
  20404630.139 8  20404638.286 9  20404631.703 9                 107227050.836 8
  83553579.079 9  80072154.271 9                
  23434039.243 5                                                 123146710.472 5
  95958514.13947                                  23434045.83547
  21665391.148 6  21665398.524 9  21665397.572 9                 113852382.581 6
  88716170.075 9  85019660.326 9                
  22649633.338 5  22649644.376 9  22649640.502 9                 119024610.818 5
  92746493.235 9  88882038.760 9                
  23941347.932 5  23941359.182 9  23941359.210 9                 125812682.678 5
  98036225.229 9  93951086.373 9                
  21328497.926 7  21328505.617 9  21328500.628 9                 112082013.952 7
  87336675.917 9  83697621.494 9                
  20814412.627 3                                                 111069681.539 3
                                                
  19818890.214 8  19818891.867 9                                 106092067.821 8
  82516217.388 9                                
  22570342.849 6  22570346.646 9                                 120863190.104 6
  94004722.874 9                                
  22060430.511 6  22060436.928 9                                 117801508.079 6
  91623439.152 9                                
  23658998.857 5  23659008.269 8                                 126426504.039 5
  98331604.337 8                                
  21198774.219 7  21198779.620 9                                 113240049.644 7
  88075511.732 9                                
  21041944.916 7  21041949.004 9                                 112323318.514 7
  87362591.617 9                                
  21547502.724 6                                                 115264628.089 6
                                                
 23  9 21 18 53 45.0000000  0 22E03E05E08E13E15E24E25G02G10G21G23G24
                                G28G32R06R07R08R09R15R16R22R23
  23527525.541 7                                                 123637979.895 7
                                                
  26617505.407 6                                                 139875920.840 6
                                                
  24721480.775 7                                                 129912265.864 7
                                                
  24834476.395 6                                                 130506056.274 6
                                                
  24741903.902 7                                                 130019572.469 7
                                                
  27465505.554 6                                                 144332214.021 6
                                                
  27461930.332 6                                                 144313433.002 6
                                                
  24165034.214 6                                                 126988113.003 6
  98951819.68347                                  24165042.11347
  20403337.954 8  20403345.710 9  20403339.452 9                 107220260.272 8
  83548287.732 9  80067083.388 9                
  23428583.541 5                                                 123118040.444 5
  95936173.88647                                  23428589.25047
  21670953.085 6  21670960.409 9  21670959.553 9                 113881609.858 6
  88738944.553 9  85041485.846 9                
  22656698.188 5  22656708.948 9  22656704.895 9                 119061735.994 5
  92775421.894 9  88909762.030 9                
  23929401.809 5  23929412.246 9  23929412.673 9                 125749903.405 5
  97987306.411 9  93904205.874 9                
  21323035.139 7  21323043.204 9  21323038.186 9                 112053308.008 7
  87314307.675 9  83676185.266 9                
  20819316.235 4                                                 111095849.341 4
                                                
  19815478.329 8  19815479.829 9                                 106073805.655 8
  82502013.467 9                                
  22560924.539 5  22560929.187 9                                 120812755.354 5
  93965495.910 9                                
  22048923.712 6  22048930.962 9                                 117740063.836 6
  91575649.234 9                                
  23666652.175 4  23666661.784 8                                 126467401.715 4
  98363413.585 8                                
  21196972.400 7  21196977.316 9                                 113230424.106 7
  88068025.202 9                                
  21048303.541 7  21048307.237 9                                 112357260.495 7
  87388990.894 9                                
  21542426.414 6                                                 115237473.669 6
                                                
 23  9 21 18 54  0.0000000  0 22E03E05E08E13E15E24E25G02G10G21G23G24
                                G28G32R06R07R08R09R15R16R22R23
  23528217.757 7                                                 123641617.803 7
                                                
  26623130.904 6                                                 139905483.150 6
                                                
  24715638.644 7                                                 129881563.780 7
                                                
  24831245.912 7                                                 130489078.080 7
                                                
  24746997.904 7                                                 130046342.905 7
                                                
  27462866.774 6                                                 144318346.933 6
                                                
  27453666.232 6                                                 144270004.821 6
                                                
  24157394.412 6                                                 126947965.655 6
  98920536.07747                                  24157401.26747
  20402061.815 7  20402070.195 9  20402063.586 9                 107213555.348 7
  83543063.114 9  80062076.460 9                
  23423144.492 6                                                 123089459.235 6
  95913902.83847                                  23423151.31547
  21676527.136 6  21676534.720 9  21676533.775 9                 113910902.063 6
  88761769.627 9  85063359.860 9                
  22663778.406 5  22663789.477 9  22663785.378 9                 119098943.526 5
  92804414.740 9  88937546.813 9                
  23917457.749 5  23917468.363 9  23917468.523 9                 125687137.725 5
  97938398.177 9  93857335.534 9                
  21317583.530 7  21317591.629 9  21317586.651 9                 112024660.348 7
  87291984.834 9  83654792.549 9                
  20824228.309 3                                                 111122060.816 3
                                                
  19812078.851 8  19812081.081 9                                 106055608.110 8
  82487859.863 9                                
  22551508.335 6  22551512.479 9                                 120762331.800 6
  93926277.636 9                                
  22037431.118 6  22037438.195 9                                 117678692.062 6
  91527915.694 9                                
  23674326.058 4  23674335.786 8                                 126508405.989 4
  98395305.706 8                                
  21195205.235 7  21195210.454 9                                 113220984.981 7
  88060683.650 9                                
  21054687.596 7  21054691.381 9                                 112391340.594 7
  87415497.622 9                                
  21537383.716 6                                                 115210499.807 6
                                                
 23  9 21 18 54 15.0000000  0 22E03E05E08E13E15E24E25G02G10G21G23G24
                                G28G32R06R07R08R09R15R16R22R23
  23528917.481 7                                                 123645294.469 7
                                                
  26628755.789 6                                                 139935042.282 6
                                                
  24709802.394 7                                                 129850894.411 7
                                                
  24828033.248 6                                                 130472195.707 6
                                                
  24752105.732 7                                                 130073183.613 7
                                                
  27460245.255 6                                                 144304571.785 6
                                                
  27445408.161 6                                                 144226605.981 6
                                                
  24149769.699 6                                                 126907899.649 6
  98889315.82047                                  24149775.52347
  20400803.497 7  20400811.651 9  20400805.338 9                 107206942.720 7
  83537910.417 9  80057138.458 9                
  23417723.594 6                                                 123060973.498 6
  95891706.21047                                  23417731.24247
  21682115.095 6  21682122.108 9  21682121.450 9                 113940265.586 6
  88784650.264 9  85085287.130 9                
  22670875.956 5  22670886.896 9  22670882.554 9                 119136239.515 5
  92833476.524 9  88965397.654 9                
  23905517.597 5  23905527.937 9  23905528.678 9                 125624392.337 5
  97889505.823 9  93810480.374 9                
  21312144.550 7  21312152.052 9  21312147.567 9                 111996077.411 7
  87269712.433 9  83633448.171 9                
  20829149.825 3                                                 111148322.427 3
                                                
  19808692.617 8  19808694.654 9                                 106037481.629 8
  82473761.498 9                                
  22542095.251 5  22542099.190 9                                 120711926.209 5
  93887073.345 9                                
  22025952.809 6  22025959.706 9                                 117617399.784 6
  91480244.020 9                                
  23682020.735 5  23682029.598 8                                 126549522.882 5
  98427285.457 8                                
  21193474.201 7  21193479.641 9                                 113211738.774 7
  88053492.169 9                                
  21061099.034 7  21061103.299 9                                 112425565.077 7
  87442116.614 9                                
  21532376.533 6                                                 115183713.248 6
                                                
 23  9 21 18 54 30.0000000  0 22E03E05E08E13E15E24E25G02G10G21G23G24
                                G28G32R06R07R08R09R15R16R22R23
  23529626.165 7                                                 123649019.570 7
                                                
  26634382.215 6                                                 139964607.912 6
                                                
  24703974.129 7                                                 129820267.490 7
                                                
  24824840.792 6                                                 130455418.949 6
                                                
  24757228.283 7                                                 130100104.156 7
                                                
  27457642.661 5                                                 144290898.389 5
                                                
  27437156.505 6                                                 144183246.442 6
                                                
  24142162.846 6                                                 126867925.001 6
  98858166.78247                                  24142168.83747
  20399564.890 7  20399572.910 9  20399566.372 9                 107200432.070 7
  83532837.180 9  80052276.609 9                
  23412323.212 6                                                 123032593.028 6
  95869591.56547                                  23412330.21447
  21687717.891 6  21687725.297 9  21687724.376 9                 113969710.040 6
  88807593.970 9  85107274.829 9                
  22677991.646 5  22678002.197 9  22677998.530 9                 119173633.378 5
  92862614.539 9  88993321.569 9                
  23893583.350 5  23893593.295 9  23893594.131 9                 125561677.403 5
  97840637.120 9  93763647.908 9                
  21306719.351 7  21306727.259 9  21306722.412 9                 111967568.985 7
  87247498.079 9  83612159.432 9                
  20834082.509 3                                                 111174643.882 3
                                                
  19805321.526 8  19805324.170 9                                 106019436.079 8
  82459726.063 9                                
  22532687.738 6  22532692.645 9                                 120661548.945 6
  93847891.124 9                                
  22014491.691 6  22014498.357 9                                 117556197.551 6
  91432642.364 9                                
  23689738.302 5  23689747.087 8                                 126590762.051 5
  98459360.337 8                                
  21191781.149 7  21191786.362 9                                 113202695.504 7
  88046458.542 9                                
  21067539.323 7  21067543.255 9                                 112459943.197 7
  87468855.099 9                                
  21527405.885 6                                                 115157123.966 6
                                                
 23  9 21 18 54 45.0000000  0 22E03E05E08E13E15E24E25G02G10G21G23G24
                                G28G32R06R07R08R09R15R16R22R23
  23530343.668 7                                                 123652789.334 7
                                                
  26640008.466 6                                                 139994176.280 6
                                                
  24698153.271 7                                                 129789679.374 7
                                                
  24821667.656 6                                                 130438744.254 6
                                                
  24762365.610 7                                                 130127100.660 7
                                                
  27455059.885 5                                                 144277323.140 5
                                                
  27428911.782 6                                                 144139922.801 6
                                                
  24134572.748 6                                                 126828038.313 6
  98827086.26647                                  24134579.08747
  20398344.568 7  20398352.650 9  20398346.159 9                 107194019.894 7
  83527840.676 9  80047488.296 9                
  23406942.035 5                                                 123004314.340 5
  95847556.28447                                  23406948.98147
  21693335.708 6  21693343.262 9  21693342.313 9                 113999231.664 6
  88830597.797 9  85129320.177 9                
  22685125.442 5  22685136.824 9  22685132.262 9                 119211121.032 5
  92891825.646 9  89021315.529 9                
  23881653.639 5  23881664.664 9  23881664.800 9                 125498989.432 5
  97791789.486 9  93716835.601 9                
  21301308.158 7  21301315.811 9  21301311.169 9                 111939131.418 7
  87225338.943 9  83590923.603 9                
  20839025.936 3                                                 111201021.371 3
                                                
  19801964.711 8  19801967.438 9                                 106001467.833 8
  82445750.780 9                                
  22523284.554 5  22523288.491 9                                 120611196.031 5
  93808727.774 9                                
  22003046.627 6  22003054.114 9                                 117495081.926 6
  91385108.084 9                                
  23697477.548 4  23697486.058 8                                 126632119.240 4
  98491526.963 8                                
  21190125.566 7  21190130.711 9                                 113193851.301 7
  88039579.695 9                                
  21074007.688 7  21074011.540 9                                 112494470.726 7
  87495709.835 9                                
  21522471.976 7                                                 115130728.917 7
                                                
 23  9 21 18 55  0.0000000  0 22E03E05E08E13E15E24E25G02G10G21G23G24
                                G28G32R06R07R08R09R15R16R22R23
  23531067.506 7                                                 123656592.678 7
                                                
  26645633.527 6                                                 140023736.297 6
                                                
  24692337.696 7                                                 129759118.979 7
                                                
  24818511.908 7                                                 130422160.685 7
                                                
  24767514.641 7                                                 130154161.959 7
                                                
  27452493.174 5                                                 144263835.107 5
                                                
  27420671.928 6                                                 144096624.290 6
                                                
  24126997.204 6                                                 126788228.933 6
  98796065.99947                                  24127003.63747
  20397141.092 8  20397149.096 9  20397142.466 9                 107187695.134 8
  83522912.293 9  80042765.266 9                
  23401578.088 5                                                 122976126.607 5
  95825591.80247                                  23401584.90547
  21698966.596 7  21698973.769 9  21698972.732 9                 114028819.348 7
  88853653.108 9  85151414.841 9                
  22692274.492 5  22692286.120 9  22692281.820 9                 119248691.142 5
  92921101.008 9  89049371.072 9                
  23869727.434 5  23869737.916 9  23869738.953 9                 125436317.746 5
  97742954.517 9  93670035.463 9                
  21295907.908 7  21295915.775 9  21295911.173 9                 111910753.693 7
  87203226.440 9  83569732.461 9                
  20843976.951 3                                                 111227443.729 3
                                                
  19798620.613 8  19798623.676 9                                 105983565.903 8
  82431827.056 9                                
  22513884.152 6  22513888.194 9                                 120560856.008 6
  93769574.501 9                                
  21991615.906 6  21991623.531 9                                 117434042.427 6
  91337633.011 9                                
  23705236.875 5  23705246.740 8                                 126673582.645 5
  98523776.231 8                                
  21188505.525 7  21188510.968 9                                 113185195.329 7
  88032847.312 9                                
  21080501.445 7  21080505.585 9                                 112529136.089 7
  87522671.748 9                                
  21517571.542 6                                                 115104517.031 6
                                                
 23  9 21 18 55 15.0000000  0 22E03E05E08E13E15E24E25G02G10G21G23G24
                                G28G32R06R07R08R09R15R16R22R23
  23531796.961 7                                                 123660426.152 7
                                                
  26651256.440 6                                                 140053284.534 6
                                                
  24686527.393 7                                                 129728583.001 7
                                                
  24815372.569 6                                                 130405665.029 6
                                                
  24772675.885 6                                                 130181284.479 6
                                                
  27449942.292 5                                                 144250430.991 5
                                                
  27412436.983 6                                                 144053347.841 6
                                                
  24119435.833 5                                                 126748493.290 5
  98765103.18747                                  24119442.45947
  20395953.438 8  20395961.650 9  20395955.050 9                 107181454.789 8
  83518049.676 9  80038105.252 9                
  23396230.638 5                                                 122948026.718 5
  95803695.81347                                  23396238.00147
  21704608.369 6  21704616.310 9  21704615.079 9                 114058469.607 6
  88876757.188 9  85173556.227 9                
  22699438.952 5  22699450.539 9  22699446.327 9                 119286339.977 5
  92950437.691 9  89077485.401 9                
  23857803.611 5  23857814.654 9  23857814.794 9                 125373659.271 5
  97694129.855 9  93623245.229 9                
  21290518.533 7  21290526.413 9  21290521.576 9                 111882432.497 7
  87181157.971 9  83548583.535 9                
  20848936.541 2                                                 111253907.259 2
                                                
  19795288.025 8  19795290.065 9                                 105965726.342 8
  82417951.813 9                                
  22504484.501 5  22504489.432 9                                 120510525.906 5
  93730428.925 9                                
  21980198.659 6  21980205.340 9                                 117373076.093 6
  91290214.817 9                                
  23713015.964 5  23713023.673 8                                 126715148.442 5
  98556105.053 8                                
  21186919.560 7  21186924.546 9                                 113176723.932 7
  88026258.464 9                                
  21087020.723 7  21087024.288 9                                 112563935.438 7
  87549737.858 9                                
  21512705.473 6                                                 115078484.879 6
                                                
 23  9 21 18 55 30.0000000  0 22E03E05E08E13E15E24E25G02G10G21G23G24
                                G28G32R06R07R08R09R15R16R22R23
  23532533.031 7                                                 123664294.845 7
                                                
  26656877.870 6                                                 140082826.088 6
                                                
  24680721.932 7                                                 129698076.577 7
                                                
  24812251.255 6                                                 130389262.500 6
                                                
  24777850.170 6                                                 130208473.228 6
                                                
  27447408.342 5                                                 144237116.021 5
                                                
  27404207.509 6                                                 144010098.832 6
                                                
  24111889.413 5                                                 126708837.161 5
  98734202.36347                                  24111896.56947
  20394783.101 8  20394791.378 9  20394784.794 9                 107175304.135 8
  83513256.968 9  80033512.241 9                
  23390900.979 6                                                 122920019.663 6
  95781872.17347                                  23390908.61047
  21710263.503 6  21710271.725 9  21710270.272 9                 114088187.538 6
  88899913.983 9  85195748.143 9                
  22706619.018 5  22706630.534 9  22706626.526 9                 119324072.342 5
  92979839.497 9  89105662.104 9                
  23845883.423 5  23845894.420 9  23845894.708 9                 125311019.493 5
  97645319.771 9  93576468.896 9                
  21285140.890 7  21285148.821 9  21285143.767 9                 111854172.998 7
  87159137.596 9  83527480.685 9                
  20853903.989 2                                                 111280417.347 2
                                                
  19791968.270 8  19791970.283 9                                 105947955.098 8
  82404129.752 9                                
  22495089.207 5  22495092.816 9                                 120460211.021 5
  93691295.148 9                                
  21968796.206 7  21968803.641 9                                 117312188.756 7
  91242858.083 9                                
  23720814.303 5  23720822.284 7                                 126756821.405 5
  98588517.383 7                                
  21185369.071 7  21185374.207 9                                 113168442.582 7
  88019817.421 9                                
  21093565.927 7  21093569.321 9                                 112598873.433 7
  87576911.822 9                                
  21507873.129 6                                                 115052638.065 6
                                                
 23  9 21 18 55 45.0000000  0 22E03E05E08E13E15E24E25G02G10G21G23G24
                                G28G32R06R07R08R09R15R16R22R23
  23533275.565 7                                                 123668195.779 7
                                                
  26662498.219 6                                                 140112357.978 6
                                                
  24674921.682 7                                                 129667596.837 7
                                                
  24809147.251 6                                                 130372950.311 6
                                                
  24783035.751 6                                                 130235725.122 6
                                                
  27444891.318 5                                                 144223887.410 5
                                                
  27395981.729 6                                                 143966874.611 6
                                                
  24104357.652 6                                                 126669257.814 6
  98703361.33647                                  24104364.57047
  20393628.825 8  20393637.297 9  20393630.679 9                 107169240.183 8
  83508531.806 9  80028983.954 9                
  23385588.761 6                                                 122892103.031 6
  95760118.95547                                  23385595.67447
  21715930.867 6  21715938.956 9  21715937.585 9                 114117970.105 6
  88923121.147 9  85217988.354 9                
  22713814.845 5  22713826.379 9  22713822.055 9                 119361884.982 5
  93009303.841 9  89133898.753 9                
  23833967.032 5  23833977.761 9  23833978.296 9                 125248395.809 5
  97596522.213 9  93529704.589 9                
  21279774.568 7  21279782.589 9  21279777.470 9                 111825972.337 7
  87137163.070 9  83506421.754 9                
  20858880.374 2                                                 111306970.916 2
                                                
  19788660.851 8  19788662.942 9                                 105930248.760 8
  82390358.153 9                                
  22485696.028 6  22485700.243 9                                 120409908.131 6
  93652170.797 9                                
  21957408.234 6  21957415.417 9                                 117251377.996 6
  91195560.915 9                                
  23728632.161 5  23728640.636 7                                 126798598.124 5
  98621010.236 7                                
  21183853.897 7  21183859.110 9                                 113160348.422 7
  88013521.955 9                                
  21100136.314 7  21100139.134 9                                 112633946.686 7
  87604191.004 9                                
  21503075.300 7                                                 115026973.918 7
                                                
 23  9 21 18 56  0.0000000  0 22E03E05E08E13E15E24E25G02G10G21G23G24
                                G28G32R06R07R08R09R15R16R22R23
  23534024.405 7                                                 123672131.412 7
                                                
  26668116.657 6                                                 140141882.701 6
                                                
  24669127.411 7                                                 129637146.300 7
                                                
  24806060.484 6                                                 130356731.089 6
                                                
  24788234.375 6                                                 130263042.515 6
                                                
  27442389.975 5                                                 144210747.730 5
                                                
  27387761.038 5                                                 143923677.995 5
                                                
  24096840.601 6                                                 126629758.034 6
  98672582.32547                                  24096847.72547
  20392492.076 7  20392500.438 9  20392493.824 9                 107163265.742 7
  83503876.397 9  80024522.506 9                
  23380294.096 6                                                 122864279.626 6
  95738438.42747                                  23380300.88747
  21721611.241 6  21721618.869 9  21721618.077 9                 114147819.771 6
  88946380.624 9  85240278.661 9                
  22721025.951 5  22721037.575 9  22721033.189 9                 119399780.051 5
  93038832.421 9  89162196.974 9                
  23822053.508 5  23822064.250 9  23822064.676 9                 125185791.052 5
  97547739.397 9  93482954.427 9                
  21274419.920 7  21274427.826 9  21274422.852 9                 111797833.062 7
  87115236.370 9  83485408.682 9                
  20863865.371 2                                                 111333570.314 2
                                                
  19785365.440 8  19785368.651 9                                 105912610.299 8
  82376639.365 9                                
  22476304.605 6  22476308.983 9                                 120359620.453 6
  93613058.189 9                                
  21946035.613 6  21946042.334 9                                 117190647.085 6
  91148325.819 9                                
  23736469.482 4  23736479.419 8                                 126840480.522 4
  98653585.403 8                                
  21182374.024 7  21182379.023 9                                 113152443.872 7
  88007373.994 9                                
  21106732.344 7  21106735.100 9                                 112669157.327 7
  87631577.019 9                                
  21498312.826 6                                                 115001495.344 6
                                                
 23  9 21 18 56 15.0000000  0 22E03E05E08E13E15E24E25G02G10G21G23G24
                                G28G32R06R07R08R09R15R16R22R23
  23534779.877 7                                                 123676103.740 7
                                                
  26673733.893 6                                                 140171402.254 6
                                                
  24663338.739 7                                                 129606727.036 7
                                                
  24802992.033 6                                                 130340607.011 6
                                                
  24793445.258 6                                                 130290427.283 6
                                                
  27439907.563 5                                                 144197699.163 5
                                                
  27379546.661 5                                                 143880511.278 5
                                                
  24089340.177 5                                                 126590340.163 5
  98641867.15147                                  24089346.82847
  20391372.618 7  20391380.813 9  20391374.349 9                 107157382.952 7
  83499292.395 9  80020129.507 9                
  23375017.794 6                                                 122836551.525 6
  95716832.12147                                  23375024.57147
  21727304.894 6  21727312.110 9  21727310.895 9                 114177738.517 6
  88969693.911 9  85262620.555 9                
  22728253.019 5  22728264.653 9  22728260.206 9                 119437759.290 5
  93068426.574 9  89190558.048 9                
  23810144.558 5  23810154.371 9  23810155.374 9                 125123207.537 5
  97498973.156 9  93436220.134 9                
  21269077.223 7  21269085.189 9  21269080.110 9                 111769757.286 7
  87093359.164 9  83464443.017 9                
  20868859.145 3                                                 111360217.761 3
                                                
  19782083.874 8  19782085.666 9                                 105895041.479 8
  82362974.736 9                                
  22466916.790 6  22466921.107 9                                 120309349.676 6
  93573958.732 9                                
  21934677.807 6  21934684.490 9                                 117129998.492 6
  91101154.796 9                                
  23744327.469 5  23744336.318 8                                 126882470.638 5
  98686244.374 8                                
  21180930.271 7  21180935.069 9                                 113144731.352 7
  88001375.374 9                                
  21113354.419 7  21113357.667 9                                 112704506.913 7
  87659071.110 9                                
  21493584.583 6                                                 114976204.395 6
                                                
 23  9 21 18 56 30.0000000  0 21E03E05E08E13E15E24E25G02G10G21G23G24
                                G28G32R06R07R08R09R16R22R23
  23535542.865 7                                                 123680112.488 7
                                                
  26679350.241 6                                                 140200916.360 6
                                                
  24657556.121 7                                                 129576338.842 7
                                                
  24799941.753 6                                                 130324577.969 6
                                                
  24798669.163 6                                                 130317879.047 6
                                                
  27437442.109 5                                                 144184741.553 5
                                                
  27371338.109 5                                                 143837374.594 5
                                                
  24081854.827 6                                                 126551004.260 6
  98611215.85347                                  24081860.94447
  20390270.864 8  20390278.887 9  20390272.338 9                 107151591.759 8
  83494779.776 9  80015804.919 9                
  23369759.253 6                                                 122808918.695 6
  95695300.08647                                  23369766.81447
  21733011.229 6  21733018.527 9  21733017.488 9                 114207726.043 6
  88993060.767 9  85285013.808 9                
  22735496.424 5  22735507.748 9  22735503.254 9                 119475822.163 5
  93098085.901 9  89218981.570 9                
  23798238.885 5  23798249.219 9  23798250.058 9                 125060645.428 5
  97450223.579 9  93389501.822 9                
  21263746.629 7  21263754.705 9  21263749.370 9                 111741744.782 7
  87071531.244 9  83443524.597 9                
  20873861.936 3                                                 111386912.816 3
                                                
  19778814.337 8  19778816.780 9                                 105877542.358 8
  82349364.322 9                                
  22457532.169 6  22457536.053 9                                 120259095.708 6
  93534872.362 9                                
  21923336.016 6  21923342.542 9                                 117069432.588 6
  91054048.104 9                                
  21179522.489 7  21179527.861 9                                 113137210.484 7
  87995525.825 9                                
  21120002.640 7  21120006.124 9                                 112739994.775 7
  87686672.723 9                                
  21488891.877 6                                                 114951101.292 6
                                                
 23  9 21 18 56 45.0000000  0 21E03E05E08E13E15E24E25G02G10G21G23G24
                                G28G32R06R07R08R09R16R22R23
  23536312.245 7                                                 123684156.268 7
                                                
  26684965.479 6                                                 140230423.649 6
                                                
  24651778.661 7                                                 129545980.427 7
                                                
  24796909.695 6                                                 130308642.753 6
                                                
  24803905.294 6                                                 130345396.335 6
                                                
  27434993.515 6                                                 144171873.691 6
                                                
  27363134.425 5                                                 143794266.774 5
                                                
  24074384.393 6                                                 126511749.247 6
  98580627.56647                                  24074391.24647
  20389185.920 7  20389194.014 9  20389187.676 9                 107145890.874 7
  83490337.529 9  80011547.766 9                
  23364518.746 6                                                 122781379.892 6
  95673841.30947                                  23364526.44747
  21738730.158 6  21738737.694 9  21738736.826 9                 114237780.903 6
  89016480.119 9  85307457.351 9                
  22742755.047 5  22742766.622 9  22742762.121 9                 119513966.935 5
  93127809.073 9  89247466.249 9                
  23786337.200 5  23786348.241 9  23786348.798 9                 124998103.662 5
  97401489.849 9  93342798.688 9                
  21258427.788 7  21258436.052 9  21258430.950 9                 111713794.289 7
  87049751.642 9  83422652.505 9                
  20878872.701 2                                                 111413654.014 2
                                                
  19775558.403 8  19775560.562 9                                 105860111.627 8
  82335807.072 9                                
  22448151.339 6  22448154.493 9                                 120208857.733 6
  93495798.398 9                                
  21912009.060 6  21912016.030 9                                 117008948.647 6
  91007005.136 9                                
  21178150.533 7  21178155.101 9                                 113129880.030 7
  87989824.363 9                                
  21126676.389 7  21126679.764 9                                 112775619.200 7
  87714380.579 9                                
  21484234.339 6                                                 114926184.974 6
                                                
 23  9 21 18 57  0.0000000  0 21E03E05E08E13E15E24E25G02G10G21G23G24
                                G28G32R06R07R08R09R16R22R23
  23537088.174 7                                                 123688232.816 7
                                                
  26690578.445 6                                                 140259921.834 6
                                                
  24646007.426 7                                                 129515649.591 7
                                                
  24793894.498 6                                                 130292799.265 6
                                                
  24809153.688 6                                                 130372976.751 6
                                                
  27432561.244 5                                                 144159093.376 5
                                                
  27354936.240 5                                                 143751185.970 5
                                                
  24066929.689 6                                                 126472573.200 6
  98550100.82247                                  24066936.60847
  20388118.053 7  20388125.991 9  20388119.566 9                 107140278.413 7
  83485964.185 9  80007356.640 9                
  23359296.084 6                                                 122753933.176 6
  95652454.26647                                  23359303.03647
  21744462.024 6  21744469.616 9  21744468.627 9                 114267900.831 6
  89039950.166 9  85329949.465 9                
  22750028.810 5  22750040.544 9  22750036.005 9                 119552191.107 5
  93157594.090 9  89276010.225 9                
  23774439.090 5  23774449.855 9  23774451.055 9                 124935580.400 5
  97352770.539 9  93296109.391 9                
  21253120.365 7  21253128.326 9  21253123.247 9                 111685903.677 7
  87028018.701 9  83401825.101 9                
  20883892.557 2                                                 111440439.259 2
                                                
  19772314.473 8  19772316.241 9                                 105842747.200 8
  82322301.407 9                                
  22438771.415 6  22438775.824 9                                 120158633.140 6
  93456734.881 9                                
  21900697.188 6  21900703.717 9                                 116948544.929 6
  90960024.511 9                                
  21176813.355 7  21176817.852 9                                 113122737.689 7
  87984269.209 9                                
  21133375.293 7  21133377.775 9                                 112811377.406 7
  87742192.506 9                                
  21479610.858 6                                                 114901453.426 6
                                                
 23  9 21 18 57 15.0000000  0 21E03E05E08E13E15E24E25G02G10G21G23G24
                                G28G32R06R07R08R09R16R22R23
  23537871.308 7                                                 123692348.416 7
                                                
  26696191.215 6                                                 140289417.262 6
                                                
  24640242.053 7                                                 129485352.722 7
                                                
  24790898.148 6                                                 130277053.996 6
                                                
  24814415.315 6                                                 130400626.499 6
                                                
  27430147.314 5                                                 144146407.145 5
                                                
  27346744.872 5                                                 143708138.768 5
                                                
  24059490.803 6                                                 126433482.778 6
  98519640.79447                                  24059497.92747
  20387067.924 7  20387075.940 9  20387069.453 9                 107134760.440 7
  83481664.467 9  80003236.078 9                
  23354091.605 6                                                 122726585.056 6
  95631144.05447                                  23354098.80347
  21750206.982 6  21750214.924 9  21750213.585 9                 114298092.104 6
  89063475.823 9  85352494.863 9                
  22757319.010 5  22757330.927 9  22757326.076 9                 119590500.665 5
  93187445.645 9  89304617.968 9                
  23762546.446 5  23762556.953 9  23762557.548 9                 124873082.284 5
  97304070.836 9  93249438.860 9                
  21247825.378 7  21247833.678 9  21247828.462 9                 111658079.276 7
  87006337.363 9  83381047.168 9                
  20888921.767 3                                                 111467274.795 3
                                                
  19769084.601 8  19769086.693 9                                 105825455.438 8
  82308852.273 9                                
  22429396.284 5  22429401.262 9                                 120108428.734 5
  93417687.104 9                                
  21889402.019 6  21889408.753 9                                 116888228.476 6
  90913111.793 9                                
  21175512.744 7  21175517.769 9                                 113115790.143 7
  87978865.547 9                                
  21140100.048 7  21140103.631 9                                 112847275.437 7
  87770113.128 9                                
  21475023.460 6                                                 114876913.189 6
                                                
 23  9 21 18 57 30.0000000  0 21E03E05E08E13E15E24E25G02G10G21G23G24
                                G28G32R06R07R08R09R16R22R23
  23538661.900 7                                                 123696503.541 7
                                                
  26701803.368 6                                                 140318910.396 6
                                                
  24634483.180 7                                                 129455090.338 7
                                                
  24787920.905 6                                                 130261407.535 6
                                                
  24819690.360 6                                                 130428345.939 6
                                                
  27427750.767 5                                                 144133815.545 5
                                                
  27338559.835 5                                                 143665126.024 5
                                                
  24052068.800 6                                                 126394478.781 6
  98489248.09847                                  24052075.09547
  20386036.025 7  20386043.843 9  20386037.724 9                 107129337.901 7
  83477439.099 9  79999186.768 9                
  23348906.301 6                                                 122699336.307 6
  95609911.27147                                  23348914.04047
  21755965.964 6  21755973.933 9  21755972.342 9                 114328355.181 6
  89087057.398 9  85375093.894 9                
  22764625.608 5  22764636.889 9  22764632.404 9                 119628895.828 5
  93217363.906 9  89333289.629 9                
  23750658.024 5  23750668.953 9  23750669.485 9                 124810610.174 5
  97255391.368 9  93202787.731 9                
  21242543.296 7  21242551.647 9  21242546.469 9                 111630321.709 7
  86984708.105 9  83360319.126 9                
  20893960.068 3                                                 111494161.218 3
                                                
  19765867.827 8  19765870.272 9                                 105808237.176 8
  82295460.297 9                                
  22420024.226 5  22420029.185 9                                 120058245.095 5
  93378655.438 9                                
  21878123.078 6  21878130.120 9                                 116828000.270 6
  90866267.710 9                                
  21174248.673 7  21174253.079 9                                 113109037.996 7
  87973613.899 9                                
  21146851.077 7  21146854.712 9                                 112883313.263 7
  87798142.537 9                                
  21470472.548 6                                                 114852565.077 6
                                                
 23  9 21 18 57 45.0000000  0 21E03E05E08E13E15E24E25G02G10G21G23G24
                                G28G32R06R07R08R09R16R22R23
  23539459.387 7                                                 123700694.404 7
                                                
  26707414.643 6                                                 140348397.471 6
                                                
  24628730.224 7                                                 129424858.758 7
                                                
  24784961.822 6                                                 130245856.299 6
                                                
  24824977.943 7                                                 130456131.144 7
                                                
  27425372.136 5                                                 144121314.976 5
                                                
  27330380.719 5                                                 143622144.231 5
                                                
  24044662.900 6                                                 126355557.767 6
  98458920.09847                                  24044669.24247
  20385021.725 7  20385029.647 9  20385023.339 9                 107124007.267 7
  83473285.367 9  79995206.105 9                
  23343739.551 6                                                 122672183.372 6
  95588753.16347                                  23343747.03047
  21761737.788 6  21761745.824 9  21761744.326 9                 114358686.199 6
  89110691.939 9  85397743.661 9                
  22771947.550 6  22771958.855 9  22771954.302 9                 119667372.480 6
  93247345.685 9  89362022.146 9                
  23738773.949 4  23738785.257 9  23738785.220 9                 124748160.625 4
  97206729.491 9  93156153.470 9                
  21237273.314 7  21237281.566 9  21237276.503 9                 111602627.271 7
  86963128.037 9  83339638.216 9                
  20899007.615 3                                                 111521094.521 3
                                                
  19762664.350 7  19762667.061 9                                 105791088.374 7
  82282122.346 9                                
  22410656.498 5  22410661.692 9                                 120008078.285 5
  93339636.870 9                                
  21866860.181 7  21866867.239 9                                 116767857.365 7
  90819489.961 9                                
  21173020.549 8  21173025.429 9                                 113102477.366 8
  87968511.183 9                                
  21153627.514 7  21153630.812 9                                 112919486.682 7
  87826277.379 9                                
  21465955.572 7                                                 114828405.770 7
                                                
 23  9 21 18 58  0.0000000  0 21E03E05E08E13E15E24E25G02G10G21G23G24
                                G28G32R06R07R08R09R16R22R23
  23540263.551 7                                                 123704920.193 7
                                                
  26713024.719 6                                                 140377877.639 6
                                                
  24622983.158 7                                                 129394657.230 7
                                                
  24782020.379 6                                                 130230399.611 6
                                                
  24830277.624 6                                                 130483981.195 6
                                                
  27423010.910 5                                                 144108904.760 5
                                                
  27322207.257 5                                                 143579192.934 5
                                                
  24037271.495 6                                                 126316719.198 6
  98428656.32247                                  24037278.42547
  20384024.439 7  20384032.571 9  20384026.109 9                 107118767.767 7
  83469202.633 9  79991293.497 9                
  23338590.599 6                                                 122645125.653 6
  95567669.25147                                  23338597.42047
  21767522.625 6  21767530.035 9  21767528.917 9                 114389084.366 6
  89134378.789 9  85420443.549 9                
  22779284.726 5  22779295.766 9  22779291.418 9                 119705929.518 5
  93277390.101 9  89390814.689 9                
  23726894.445 4  23726904.818 9  23726905.620 9                 124685733.163 4
  97158084.855 9  93109535.705 9                
  21232015.177 7  21232023.201 9  21232018.201 9                 111574995.208 7
  86941596.583 9  83319003.909 9                
  20904063.279 2                                                 111548073.847 2
                                                
  19759473.231 8  19759476.093 9                                 105774008.492 8
  82268838.001 9                                
  22401290.840 5  22401295.258 9                                 119957927.950 5
  93300631.047 9                                
  21855613.346 7  21855619.305 9                                 116707799.308 7
  90772778.214 9                                
  21171828.060 7  21171833.218 9                                 113096107.472 7
  87963556.835 9                                
  21160428.986 7  21160432.825 9                                 112955794.442 7
  87854516.663 9                                
  21461474.414 6                                                 114804434.513 6
                                                
 23  9 21 18 58 15.0000000  0 21E03E05E08E13E15E24E25G02G10G21G23G24
                                G28G32R06R07R08R09R16R22R23
  23541073.970 7                                                 123709178.233 7
                                                
  26718632.745 6                                                 140407348.301 6
                                                
  24617241.371 7                                                 129364483.158 7
                                                
  24779096.333 6                                                 130215034.999 6
                                                
  24835589.583 7                                                 130511893.347 7
                                                
  27420665.703 6                                                 144096582.342 6
                                                
  27314038.785 5                                                 143536269.746 5
                                                
  24029896.213 5                                                 126277960.765 5
  98398454.98347                                  24029902.78647
  20383044.359 8  20383052.411 9  20383045.965 9                 107113616.920 8
  83465188.979 9  79987447.079 9                
  23333459.529 6                                                 122618160.753 6
  95546657.66247                                  23333465.73847
  21773319.299 6  21773327.014 9  21773325.894 9                 114419546.954 6
  89158115.843 9  85443191.547 9                
  22786636.625 5  22786647.577 9  22786643.157 9                 119744564.048 5
  93307494.888 9  89419665.103 9                
  23715018.758 5  23715029.113 9  23715029.690 9                 124623325.594 5
  97109455.668 9  93062932.800 9                
  21226768.310 7  21226776.451 9  21226771.467 9                 111547422.981 7
  86920111.733 9  83298414.262 9                
  20909127.199 2                                                 111575096.520 2
                                                
  19756295.091 8  19756297.595 9                                 105756994.739 8
  82255605.086 9                                
  22391928.714 5  22391933.119 9                                 119907791.309 5
  93261635.956 9                                
  21844381.648 7  21844387.930 9                                 116647824.086 7
  90726130.896 9                                
  21170670.508 7  21170675.494 9                                 113089925.833 7
  87958748.894 9                                
  21167255.459 7  21167259.352 9                                 112992233.489 7
  87882858.141 9                                
  21457027.630 6                                                 114780648.594 6
                                                
 23  9 21 18 58 30.0000000  0 21E03E05E08E13E15E24E25G02G10G21G23G24
                                G28G32R06R07R08R09R16R22R23
  23541889.290 7                                                 123713463.219 7
                                                
  26724238.159 6                                                 140436804.128 6
                                                
  24611503.671 7                                                 129334331.338 7
                                                
  24776189.229 6                                                 130199757.326 6
                                                
  24840911.766 6                                                 130539862.185 6
                                                
  27418336.615 6                                                 144084342.610 6
                                                
  27305875.125 5                                                 143493369.753 5
                                                
  24022535.385 6                                                 126239277.507 6
  98368312.23947                                  24022541.42547
  20382080.257 7  20382088.268 9  20382081.862 9                 107108549.461 7
  83461240.303 9  79983662.934 9                
  23328344.577 6                                                 122591283.513 6
  95525714.37647                                  23328351.71247
  21779127.559 6  21779135.433 9  21779134.101 9                 114450068.626 6
  89181898.940 9  85465983.680 9                
  22794002.289 5  22794013.391 9  22794008.730 9                 119783270.466 5
  93337655.676 9  89448569.193 9                
  23703145.618 5  23703156.163 9  23703156.396 9                 124560932.934 5
  97060838.148 9  93016341.008 9                
  21221531.648 7  21221540.278 9  21221535.117 9                 111519905.369 7
  86898669.456 9  83277865.421 9                
  20914198.068 2                                                 111602157.271 2
                                                
  19753128.449 8  19753130.697 9                                 105740042.036 8
  82242419.626 9                                
  22382568.111 5  22382571.643 9                                 119857663.107 5
  93222647.396 9                                
  21833165.099 7  21833171.319 9                                 116587927.046 7
  90679544.344 9                                
  21169547.799 7  21169553.042 9                                 113083927.230 7
  87954083.310 9                                
  21174105.397 7  21174109.204 9                                 113028797.886 7
  87911297.047 9                                
  21452615.015 6                                                 114757043.327 6
                                                
 23  9 21 18 58 45.0000000  0 21E03E05E08E13E15E24E25G02G10G21G23G24
                                G28G32R06R07R08R09R16R22R23
  23542709.715 7                                                 123717773.681 7
                                                
  26729839.956 6                                                 140466243.659 6
                                                
  24605769.721 7                                                 129304200.339 7
                                                
  24773298.538 6                                                 130184565.284 6
                                                
  24846244.276 6                                                 130567886.105 6
                                                
  27416022.712 6                                                 144072184.202 6
                                                
  27297716.281 5                                                 143450491.821 5
                                                
  24015187.980 6                                                 126200668.231 6
  98338227.10747                                  24015194.10947
  20381131.388 8  20381139.569 9  20381133.298 9                 107103564.271 8
  83457355.731 9  79979940.226 9                
  23323246.538 6                                                 122564492.725 6
  95504838.46947                                  23323254.29047
  21784946.447 6  21784954.535 9  21784953.157 9                 114480647.908 6
  89205726.901 9  85488818.813 9                
  22801381.221 5  22801392.411 9  22801387.680 9                 119822046.932 5
  93367871.079 9  89477525.628 9                
  23691275.450 5  23691285.894 9  23691286.864 9                 124498554.042 5
  97012231.347 9  92969759.534 9                
  21216305.307 7  21216313.775 9  21216308.888 9                 111492441.006 7
  86877268.664 9  83257356.331 9                
  20919276.358 2                                                 111629254.502 2
                                                
  19749972.380 8  19749974.758 9                                 105723148.728 8
  82229280.410 9                                
  22373207.254 5  22373212.029 9                                 119807542.213 5
  93183664.545 9                                
  21821962.886 7  21821969.016 9                                 116528107.105 7
  90633017.800 9                                
  21168458.813 7  21168464.412 9                                 113078110.060 7
  87949558.863 9                                
  21180978.363 7  21180982.037 9                                 113065485.701 7
  87939831.985 9                                
  21448235.080 7                                                 114733617.226 7
                                                
 23  9 21 18 59  0.0000000  0 21E03E05E08E13E15E24E25G02G10G21G23G24
                                G28G32R06R07R08R09R16R22R23
  23543535.522 7                                                 123722112.791 7
                                                
  26735439.851 6                                                 140495670.072 6
                                                
  24600040.517 7                                                 129274093.416 7
                                                
  24770424.447 6                                                 130169462.166 6
                                                
  24851587.921 6                                                 130595968.179 6
                                                
  27413725.144 5                                                 144060110.402 5
                                                
  27289561.508 5                                                 143407639.393 5
                                                
  24007855.559 6                                                 126162136.389 6
  98308202.31347                                  24007862.35747
  20380199.091 8  20380207.264 9  20380200.875 9                 107098664.689 8
  83453537.872 9  79976281.443 9                
  23318165.640 6                                                 122537791.851 6
  95484032.61347                                  23318173.22547
  21790776.991 6  21790785.010 9  21790783.928 9                 114511287.909 6
  89229602.201 9  85511699.306 9                
  22808774.017 5  22808785.477 9  22808780.519 9                 119860896.418 5
  93398143.393 9  89506536.593 9                
  23679408.353 5  23679418.857 9  23679419.136 9                 124436192.559 5
  96963638.071 9  92923190.995 9                
  21211089.643 7  21211098.233 9  21211093.268 9                 111465033.162 7
  86855911.921 9  83236889.454 9                
  20924361.681 3                                                 111656391.385 3
                                                
  19746827.680 8  19746830.623 9                                 105706318.290 8
  82216190.079 9                                
  22363850.017 5  22363853.233 9                                 119757431.742 5
  93144689.752 9                                
  21810775.272 6  21810781.786 9                                 116468368.166 6
  90586554.251 9                                
  21167404.386 7  21167409.471 9                                 113072477.833 7
  87945178.249 9                                
  21187874.752 7  21187878.634 9                                 113102300.012 7
  87968465.293 9                                
  21443889.904 6                                                 114710374.088 6
                                                
 23  9 21 18 59 15.0000000  0 21E03E05E08E13E15E24E25G02G10G21G23G24
                                G28G32R06R07R08R09R16R22R23
  23544366.846 7                                                 123726481.262 7
                                                
  26741037.003 6                                                 140525084.124 6
                                                
  24594316.050 7                                                 129244011.381 7
                                                
  24767567.630 6                                                 130154448.914 6
                                                
  24856942.807 6                                                 130624108.991 6
                                                
  27411443.419 5                                                 144048122.113 5
                                                
  27281412.924 5                                                 143364813.570 5
                                                
  24000537.871 6                                                 126123683.034 6
  98278238.71947                                  24000544.92647
  20379283.193 7  20379291.286 9  20379284.668 9                 107093851.734 7
  83449787.515 9  79972687.340 9                
  23313102.047 5                                                 122511181.668 5
  95463297.44047                                  23313109.10947
  21796619.472 6  21796627.220 9  21796626.007 9                 114541989.370 6
  89253525.362 9  85534625.676 9                
  22816181.030 5  22816192.106 9  22816187.099 9                 119899819.345 5
  93428472.911 9  89535602.367 9                
  23667544.673 6  23667555.569 9  23667555.455 9                 124373849.526 6
  96915059.184 9  92876636.222 9                
  21205884.868 7  21205893.613 9  21205888.674 9                 111437682.666 7
  86834599.843 9  83216465.389 9                
  20929454.652 2                                                 111683568.665 2
                                                
  19743695.951 8  19743698.799 9                                 105689551.688 8
  82203149.412 9                                
  22354493.935 5  22354498.942 9                                 119707332.566 5
  93105723.831 9                                
  21799603.723 6  21799609.921 9                                 116408711.420 6
  90540154.611 9                                
  21166384.581 7  21166390.001 9                                 113067031.140 7
  87940941.960 9                                
  21194795.266 7  21194799.447 9                                 113139240.974 7
  87997197.098 9                                
  21439579.632 6                                                 114687314.450 6
                                                
 23  9 21 18 59 30.0000000  0 21E03E05E08E13E15E24E25G02G10G21G23G24
                                G28G32R06R07R08R09R16R22R23
  23545203.813 7                                                 123730879.842 7
                                                
  26746631.877 6                                                 140554486.538 6
                                                
  24588596.722 7                                                 129213955.043 7
                                                
  24764727.950 6                                                 130139526.378 6
                                                
  24862309.320 6                                                 130652309.184 6
                                                
  27409178.703 5                                                 144036220.169 5
                                                
  27273268.088 5                                                 143322015.411 5
                                                
  23993235.800 6                                                 126085309.323 6
  98248337.16647                                  23993242.80247
  20378383.868 7  20378392.195 9  20378385.313 9                 107089126.079 7
  83446105.182 9  79969158.444 9                
  23308055.502 5                                                 122484663.293 5
  95442633.78247                                  23308062.41947
  21802473.572 6  21802481.243 9  21802480.351 9                 114572752.954 6
  89277496.961 9  85557598.458 9                
  22823601.851 5  22823613.376 9  22823607.902 9                 119938816.144 5
  93458859.977 9  89564723.317 9                
  23655684.809 5  23655695.527 9  23655695.748 9                 124311526.012 5
  96866495.543 9  92830096.062 9                
  21200691.467 7  21200700.232 9  21200695.230 9                 111410390.298 7
  86813333.078 9  83196084.737 9                
  20934555.192 3                                                 111710787.041 3
                                                
  19740576.189 8  19740578.381 9                                 105672849.764 8
  82190159.000 9                                
  22345140.702 5  22345144.151 9                                 119657246.139 5
  93066767.736 9                                
  21788447.529 7  21788453.295 9                                 116349138.554 7
  90493820.246 9                                
  21165400.148 7  21165405.630 9                                 113061770.973 7
  87936850.718 9                                
  21201738.938 7  21201743.060 9                                 113176308.769 7
  88026027.584 9                                
  21435303.605 6                                                 114664439.670 6
                                                
 23  9 21 18 59 45.0000000  0 21E03E05E08E13E15E24E25G02G10G21G23G24
                                G28G32R06R07R08R09R16R22R23
  23546046.899 7                                                 123735310.331 7
                                                
  26752225.405 6                                                 140583879.163 6
                                                
  24582882.610 7                                                 129183926.279 7
                                                
  24761905.797 6                                                 130124696.563 6
                                                
  24867687.617 7                                                 130680570.475 7
                                                
  27406931.110 5                                                 144024406.565 5
                                                
  27265129.612 5                                                 143279247.063 5
                                                
  23985949.013 6                                                 126047017.329 6
  98218499.28847                                  23985955.55647
  20377501.773 7  20377509.860 9  20377503.169 9                 107084489.979 7
  83442492.646 9  79965696.417 9                
  23303026.618 5                                                 122458238.670 5
  95422043.19047                                  23303033.89247
  21808340.030 6  21808347.702 9  21808346.654 9                 114603580.455 6
  89301518.362 9  85580618.971 9                
  22831037.152 5  22831048.695 9  22831043.707 9                 119977888.382 5
  93489305.821 9  89593900.589 9                
  23643828.855 5  23643839.761 9  23643840.015 9                 124249224.278 5
  96817948.805 9  92783572.137 9                
  21195509.622 7  21195518.086 9  21195513.012 9                 111383157.997 7
  86792113.119 9  83175748.938 9                
  20939664.314 3                                                 111738048.541 3
                                                
  19737468.557 8  19737471.001 9                                 105656214.325 8
  82177220.333 9                                
  22335790.321 5  22335793.968 9                                 119607173.893 5
  93027822.703 9                                
  21777307.280 6  21777314.159 9                                 116289651.703 6
  90447552.780 9                                
  21164450.635 7  21164456.429 9                                 113056699.260 7
  87932906.081 9                                
  21208707.492 7  21208711.276 9                                 113213505.008 7
  88054957.917 9                                
  21431062.587 7                                                 114641752.037 7
                                                
 23  9 21 19  0  0.0000000  0 21E03E05E08E13E15E24E25G02G10G21G23G24
                                G28G32R06R07R08R09R16R22R23
  23546898.122 7                                                 123739782.840 7
                                                
  26757818.826 6                                                 140613272.094 6
                                                
  24577175.585 7                                                 129153935.291 7
                                                
  24759103.305 7                                                 130109969.696 7
                                                
  24873079.102 7                                                 130708902.798 7
                                                
  27404701.871 6                                                 144012691.549 6
                                                
  27256998.503 5                                                 143236518.947 5
                                                
  23978679.756 6                                                 126008817.532 6
  98188733.24147                                  23978686.62647
  20376638.721 7  20376646.470 9  20376639.939 9                 107079953.502 7
  83438957.724 9  79962308.793 9                
  23298018.177 6                                                 122431918.149 6
  95401533.73447                                  23298025.11747
  21814220.215 6  21814228.522 9  21814227.150 9                 114634481.938 6
  89325597.418 9  85603694.718 9                
  22838488.401 5  22838499.652 9  22838495.250 9                 120017045.822 5
  93519818.069 9  89623141.492 9                
  23631980.016 6  23631990.261 9  23631990.130 9                 124186954.758 6
  96769427.208 9  92737072.271 9                
  21190340.718 7  21190349.283 9  21190344.183 9                 111355995.962 7
  86770947.898 9  83155465.620 9                
  20944782.534 3                                                 111765363.180 3
                                                
  19734375.107 8  19734377.225 9                                 105639655.978 8
  82164341.623 9                                
  22326444.043 5  22326447.673 9                                 119557126.211 5
  92988896.752 9                                
  21766185.642 6  21766192.654 9                                 116230261.983 6
  90401360.808 9                                
  21163537.969 7  21163544.041 9                                 113051826.298 7
  87929116.021 9                                
  21215701.361 7  21215705.325 9                                 113250839.547 7
  88083995.862 9                                
  21426858.230 6                                                 114619261.980 6
                                                
 23  9 21 19  0 15.0000000  0 21E03E05E08E13E15E24E25G02G10G21G23G24
                                G28G32R06R07R08R09R16R22R23
  23547756.402 7                                                 123744293.951 7
                                                
  26763411.551 6                                                 140642661.938 6
                                                
  24571474.392 7                                                 129123978.728 7
                                                
  24756320.088 6                                                 130095342.599 6
                                                
  24878483.511 7                                                 130737302.666 7
                                                
  27402490.385 6                                                 144001071.796 6
                                                
  27248874.537 6                                                 143193827.958 6
                                                
  23971427.422 6                                                 125970706.756 6
  98159036.57147                                  23971434.59147
  20375793.519 7  20375801.667 9  20375795.126 9                 107075513.576 7
  83435498.044 9  79958993.259 9                
  23293028.739 6                                                 122405698.679 6
  95381102.98547                                  23293035.50147
  21820114.197 6  21820122.585 9  21820120.861 9                 114665453.959 6
  89349731.438 9  85626823.147 9                
  22845955.175 5  22845966.652 9  22845962.222 9                 120056284.803 5
  93550393.867 9  89652443.280 9                
  23620135.929 6  23620146.340 9  23620146.672 9                 124124714.443 6
  96720928.365 9  92690594.219 9                
  21185184.612 7  21185193.502 9  21185188.292 9                 111328900.894 7
  86749834.877 9  83135232.305 9                
  20949911.202 3                                                 111792727.647 3
                                                
  19731295.640 8  19731297.920 9                                 105623171.225 8
  82151520.175 9                                
  22317101.955 6  22317105.480 9                                 119507100.215 6
  92949987.697 9                                
  21755081.566 7  21755087.818 9                                 116170966.337 7
  90355242.092 9                                
  21162662.473 7  21162668.329 9                                 113047148.721 7
  87925477.917 9                                
  21222721.050 7  21222724.295 9                                 113288308.412 7
  88113138.247 9                                
  21422690.033 6                                                 114596965.938 6
                                                
 23  9 21 19  0 30.0000000  0 21E03E05E08E13E15E24E25G02G10G21G23G24
                                G28G32R06R07R08R09R16R22R23
  23548619.940 7                                                 123748832.040 7
                                                
  26769001.495 6                                                 140672037.046 6
                                                
  24565778.546 7                                                 129094045.008 7
                                                
  24753553.659 7                                                 130080803.728 7
                                                
  24883898.464 6                                                 130765758.312 6
                                                
  27400295.242 6                                                 143989535.831 6
                                                
  27240755.792 6                                                 143151162.800 6
                                                
  23964190.112 6                                                 125932673.734 6
  98129400.47647                                  23964195.91147
  20374964.719 8  20374972.954 9  20374966.217 9                 107071158.371 8
  83432104.376 9  79955740.995 9                
  23288056.172 5                                                 122379568.771 5
  95360742.06047                                  23288063.40547
  21826019.203 6  21826027.553 9  21826026.138 9                 114696484.849 6
  89373911.324 9  85649995.530 9                
  22853435.301 5  22853446.427 9  22853442.451 9                 120095593.381 5
  93581023.895 9  89681797.031 9                
  23608295.074 5  23608305.622 9  23608305.911 9                 124062492.011 5
  96672443.437 9  92644129.541 9                
  21180039.121 7  21180047.836 9  21180042.744 9                 111301861.198 7
  86728765.003 9  83115040.348 9                
  20955046.313 3                                                 111820130.045 3
                                                
  19728227.729 8  19728230.151 9                                 105606748.369 8
  82138746.850 9                                
  22307761.774 6  22307765.444 9                                 119457084.011 6
  92911086.255 9                                
  21743992.513 6  21743998.870 9                                 116111753.627 6
  90309187.841 9                                
  21161821.747 7  21161826.820 9                                 113042654.795 7
  87921982.664 9                                
  21229762.647 7  21229766.886 9                                 113325899.311 7
  88142375.558 9                                
  21418556.217 6                                                 114574852.809 6
                                                
 23  9 21 19  0 45.0000000  0 21E03E05E08E13E15E24E25G02G10G21G23G24
                                G28G32R06R07R08R09R16R22R23
  23549488.584 7                                                 123753396.217 7
                                                
  26774588.347 6                                                 140701396.604 6
                                                
  24560086.409 7                                                 129064133.365 7
                                                
  24750803.444 7                                                 130066352.399 7
                                                
  24889323.795 6                                                 130794268.785 6
                                                
  27398116.092 6                                                 143978082.881 6
                                                
  27232641.098 6                                                 143108522.959 6
                                                
  23956967.573 6                                                 125894717.931 6
  98099824.56147                                  23956973.02347
  20374152.209 8  20374160.179 9  20374153.481 9                 107066887.572 8
  83428776.489 9  79952551.764 9                
  23283101.331 5                                                 122353527.744 5
  95340450.40647                                  23283108.00047
  21831935.365 6  21831943.568 9  21831942.238 9                 114727573.709 6
  89398136.385 9  85673211.209 9                
  22860928.518 5  22860939.741 9  22860935.476 9                 120134970.377 5
  93611707.251 9  89711201.915 9                
  23596458.206 5  23596468.655 9  23596468.587 9                 124000287.046 5
  96623972.108 9  92597677.891 9                
  21174903.867 7  21174913.032 9  21174907.488 9                 111274876.161 7
  86707737.717 9  83094889.205 9                
  20960188.857 3                                                 111847569.519 3
                                                
  19725170.993 8  19725173.011 9                                 105590386.303 8
  82126020.807 9                                
  22298423.740 6  22298426.712 9                                 119407076.417 6
  92872191.480 9                                
  21732920.485 6  21732926.263 9                                 116052623.772 6
  90263198.014 9                                
  21161014.397 7  21161019.907 9                                 113038343.661 7
  87918629.560 9                                
  21236827.005 7  21236831.663 9                                 113363610.961 7
  88171706.828 9                                
  21414456.414 6                                                 114552921.795 6
                                                
 23  9 21 19  1  0.0000000  0 21E03E05E08E13E15E24E25G02G10G21G23G24
                                G28G32R06R07R08R09R16R22R23
  23550362.649 7                                                 123757989.173 7
                                                
  26780173.312 5                                                 140730743.288 5
                                                
  24554399.359 7                                                 129034246.565 7
                                                
  24748070.632 6                                                 130051991.458 6
                                                
  24894759.629 7                                                 130822836.626 7
                                                
  27395952.975 6                                                 143966715.792 6
                                                
  27224532.172 6                                                 143065911.416 6
                                                
  23949760.221 6                                                 125856842.299 6
  98070311.10847                                  23949766.31747
  20373356.085 7  20373364.038 9  20373357.192 9                 107062703.872 7
  83425516.456 9  79949427.568 9                
  23278163.279 5                                                 122327578.602 5
  95320230.31247                                  23278169.89747
  21837863.025 6  21837871.102 9  21837870.012 9                 114758723.239 6
  89422408.680 9  85696472.178 9                
  22868435.622 4  22868446.399 9  22868442.276 9                 120174418.259 4
  93642445.823 9  89740659.719 9                
  23584624.577 5  23584634.999 9  23584635.305 9                 123938102.548 5
  96575516.767 9  92551241.519 9                
  21169780.025 7  21169789.079 9  21169783.327 9                 111247948.545 7
  86686755.155 9  83074780.926 9                
  20965338.196 3                                                 111875048.918 3
                                                
  19722126.237 8  19722128.532 9                                 105574088.530 8
  82113344.744 9                                
  22289086.893 6  22289090.939 9                                 119357080.909 6
  92833306.136 9                                
  21721862.556 7  21721869.384 9                                 115993580.016 7
  90217275.167 9                                
  21160241.919 8  21160247.434 9                                 113034218.016 8
  87915420.713 9                                
  21243914.889 7  21243919.234 9                                 113401445.694 7
  88201133.741 9                                
  21410391.489 6                                                 114531175.643 6
                                                
 23  9 21 19  1 15.0000000  0 21E03E05E08E13E15E24E25G02G10G21G23G24
                                G28G32R06R07R08R09R16R22R23
  23551243.336 7                                                 123762617.050 7
                                                
  26785756.173 6                                                 140760083.268 6
                                                
  24548717.912 7                                                 129004390.809 7
                                                
  24745356.119 6                                                 130037727.170 6
                                                
  24900208.461 7                                                 130851467.846 7
                                                
  27393807.810 6                                                 143955440.858 6
                                                
  27216430.228 6                                                 143023334.629 6
                                                
  23942569.030 6                                                 125819053.320 6
  98040865.18147                                  23942575.18047
  20372577.526 7  20372585.809 9  20372579.000 9                 107058613.669 7
  83422329.289 9  79946373.193 9                
  23273243.674 6                                                 122301727.666 6
  95300086.73147                                  23273250.11447
  21843803.223 6  21843811.311 9  21843810.232 9                 114789939.481 6
  89446733.000 9  85719782.968 9                
  22875957.187 4  22875967.552 9  22875963.730 9                 120213942.870 4
  93673244.169 9  89770174.786 9                
  23572796.442 5  23572806.661 9  23572807.364 9                 123875945.029 5
  96527082.438 9  92504825.311 9                
  21164667.687 7  21164677.094 9  21164671.261 9                 111221084.549 7
  86665822.207 9  83054720.172 9                
  20970496.446 3                                                 111902574.207 3
                                                
  19719094.815 8  19719097.678 9                                 105557860.756 8
  82100723.165 9                                
  22279753.859 6  22279758.206 9                                 119307103.442 6
  92794434.819 9                                
  21710822.828 7  21710828.774 9                                 115934629.109 7
  90171424.501 9                                
  21159505.839 7  21159510.474 9                                 113030284.381 7
  87912361.229 9                                
  21251026.756 7  21251030.897 9                                 113439409.403 7
  88230661.036 9                                
  21406361.536 6                                                 114509620.956 6
                                                
