     2.11           OBSERVATION DATA    Mixed(MIXED)        RINEX VERSION / TYPE
cnvtToRINEX 3.14.0  convertToRINEX OPR  20230925 142301 UTC PGM / RUN BY / DATE 
----------------------------------------------------------- COMMENT             
seiler pk                                                   MARKER NAME         
                                                            MARKER NUMBER       
GNSS Observer       Trimble                                 OBSERVER / AGENCY   
6309F01896          TRIMBLE R12i        6.21                REC # / TYPE / VERS 
                    TRMR12I         NONE                    ANT # / TYPE        
   110519.3958 -4346849.5191  4650782.4918                  APPROX POSITION XYZ 
        2.0500        0.0000        0.0000                  ANTENNA: DELTA H/E/N
     1     1     0                                          WAVELENGTH FACT L1/2
     9    C1    C2    C5    C8    L1    L2    L5    L8    P2# / TYPES OF OBSERV 
    15.000                                                  INTERVAL            
  2023     9    21    18    36   30.0000000     GPS         TIME OF FIRST OBS   
  2023     9    21    20    47    0.0000000     GPS         TIME OF LAST OBS    
     0                                                      RCV CLOCK OFFS APPL 
    18                                                      LEAP SECONDS        
    35                                                      # OF SATELLITES     
   E02   268     0     0   268   268     0     0   268     0PRN / # OF OBS      
   E03   523     0     0   523   523     0     0   523     0PRN / # OF OBS      
   E05   159     0     0   164   158     0     0   164     0PRN / # OF OBS      
   E07   274     0     0   274   274     0     0   274     0PRN / # OF OBS      
   E08   523     0     0   523   523     0     0   523     0PRN / # OF OBS      
   E13   523     0     0   523   523     0     0   523     0PRN / # OF OBS      
   E15   411     0     0   411   411     0     0   411     0PRN / # OF OBS      
   E24   242     0     0   233   242     0     0   233     0PRN / # OF OBS      
   E25   481     0     0   480   481     0     0   480     0PRN / # OF OBS      
   E26   334     0     0   328   334     0     0   328     0PRN / # OF OBS      
   E34    34     0     0    34    33     0     0    34     0PRN / # OF OBS      
   G02   523     0     0     0   523   523     0     0   523PRN / # OF OBS      
   G03    61    61    61     0    61    61    61     0     0PRN / # OF OBS      
   G10   523   523   523     0   522   523   523     0     0PRN / # OF OBS      
   G12   469   462     0     0   459   462     0     0     0PRN / # OF OBS      
   G18    25    36    36     0    23    36    36     0     0PRN / # OF OBS      
   G21   523     0     0     0   523   523     0     0   523PRN / # OF OBS      
   G23   407   407   407     0   406   407   407     0     0PRN / # OF OBS      
   G24   220   206   215     0   218   206   215     0     0PRN / # OF OBS      
   G25   378   378   378     0   376   378   378     0     0PRN / # OF OBS      
   G28   493   493   493     0   493   493   493     0     0PRN / # OF OBS      
   G31   250   250     0     0   250   250     0     0     0PRN / # OF OBS      
   G32   523   523   523     0   522   523   523     0     0PRN / # OF OBS      
   R01    69    68     0     0    69    68     0     0     0PRN / # OF OBS      
   R06   358     0     0     0   358     0     0     0     0PRN / # OF OBS      
   R07   523   523     0     0   523   523     0     0     0PRN / # OF OBS      
   R08   523   523     0     0   523   523     0     0     0PRN / # OF OBS      
   R09   523   523     0     0   523   523     0     0     0PRN / # OF OBS      
   R10   339     0     0     0   339     0     0     0     0PRN / # OF OBS      
   R15    70    67     0     0    69    67     0     0     0PRN / # OF OBS      
   R16   476   473     0     0   476   473     0     0     0PRN / # OF OBS      
   R21    55    49     0     0    55    49     0     0     0PRN / # OF OBS      
   R22   322   320     0     0   322   320     0     0     0PRN / # OF OBS      
   R23   523     0     0     0   523     0     0     0     0PRN / # OF OBS      
   R24   296   245     0     0   292   242     0     0     0PRN / # OF OBS      
CARRIER PHASE MEASUREMENTS: PHASE SHIFTS REMOVED            COMMENT             
                                                            END OF HEADER       
 23  9 21 18 36 30.0000000  0 22E03E05E08E13E15E34G02G10G18G21G23G24
                                G32R06R07R08R09R15R16R21R22R23
  23267676.354 7                                                 122272468.66317
                                                
  25997631.954 4                                                 136618477.65214
                                                
  24909156.650 7                                                 130898499.64017
                                                
  24869829.021 6                                                 130691835.94616
                                                
  24193825.458 7                                                 127139411.80717
                                                
  27299211.602 5                                                 143458316.53115
                                                
  24496397.062 3                                                 128729410.98313
 100308679.14456                                  24496405.66946
  20301728.334 8  20301735.634 9  20301730.684 9                
  83132220.89619  79668452.19319                
  24249743.988 5  24249755.612 8  24249757.102 9                
  99298698.18418  95161249.01619                
  23615432.824 5                                                 124099933.73015
  96701278.88557                                  23615440.63547
  21088968.040 6  21088974.741 9  21088974.407 9                
  86355844.41319  82757566.07819                
  21981653.262 5  21981664.174 9  21981659.987 9                
  90011246.73219  86260630.01519                
  21498138.403 7  21498147.467 9  21498142.349 9                
  88031327.51019  84363324.41019                
  20273125.172 3                                                 108181280.46713
                                                
  19851304.800 8  19851307.964 9                                 106265587.93818
  82651025.59219                                
  22987836.073 3  22987842.850 9                                 123098824.47713
  95743560.19819                                
  22640816.596 5  22640823.904 9                                 120900712.53115
  94033918.52219                                
  22962272.160 6  22962280.898 9                                 122703415.74316
  95436021.33919                                
  21173821.930 7  21173827.445 9                                 113106758.32617
  87972113.08919                                
  22755409.145 6  22755417.140 9                                 121768785.22216
  94709087.66619                                
  20447299.870 7  20447302.302 9                                 109149075.17817
  84893676.91419                                
  21741578.764 6                                                 116302790.07816
                                                
 23  9 21 18 36 45.0000000  0 22E03E05E08E13E15E34G02G10G18G21G23G24
                                G32R06R07R08R09R15R16R21R22R23
  23267648.041 7                                                 122272319.302 7
                                                
  26003088.742 5                                                 136647154.660 5
                                                
  24902712.193 7                                                 130864633.214 7
                                                
  24865220.542 6                                                 130667616.541 6
                                                
  24197746.078 7                                                 127160015.464 7
                                                
  27307478.224 5                                                 143501758.992 5
                                                
  24487637.947 4                                                 128683379.717 4
 100272810.64746                                  24487646.05146
  20299122.279 8  20299129.962 9  20299124.802 9                 106672561.000 8
  83121550.594 9  79658226.490 9                
  24259791.139 5  24259804.273 8  24259805.374 9                 127486012.891 5
  99339842.093 8  95200678.567 9                
  23608652.354 5                                                 124064304.749 5
  96673516.07746                                  23608660.57246
  21093391.425 6  21093398.343 9  21093397.846 9                 110846480.229 6
  86373957.554 9  82774924.482 9                
  21987237.004 5  21987247.348 9  21987243.153 9                 115543670.118 5
  90034110.274 9  86282540.904 9                
  21491675.773 7  21491684.722 9  21491679.624 9                 112939468.546 7
  88004863.586 9  84337963.166 9                
  20277171.457 3                                                 108202870.343 3
                                                
  19846827.231 8  19846830.349 9                                 106241620.707 8
  82632384.415 9                                
  22978039.214 3  22978047.507 9                                 123046375.837 3
  95702766.877 9                                
  22628369.338 6  22628376.416 9                                 120834243.781 6
  93982220.659 9                                
  22968111.713 6  22968120.384 9                                 122734622.215 6
  95460293.022 9                                
  21169445.215 7  21169451.122 9                                 113083382.329 7
  87953931.768 9                                
  22766782.326 7  22766789.605 9                                 121829642.314 7
  94756420.813 9                                
  20451448.863 7  20451452.140 9                                 109171224.658 7
  84910904.264 9                                
  21734079.106 6                                                 116262672.716 6
                                                
 23  9 21 18 37  0.0000000  0 22E03E05E08E13E15E34G02G10G18G21G23G24
                                G32R06R07R08R09R15R16R21R22R23
  23267621.223 7                                                 122272177.138 7
                                                
  26008539.416 4                                                 136675796.876 4
                                                
  24896266.608 7                                                 130830762.053 7
                                                
  24860621.109 6                                                 130643447.138 6
                                                
  24201675.407 7                                                 127180663.243 7
                                                
  27315738.067 5                                                 143545165.787 5
                                                
  24478883.285 5                                                 128637374.153 5
 100236962.21746                                  24478891.05346
  20296525.455 8  20296532.740 9  20296527.922 9                 106658913.860 8
  83110916.457 9  79648035.439 9                
  24269833.787 4  24269846.329 9  24269847.514 9                 127538785.475 4
  99380963.433 9  95240086.480 9                
  23601881.020 6                                                 124028720.694 6
  96645788.23247                                  23601888.57147
  21097822.197 6  21097829.378 9  21097829.082 9                 110869765.200 6
  86392101.645 9  82792312.563 9                
  21992834.763 5  21992845.269 9  21992841.323 9                 115573086.949 5
  90057032.440 9  86304507.979 9                
  21485217.891 7  21485226.505 9  21485221.916 9                 112905531.940 7
  87978419.484 9  84312620.906 9                
  20281220.728 3                                                 108224479.405 3
                                                
  19842355.641 8  19842358.478 9                                 106217684.688 8
  82613767.481 9                                
  22968240.621 3  22968248.961 9                                 122993903.436 3
  95661955.106 9                                
  22615922.103 6  22615929.972 9                                 120767778.992 6
  93930525.932 9                                
  22973971.196 6  22973979.601 9                                 122765934.016 6
  95484646.576 9                                
  21165096.055 7  21165102.102 9                                 113060150.815 7
  87935862.875 9                                
  22778153.416 7  22778160.510 9                                 121890491.146 7
  94803747.528 9                                
  20455623.251 7  20455626.509 9                                 109193509.038 7
  84928236.540 9                                
  21726603.393 6                                                 116222682.775 6
                                                
 23  9 21 18 37 15.0000000  0 22E03E05E08E13E15E34G02G10G18G21G23G24
                                G32R06R07R08R09R15R16R21R22R23
  23267594.814 7                                                 122272037.991 7
                                                
  26013982.420 3                                                 136704400.133 3
                                                
  24889819.606 7                                                 130796882.005 7
                                                
  24856030.689 6                                                 130619323.745 6
                                                
  24205612.126 7                                                 127201350.879 7
                                                
  27323990.609 5                                                 143588532.655 5
                                                
  24470133.035 4                                                 128591390.418 4
 100201130.76346                                  24470139.62346
  20293936.492 8  20293944.179 9  20293938.996 9                 106645309.137 8
  83100315.357 9  79637876.062 9                
  24279869.309 4  24279882.624 9  24279883.558 9                 127591524.630 4
  99422058.782 9  95279469.461 9                
  23595117.620 4                                                 123993177.599 4
  96618092.38746                                  23595125.00946
  21102259.810 7  21102267.146 9  21102266.791 9                 110893085.711 7
  86410273.437 9  82809727.175 9                
  21998445.877 5  21998456.689 9  21998452.405 9                 115602574.541 5
  90080009.725 9  86326527.864 9                
  21478763.697 7  21478772.490 9  21478767.991 9                 112871616.644 7
  87951991.980 9  84287294.592 9                
  20285273.288 2                                                 108246103.310 2
                                                
  19837889.640 8  19837892.649 9                                 106193775.788 8
  82595171.700 9                                
  22958437.252 5  22958444.935 9                                 122941402.865 5
  95621121.361 9                                
  22603475.918 6  22603483.503 8                                 120701314.769 6
  93878831.680 8                                
  22979850.102 6  22979858.727 9                                 122797346.686 6
  95509078.593 9                                
  21160773.711 7  21160779.131 9                                 113037060.006 7
  87917903.344 9                                
  22789522.385 6  22789529.814 9                                 121951326.876 6
  94851064.070 9                                
  20459822.931 8  20459826.162 9                                 109215923.916 8
  84945670.322 9                                
  21719150.316 6                                                 116182816.517 6
                                                
 23  9 21 18 37 30.0000000  0 22E03E05E08E13E15E34G02G10G18G21G23G24
                                G32R06R07R08R09R15R16R21R22R23
  23267568.852 7                                                 122271900.740 7
                                                
  26019417.646 4                                                 136732963.303 4
                                                
  24883370.201 7                                                 130762992.087 7
                                                
  24851448.557 6                                                 130595245.504 6
                                                
  24209556.228 7                                                 127222077.194 7
                                                
  27332235.510 5                                                 143631858.299 5
                                                
  24461387.079 4                                                 128545427.521 4
 100165315.55846                                  24461393.59046
  20291355.471 8  20291363.424 9  20291357.985 9                 106631745.778 8
  83089746.510 9  79627747.589 9                
  24289898.697 4  24289912.200 8  24289912.889 8                 127644229.054 4
  99463127.035 8  95318826.494 8                
  23588361.888 5                                                 123957674.670 5
  96590427.80447                                  23588368.96547
  21106704.229 6  21106711.559 9  21106710.984 9                 110916440.636 6
  86428472.051 9  82827167.514 9                
  22004070.755 6  22004081.186 9  22004076.806 9                 115632131.464 6
  90103041.099 9  86348599.562 9                
  21472313.820 7  21472322.397 9  21472317.860 9                 112837721.695 7
  87925580.340 9  84261983.447 9                
  20289328.447 3                                                 108267740.832 3
                                                
  19833428.020 8  19833431.622 9                                 106169892.971 8
  82576596.208 9                                
  22948627.550 4  22948635.443 9                                 122888873.236 4
  95580265.041 9                                
  22591028.590 6  22591036.463 8                                 120634850.483 6
  93827137.366 8                                
  22985747.088 6  22985755.562 9                                 122828858.684 6
  95533587.881 9                                
  21156477.366 7  21156482.995 9                                 113014108.947 7
  87900052.546 9                                
  22800888.202 6  22800895.328 9                                 122012147.948 6
  94898369.197 9                                
  20464046.215 7  20464049.340 9                                 109238467.889 7
  84963204.502 9                                
  21711721.002 6                                                 116143073.065 6
                                                
 23  9 21 18 37 45.0000000  0 22E03E05E08E13E15E34G02G10G18G21G23G24
                                G32R06R07R08R09R15R16R21R22R23
  23267542.412 7                                                 122271763.563 7
                                                
  26024845.226 5                                                 136761484.526 5
                                                
  24876918.793 7                                                 130729090.529 7
                                                
  24846874.812 6                                                 130571210.766 6
                                                
  24213507.284 7                                                 127242840.338 7
                                                
  27340472.223 5                                                 143675140.752 5
                                                
  24452644.296 5                                                 128499484.130 5
 100129515.54646                                  24452650.76846
  20288782.127 8  20288789.756 9  20288784.430 9                 106618222.355 8
  83079208.792 9  79617648.926 9                
  24299920.978 4  24299934.228 8  24299935.702 8                 127696896.658 4
  99504166.587 8  95358156.019 8                
  23581612.759 5                                                 123922210.223 5
  96562793.19147                                  23581620.14747
  21111155.006 6  21111162.201 9  21111161.594 9                 110939828.187 6
  86446696.079 9  82844632.201 9                
  22009707.805 5  22009718.297 9  22009714.064 9                 115661755.717 5
  90126124.860 9  86370721.527 9                
  21465867.505 7  21465876.194 9  21465871.361 9                 112803845.387 7
  87899183.259 9  84236686.213 9                
  20293385.518 3                                                 108289390.097 3
                                                
  19828970.993 8  19828974.550 9                                 106146034.449 8
  82558039.586 9                                
  22938812.634 5  22938819.884 9                                 122836312.548 5
  95539384.593 9                                
  22578581.746 6  22578589.958 9                                 120568384.989 6
  93775442.123 9                                
  22991662.421 6  22991671.078 9                                 122860467.721 6
  95558172.574 9                                
  21152206.654 7  21152212.603 9                                 112991296.030 7
  87882309.164 9                                
  22812250.902 6  22812258.280 9                                 122072951.886 6
  94945661.025 9                                
  20468292.808 8  20468295.839 9                                 109261138.782 8
  84980837.423 9                                
  21704313.989 6                                                 116103451.543 6
                                                
 23  9 21 18 38  0.0000000  0 22E03E05E08E13E15E34G02G10G18G21G23G24
                                G32R06R07R08R09R15R16R21R22R23
  23267515.778 7                                                 122271623.885 7
                                                
  26030264.394 4                                                 136789961.252 4
                                                
  24870465.306 7                                                 130695174.845 7
                                                
  24842308.423 6                                                 130547217.224 6
                                                
  24217464.814 7                                                 127263637.628 7
                                                
  27348699.732 5                                                 143718377.302 5
                                                
  24443904.286 5                                                 128453557.984 5
 100093728.94446                                  24443911.17446
  20286215.611 8  20286223.316 9  20286218.156 9                 106604736.371 8
  83068700.227 9  79607578.225 9                
  24309936.228 4  24309949.708 8  24309950.565 8                 127749524.609 4
  99545175.202 8  95397455.940 8                
  23574871.270 5                                                 123886782.187 5
  96535186.94747                                  23574878.52947
  21115610.972 6  21115618.562 9  21115617.969 9                 110963245.802 6
  86464943.525 9  82862119.330 9                
  22015357.418 5  22015367.794 9  22015363.149 9                 115691444.469 5
  90149258.929 9  86392891.648 9                
  21459423.998 7  21459433.005 9  21459427.861 9                 112769985.225 7
  87872798.739 9  84211401.056 9                
  20297444.218 3                                                 108311048.518 3
                                                
  19824518.069 8  19824521.592 9                                 106122197.722 8
  82539499.931 9                                
  22928990.396 5  22928998.861 9                                 122783718.465 5
  95498478.198 9                                
  22566134.029 6  22566141.533 9                                 120501916.209 6
  93723744.230 9                                
  22997595.320 6  22997603.967 9                                 122892170.958 6
  95582830.573 9                                
  21147961.468 7  21147967.206 9                                 112968619.012 7
  87864671.513 9                                
  22823610.078 6  22823617.561 9                                 122133735.712 6
  94992937.183 9                                
  20472563.549 8  20472566.360 9                                 109283933.661 8
  84998566.702 9                                
  21696929.756 6                                                 116063949.246 6
                                                
 23  9 21 18 38 15.0000000  0 22E03E05E08E13E15E34G02G10G18G21G23G24
                                G32R06R07R08R09R15R16R21R22R23
  23267488.849 7                                                 122271482.210 7
                                                
  26035675.439 4                                                 136818393.984 4
                                                
  24864008.434 7                                                 130661245.680 7
                                                
  24837750.944 6                                                 130523265.583 6
                                                
  24221429.200 7                                                 127284469.548 7
                                                
  27356919.471 5                                                 143761568.381 5
                                                
  24435168.329 5                                                 128407650.017 5
 100057956.47346                                  24435174.77246
  20283656.696 8  20283664.579 9  20283659.123 9                 106591288.608 8
  83058221.442 9  79597536.059 9                
  24319943.845 4  24319957.495 8  24319958.262 8                 127802113.183 4
  99586153.112 8  95436726.454 8                
  23568136.562 5                                                 123851391.386 5
  96507609.73447                                  23568143.45547
  21120072.840 6  21120080.524 9  21120079.716 9                 110986694.022 6
  86483214.834 9  82879629.318 9                
  22021019.294 5  22021029.633 9  22021025.219 9                 115721197.950 5
  90172443.437 9  86415110.122 9                
  21452984.013 7  21452992.717 9  21452987.804 9                 112736141.888 7
  87846427.317 9  84186128.461 9                
  20301505.390 2                                                 108332716.579 2
                                                
  19820069.116 8  19820072.904 9                                 106098383.257 8
  82520977.566 9                                
  22919162.804 5  22919170.739 9                                 122731091.777 5
  95457546.403 9                                
  22553686.094 6  22553694.024 9                                 120435445.223 6
  93672044.687 9                                
  23003545.606 6  23003554.275 9                                 122923968.735 6
  95607562.170 9                                
  21143742.426 7  21143747.319 9                                 112946078.683 7
  87847140.174 9                                
  22834965.474 6  22834972.256 9                                 122194499.559 6
  95040197.833 9                                
  20476857.276 8  20476860.376 9                                 109306852.822 8
  85016392.683 9                                
  21689567.661 6                                                 116024567.253 6
                                                
 23  9 21 18 38 30.0000000  0 22E03E05E08E13E15E34G02G10G18G21G23G24
                                G32R06R07R08R09R15R16R21R22R23
  23267461.098 7                                                 122271337.358 7
                                                
  26041076.763 4                                                 136846781.499 4
                                                
  24857549.109 7                                                 130627301.904 7
                                                
  24833201.127 6                                                 130499354.943 6
                                                
  24225399.667 7                                                 127305334.861 7
                                                
  27365129.591 5                                                 143804712.647 5
                                                
  24426435.816 5                                                 128361759.403 5
 100022197.61046                                  24426442.88246
  20281104.698 8  20281112.494 9  20281107.339 9                 106577878.137 8
  83047771.723 9  79587521.758 9                
  24329943.493 5  24329955.993 8  24329957.941 8                 127854660.991 5
  99627099.288 8  95475966.517 8                
  23561408.283 6                                                 123816036.872 6
  96480060.75946                                  23561415.44846
  21124540.691 6  21124548.195 9  21124547.015 9                 111010171.667 6
  86501509.070 9  82897161.307 9                
  22026692.813 4  22026703.737 9  22026699.168 9                 115751014.792 4
  90195677.303 9  86437375.919 9                
  21446546.814 7  21446555.355 9  21446550.905 9                 112702314.306 7
  87820068.166 9  84160867.646 9                
  20305566.522 2                                                 108354393.144 2
                                                
  19815624.697 8  19815628.050 9                                 106074590.265 8
  82502471.914 9                                
  22909329.065 5  22909336.311 9                                 122678431.505 5
  95416588.442 9                                
  22541237.888 6  22541245.511 9                                 120368971.662 6
  93620343.151 9                                
  23009513.537 6  23009522.096 9                                 122955859.213 6
  95632365.810 9                                
  21139547.756 7  21139553.248 9                                 112923674.347 7
  87829714.604 9                                
  22846316.882 6  22846323.775 9                                 122255241.769 6
  95087441.619 9                                
  20481173.913 8  20481176.726 9                                 109329894.866 8
  85034314.247 9                                
  21682227.648 6                                                 115985305.013 6
                                                
 23  9 21 18 38 45.0000000  0 22E03E05E08E13E15E34G02G10G18G21G23G24
                                G32R06R07R08R09R15R16R21R22R23
  23267433.638 7                                                 122271192.564 7
                                                
  26046469.844 3                                                 136875127.095 3
                                                
  24851087.641 7                                                 130593346.867 7
                                                
  24828659.762 6                                                 130475488.760 6
                                                
  24229377.206 7                                                 127326236.765 7
                                                
  27373331.340 5                                                 143847813.255 5
                                                
  24417706.842 5                                                 128315889.690 5
  99986455.00146                                  24417714.53946
  20278560.690 8  20278568.149 9  20278563.188 9                 106564508.382 8
  83037353.728 9  79577537.841 9                
  24339935.727 4  24339948.342 8  24339950.203 8                 127907170.986 4
  99668016.032 8  95515178.329 8                
  23554688.513 5                                                 123780722.111 5
  96452542.83047                                  23554696.15647
  21129014.523 6  21129022.334 9  21129021.117 9                 111033682.019 6
  86519828.771 9  82914717.695 9                
  22032379.577 4  22032390.617 9  22032385.915 9                 115780897.951 4
  90218962.813 9  86459691.199 9                
  21440113.288 7  21440121.750 9  21440117.260 9                 112668505.858 7
  87793723.946 9  84135621.098 9                
  20309631.160 3                                                 108376081.330 3
                                                
  19811184.499 8  19811187.323 9                                 106050821.994 8
  82483985.493 9                                
  22899489.580 6  22899496.905 9                                 122625740.757 6
  95375606.848 9                                
  22528789.255 6  22528797.153 9                                 120302499.370 6
  93568642.581 9                                
  23015499.945 6  23015507.679 9                                 122987845.718 6
  95657244.147 9                                
  21135379.531 7  21135385.278 9                                 112901409.518 7
  87812397.535 9                                
  22857663.741 6  22857671.956 9                                 122315964.952 6
  95134670.604 9                                
  20485513.985 7  20485516.499 9                                 109353062.758 7
  85052333.712 9                                
  21674911.218 6                                                 115946166.123 6
                                                
 23  9 21 18 39  0.0000000  0 22E03E05E08E13E15E34G02G10G18G21G23G24
                                G32R06R07R08R09R15R16R21R22R23
  23267405.784 7                                                 122271045.823 7
                                                
  26051855.849 2                                                 136903428.648 2
                                                
  24844623.574 7                                                 130559378.621 7
                                                
  24824125.932 6                                                 130451665.165 6
                                                
  24233361.246 7                                                 127347173.119 7
                                                
  27381523.820 5                                                 143890868.025 5
                                                
  24408982.004 5                                                 128270039.291 5
  99950727.44946                                  24408989.41246
  20276023.751 8  20276031.345 9  20276026.171 9                 106551177.705 8
  83026966.191 9  79567583.116 9                
  24349920.432 3  24349933.445 8  24349934.518 8                 127959640.799 3
  99708901.505 8  95554360.181 8                
  23547975.253 5                                                 123745445.412 5
  96425054.51046                                  23547983.90746
  21133494.331 6  21133501.943 9  21133501.015 9                 111057223.036 6
  86538172.374 9  82932296.980 9                
  22038078.336 4  22038089.268 9  22038085.221 9                 115810845.093 4
  90242298.223 9  86482054.294 9                
  21433683.046 7  21433691.742 9  21433686.739 9                 112634714.622 7
  87767393.115 9  84110387.395 9                
  20313697.652 3                                                 108397779.328 3
                                                
  19806748.417 8  19806751.804 9                                 106027076.640 8
  82465516.886 9                                
  22889643.591 5  22889651.548 9                                 122573017.777 5
  95334600.145 9                                
  22516341.005 6  22516349.374 9                                 120236026.825 6
  93516941.885 9                                
  23021503.017 6  23021511.198 9                                 123019925.650 6
  95682195.150 9                                
  21131237.597 7  21131243.074 9                                 112879282.426 7
  87795187.586 9                                
  22869008.518 6  22869015.222 9                                 122376666.788 6
  95181883.005 9                                
  20489877.197 8  20489880.561 9                                 109376354.128 8
  85070449.185 9                                
  21667617.464 6                                                 115907149.209 6
                                                
 23  9 21 18 39 15.0000000  0 22E03E05E08E13E15E34G02G10G18G21G23G24
                                G32R06R07R08R09R15R16R21R22R23
  23267378.275 7                                                 122270901.670 7
                                                
  26057234.088 2                                                 136931690.785 2
                                                
  24838158.291 7                                                 130525401.854 7
                                                
  24819601.584 6                                                 130427889.022 6
                                                
  24237352.961 7                                                 127368148.451 7
                                                
  27389709.251 5                                                 143933881.356 5
                                                
  24400260.853 5                                                 128224213.111 5
  99915018.78746                                  24400268.89046
  20273495.626 8  20273503.097 9  20273497.802 9                 106537890.757 8
  83016612.704 9  79557661.039 9                
  24359898.085 3  24359911.368 8  24359912.704 8                 128012074.910 3
  99749759.080 8  95593515.346 8                
  23541270.397 5                                                 123710211.691 5
  96397599.69447                                  23541278.66847
  21137980.912 6  21137988.645 9  21137986.937 9                 111080799.318 6
  86556543.483 9  82949902.604 9                
  22043790.073 4  22043801.715 9  22043797.274 9                 115840860.598 4
  90265686.892 9  86504468.419 9                
  21427256.931 7  21427265.723 9  21427260.653 9                 112600945.282 7
  87741079.354 9  84085170.053 9                
  20317766.576 3                                                 108419491.388 3
                                                
  19802317.686 8  19802321.097 9                                 106003358.840 8
  82447069.713 9                                
  22879793.527 5  22879799.716 9                                 122520267.365 5
  95293572.105 9                                
  22503894.234 6  22503901.440 9                                 120169559.555 6
  93465245.252 9                                
  23027524.489 5  23027532.904 9                                 123052103.277 5
  95707222.127 9                                
  21127121.942 7  21127126.749 9                                 112857297.917 7
  87778088.566 9                                
  22880348.231 5  22880355.753 9                                 122437351.353 5
  95229081.972 9                                
  20494264.488 7  20494267.789 9                                 109399773.371 7
  85088664.145 9                                
  21660347.418 6                                                 115868259.408 6
                                                
 23  9 21 18 39 30.0000000  0 22E03E05E08E13E15E34G02G10G18G21G23G24
                                G32R06R07R08R09R15R16R21R22R23
  23267351.828 7                                                 122270761.952 7
                                                
  26062605.696 2                                                 136959915.330 2
                                                
  24831691.253 7                                                 130491418.404 7
                                                
  24815086.329 6                                                 130404162.352 6
                                                
  24241352.122 7                                                 127389164.554 7
                                                
  27397887.148 5                                                 143976855.020 5
                                                
  24391545.620 5                                                 128178413.309 5
  99879330.67146                                  24391553.76146
  20270975.613 8  20270983.400 9  20270978.264 9                 106524649.479 8
  83006294.837 9  79547773.063 9                
  24369869.683 2  24369882.676 8  24369884.579 8                 128064474.820 2
  99790590.047 8  95632644.981 8                
  23534574.188 4                                                 123675022.958 4
  96370179.97346                                  23534582.67246
  21142473.947 6  21142482.133 9  21142480.514 9                 111104412.674 6
  86574943.472 9  82967535.935 9                
  22049514.787 3  22049526.602 9  22049522.468 9                 115870946.019 3
  90289130.048 9  86526934.760 9                
  21420835.331 7  21420844.034 9  21420839.276 9                 112567199.798 7
  87714784.218 9  84059970.517 9                
  20321837.865 2                                                 108441219.606 2
                                                
  19797892.539 8  19797896.608 9                                 105979670.432 8
  82428645.400 9                                
  22869937.808 6  22869944.095 8                                 122467491.526 6
  95252524.310 8                                
  22491448.057 6  22491456.434 9                                 120103099.954 6
  93413554.547 9                                
  23033563.661 4  23033573.169 9                                 123084380.167 4
  95732326.276 9                                
  21123033.450 7  21123039.038 9                                 112835458.262 7
  87761102.230 9                                
  22891685.415 5  22891693.117 8                                 122498020.212 5
  95276268.762 8                                
  20498676.119 7  20498678.710 9                                 109423321.995 7
  85106979.717 9                                
  21653101.320 6                                                 115829498.756 6
                                                
 23  9 21 18 39 45.0000000  0 22E03E05E08E13E15E34G02G10G18G21G23G24
                                G32R06R07R08R09R15R16R21R22R23
  23267326.807 7                                                 122270629.151 7
                                                
  26067970.346 1                                                 136988104.742 1
                                                
  24825223.679 7                                                 130457430.910 7
                                                
  24810581.365 6                                                 130380487.864 6
                                                
  24245359.463 7                                                 127410223.850 7
                                                
  27406057.801 5                                                 144019791.350 5
                                                
  24382835.951 6                                                 128132642.786 6
  99843665.33446                                  24382843.60946
  20268465.173 8  20268472.696 9  20268467.778 9                 106511456.617 8
  82996014.693 9  79537921.254 9                
  24379835.642 2  24379848.640 8  24379850.031 8                 128116842.842 2
  99831396.156 8  95671750.789 8                
  23527887.386 5                                                 123639882.101 5
  96342797.51047                                  23527894.92347
  21146974.933 7  21146983.060 9  21146981.796 9                 111128065.681 7
  86593374.335 9  82985198.859 9                
  22055253.927 5  22055265.532 9  22055261.285 9                 115901103.636 5
  90312629.466 9  86549455.017 9                
  21414418.811 7  21414427.632 9  21414422.749 9                 112533480.757 7
  87688509.645 9  84034790.747 9                
  20325913.299 2                                                 108462966.154 2
                                                
  19793473.515 8  19793477.159 9                                 105956014.338 8
  82410246.205 9                                
  22860077.473 5  22860084.887 8                                 122414692.681 5
  95211458.617 8                                
  22479004.007 6  22479012.416 9                                 120036650.926 6
  93361872.132 9                                
  23039623.356 5  23039632.818 9                                 123116758.544 5
  95757509.396 9                                
  21118972.815 7  21118978.672 9                                 112813766.367 7
  87744230.774 9                                
  22903020.528 5  22903028.213 8                                 122558675.311 5
  95323444.785 8                                
  20503112.479 8  20503114.998 9                                 109447002.337 8
  85125397.750 9                                
  21645880.308 6                                                 115790870.374 6
                                                
 23  9 21 18 40  0.0000000  0 22E03E05E08E13E15E34G02G10G18G21G23G24
                                G32R06R07R08R09R15R16R21R22R23
  23267301.971 7                                                 122270499.172 7
                                                
  26073326.805 2                                                 137016254.891 2
                                                
  24818754.486 7                                                 130423435.361 7
                                                
  24806085.032 6                                                 130356861.693 6
                                                
  24249374.335 7                                                 127431322.143 7
                                                
  27414221.043 4                                                 144062686.111 4
                                                
  24374131.331 6                                                 128086897.850 6
  99808019.95046                                  24374138.40846
  20265963.003 8  20265970.844 9  20265965.841 9                 106498308.362 8
  82985769.291 9  79528102.748 9                
  24389794.397 2  24389806.541 8  24389808.814 8                 128169174.525 2
  99872173.952 8  95710829.476 8                
  23521208.219 6                                                 123604785.137 6
  96315449.25047                                  23521216.03547
  21151483.065 7  21151491.032 9  21151489.304 9                 111151754.183 7
  86611832.893 9  83002888.301 9                
  22061005.461 4  22061016.738 9  22061012.404 9                 115931329.056 4
  90336181.673 9  86572025.881 9                
  21408006.527 7  21408015.225 9  21408010.416 9                 112499784.180 7
  87662252.582 9  84009627.743 9                
  20329991.797 2                                                 108484727.380 2
                                                
  19789059.801 8  19789063.183 9                                 105932386.295 8
  82391868.853 9                                
  22850212.994 6  22850219.954 9                                 122361867.173 6
  95170372.205 9                                
  22466561.858 6  22466569.327 9                                 119970208.916 6
  93310195.134 9                                
  23045701.020 5  23045709.692 9                                 123149234.112 5
  95782768.101 9                                
  21114939.073 7  21114944.067 9                                 112792218.178 7
  87727471.085 9                                
  22914351.762 5  22914359.492 8                                 122619311.953 5
  95370606.478 8                                
  20507572.268 7  20507575.001 9                                 109470809.867 7
  85143914.667 9                                
  21638683.113 6                                                 115752370.484 6
                                                
 23  9 21 18 40 15.0000000  0 22E03E05E08E13E15E34G02G10G18G21G23G24
                                G32R06R07R08R09R15R16R21R22R23
  23267276.567 7                                                 122270367.150 7
                                                
  26078676.254 3                                                 137044360.934 3
                                                
  24812283.036 6                                                 130389427.001 6
                                                
  24801597.697 6                                                 130333279.192 6
                                                
  24253395.724 7                                                 127452454.522 7
                                                
  27422375.000 4                                                 144105534.293 4
                                                
  24365430.091 5                                                 128041173.882 5
  99772390.91746                                  24365436.60646
  20263468.804 8  20263476.079 9  20263471.594 9                 106485200.107 8
  82975555.056 9  79518314.110 9                
  24399745.132 2  24399756.991 8  24399759.614 8                 128221464.838 2
  99912919.510 8  95749877.266 8                
  23514537.202 6                                                 123569727.596 6
  96288131.73146                                  23514544.49746
  21155996.921 6  21156004.948 9  21156003.035 9                 111175473.344 6
  86630315.314 9  83020600.630 9                
  22066769.075 5  22066780.393 9  22066775.938 9                 115961617.135 5
  90359782.750 9  86594643.594 9                
  21401597.657 7  21401606.361 9  21401601.476 9                 112466105.342 7
  87636009.354 9  83984477.993 9                
  20334071.460 2                                                 108506497.953 2
                                                
  19784649.924 8  19784653.436 9                                 105908781.466 8
  82373509.531 9                                
  22840341.992 6  22840348.245 9                                 122309009.909 6
  95129261.018 9                                
  22454119.044 6  22454127.732 9                                 119903769.990 6
  93258520.545 9                                
  23051795.187 5  23051803.661 8                                 123181801.368 5
  95808098.178 8                                
  21110931.072 7  21110936.695 9                                 112770808.944 7
  87710819.511 9                                
  22925678.791 5  22925686.607 8                                 122679924.963 5
  95417749.768 8                                
  20512054.726 7  20512057.786 9                                 109494739.371 7
  85162526.496 9                                
  21631509.213 6                                                 115713994.499 6
                                                
 23  9 21 18 40 30.0000000  0 22E03E05E08E13E15E34G02G10G18G21G23G24
                                G32R06R07R08R09R15R16R21R22R23
  23267251.598 7                                                 122270236.022 7
                                                
  26084016.881 2                                                 137072425.831 2
                                                
  24805809.432 7                                                 130355408.805 7
                                                
  24797119.043 6                                                 130309743.502 6
                                                
  24257424.082 7                                                 127473623.849 7
                                                
  27430520.446 4                                                 144148338.695 4
                                                
  24356734.165 5                                                 127995474.099 5
  99736780.76446                                  24356741.01746
  20260982.399 8  20260989.984 9  20260985.290 9                 106472134.947 8
  82965374.399 9  79508557.660 9                
  24409688.156 1  24409700.893 8  24409703.351 8                 128273716.440 1
  99953634.896 8  95788896.111 8                
  23507874.085 6                                                 123534712.767 6
  96260847.45347                                  23507880.90647
  21160516.944 6  21160524.684 9  21160523.192 9                 111199226.100 6
  86648823.932 9  83038338.054 9                
  22072545.494 5  22072556.808 9  22072551.905 9                 115991970.616 5
  90383434.765 9  86617310.100 9                
  21395192.539 7  21395201.558 9  21395196.622 9                 112432447.285 7
  87609782.310 9  83959343.755 9                
  20338153.791 3                                                 108528280.972 3
                                                
  19780245.140 8  19780248.731 9                                 105885202.858 8
  82355170.646 9                                
  22830466.218 6  22830472.104 8                                 122256124.331 6
  95088127.890 8                                
  22441679.200 6  22441686.269 9                                 119837337.494 6
  93206850.979 9                                
  23057908.133 6  23057915.936 8                                 123214463.009 6
  95833501.580 8                                
  21106950.018 7  21106955.020 9                                 112749542.329 7
  87694278.824 9                                
  22937002.610 5  22937010.478 8                                 122740516.578 5
  95464876.403 8                                
  20516560.792 7  20516564.214 9                                 109518793.598 7
  85181235.288 9                                
  21624359.186 6                                                 115675746.172 6
                                                
 23  9 21 18 40 45.0000000  0 22E03E05E08E13E15E34G02G10G18G21G23G24
                                G32R06R07R08R09R15R16R21R22R23
  23267227.005 7                                                 122270105.676 7
                                                
  26089349.153 2                                                 137100449.446 2
                                                
  24799333.874 7                                                 130321380.793 7
                                                
  24792649.043 6                                                 130286254.766 6
                                                
  24261459.776 7                                                 127494829.963 7
                                                
  27438657.461 4                                                 144191099.124 4
                                                
  24348041.938 5                                                 127949798.931 5
  99701189.78446                                  24348049.84446
  20258504.520 8  20258512.023 9  20258507.147 9                 106459112.867 8
  82955227.337 9  79498833.382 9                
  24419624.226 1  24419635.764 7  24419639.205 8                 128325928.992 1
  99994319.892 7  95827885.832 8                
  23501218.989 5                                                 123499740.822 5
  96233596.62047                                  23501225.63047
  21165043.028 6  21165050.918 9  21165049.238 9                 111223012.391 6
  86667358.679 9  83056100.518 9                
  22078334.125 4  22078345.348 9  22078340.430 9                 116022389.092 4
  90407137.454 9  86640025.176 9                
  21388791.776 7  21388800.609 9  21388795.416 9                 112398809.902 7
  87583571.365 9  83934224.938 9                
  20342237.334 2                                                 108550076.207 2
                                                
  19775845.601 8  19775849.289 9                                 105861650.819 8
  82336852.407 9                                
  22820584.708 6  22820590.472 9                                 122203210.132 6
  95046972.443 9                                
  22429239.638 7  22429246.945 9                                 119770912.098 7
  93155186.894 9                                
  23064037.473 6  23064046.088 8                                 123247218.515 6
  95858978.020 8                                
  21102994.902 7  21103000.534 9                                 112728418.354 7
  87677849.092 9                                
  22948321.523 5  22948329.255 8                                 122801086.367 5
  95511986.097 8                                
  20521090.432 7  20521093.589 9                                 109542972.041 7
  85200040.744 9                                
  21617232.529 6                                                 115637625.621 6
                                                
 23  9 21 18 41  0.0000000  0 22E03E05E08E13E15E34G02G10G18G21G23G24
                                G32R06R07R08R09R15R16R21R22R23
  23267203.344 7                                                 122269980.636 7
                                                
  26094674.132 2                                                 137128436.261 2
                                                
  24792857.585 7                                                 130287347.542 7
                                                
  24788189.528 6                                                 130262817.722 6
                                                
  24265502.889 7                                                 127516077.323 7
                                                
  27446786.545 4                                                 144233819.961 4
                                                
  24339355.777 5                                                 127904153.175 5
  99665621.73246                                  24339363.02846
  20256035.602 8  20256043.411 9  20256038.215 9                 106446138.740 8
  82945117.633 9  79489144.919 9                
  24429553.826 1  24429563.613 7  24429568.403 8                 128378106.807 1
 100034977.696 7  95866849.583 8                
  23494573.345 6                                                 123464816.574 6
  96206382.97147                                  23494580.01347
  21169576.948 6  21169584.654 9  21169583.297 9                 111246836.701 6
  86685923.026 9  83073891.361 9                
  22084135.808 4  22084147.055 9  22084142.203 9                 116052876.813 4
  90430894.090 9  86662791.966 9                
  21382395.584 7  21382404.598 9  21382399.261 9                 112365198.052 7
  87557380.322 9  83909125.203 9                
  20346325.737 3                                                 108571888.335 3
                                                
  19771451.469 8  19771455.185 9                                 105838129.857 8
  82318558.315 9                                
  22810699.016 6  22810704.375 8                                 122150272.284 6
  95005798.631 8                                
  22416802.493 6  22416809.570 9                                 119704499.021 6
  93103532.426 9                                
  23070186.366 5  23070194.713 8                                 123280072.117 5
  95884530.843 8                                
  21099068.427 7  21099074.017 9                                 112707442.035 7
  87661534.194 9                                
  22959637.567 4  22959644.640 9                                 122861638.545 4
  95559082.095 9                                
  20525643.990 7  20525647.184 9                                 109567279.199 7
  85218946.305 9                                
  21610131.136 6                                                 115599637.707 6
                                                
 23  9 21 18 41 15.0000000  0 22E03E05E08E13E15E34G02G10G18G21G23G24
                                G32R06R07R08R09R15R16R21R22R23
  23267180.473 7                                                 122269861.230 7
                                                
  26099992.451 3                                                 137156386.679 3
                                                
  24786380.375 7                                                 130253309.487 7
                                                
  24783739.542 6                                                 130239432.928 6
                                                
  24269553.946 7                                                 127537366.183 7
                                                
  27454908.589 5                                                 144276501.428 5
                                                
  24330675.419 5                                                 127858537.502 5
  99630077.07846                                  24330681.52746
  20253576.062 8  20253583.802 9  20253578.694 9                 106433213.196 8
  82935045.785 9  79479492.709 9                
  24439476.804 1  24439486.056 7  24439490.882 8                 128430249.905 1
 100075608.53917  95905787.432 8                
  23487936.394 5                                                 123429940.683 5
  96179206.96447                                  23487943.30047
  21174118.015 6  21174125.599 9  21174124.703 9                 111270699.390 6
  86704517.311 9  83091710.882 9                
  22089950.641 4  22089961.551 9  22089957.062 9                 116083433.924 4
  90454704.789 9  86685610.540 9                
  21376004.331 7  21376013.201 9  21376008.106 9                 112331612.123 7
  87531209.484 9  83884044.818 9                
  20350416.504 3                                                 108593717.614 3
                                                
  19767063.400 8  19767067.287 9                                 105814640.476 8
  82300288.790 9                                
  22800809.019 5  22800814.353 8                                 122097311.338 5
  94964606.845 8                                
  22404367.513 6  22404375.330 9                                 119638099.051 6
  93051888.124 9                                
  23076353.018 5  23076361.204 9                                 123313024.043 5
  95910160.098 9                                
  21095169.168 7  21095174.737 9                                 112686613.813 7
  87645334.477 9                                
  22970949.856 5  22970957.580 8                                 122922172.890 5
  95606164.244 8                                
  20530221.808 8  20530225.312 9                                 109591714.902 8
  85237951.778 9                                
  21603054.776 7                                                 115561783.618 7
                                                
 23  9 21 18 41 30.0000000  0 22E03E05E08E13E15E34G02G10G18G21G23G24
                                G32R06R07R08R09R15R16R21R22R23
  23267158.698 7                                                 122269746.924 7
                                                
  26105305.284 3                                                 137184300.101 3
                                                
  24779901.854 7                                                 130219266.192 7
                                                
  24779299.219 6                                                 130216100.021 6
                                                
  24273613.022 7                                                 127558695.946 7
                                                
  27463023.281 4                                                 144319142.819 4
                                                
  24322000.493 5                                                 127812951.773 5
  99594555.74246                                  24322006.09746
  20251125.529 8  20251133.055 9  20251128.043 9                 106420335.844 8
  82925011.474 9  79469876.502 9                
  24449390.736 1  24449402.906 7  24449406.701 8                 128482357.494 1
 100116211.681 7  95944698.775 8                
  23481309.160 5                                                 123395112.691 5
  96152068.28946                                  23481315.56346
  21178665.940 6  21178673.923 9  21178672.625 9                 111294599.964 6
  86723141.106 9  83109558.670 9                
  22095778.430 5  22095789.216 9  22095784.797 9                 116114059.573 5
  90478568.871 9  86708480.280 9                
  21369617.975 7  21369627.167 9  21369622.137 9                 112298051.637 7
  87505058.494 9  83858983.433 9                
  20354510.790 2                                                 108615563.508 2
                                                
  19762681.027 8  19762684.887 9                                 105791182.121 8
  82282043.426 9                                
  22790914.947 6  22790920.833 8                                 122044326.769 6
  94923396.713 8                                
  22391935.463 6  22391942.628 9                                 119571712.306 6
  93000254.105 9                                
  23082537.048 4  23082546.318 9                                 123346073.175 4
  95935864.937 9                                
  21091297.663 7  21091303.644 9                                 112665933.431 7
  87629249.758 9                                
  22982258.911 4  22982266.359 8                                 122982688.339 4
  95653231.706 8                                
  20534823.510 8  20534826.334 9                                 109616278.309 8
  85257056.613 9                                
  21596003.430 6                                                 115524062.962 6
                                                
 23  9 21 18 41 45.0000000  0 22E03E05E08E13E15E34G02G10G18G21G23G24
                                G32R06R07R08R09R15R16R21R22R23
  23267138.491 7                                                 122269639.912 7
                                                
  26110611.092 4                                                 137212178.692 4
                                                
  24773423.216 6                                                 130185219.900 6
                                                
  24774869.492 6                                                 130192821.445 6
                                                
  24277680.070 7                                                 127580068.719 7
                                                
  27471130.680 4                                                 144361746.220 4
                                                
  24313332.187 5                                                 127767398.534 5
  99559059.73746                                  24313336.95346
  20248684.613 8  20248692.529 9  20248687.182 9                 106407509.030 8
  82915016.554 9  79460298.039 9                
  24459300.502 1  24459312.652 7  24459315.879 8                 128534431.568 1
 100156788.706 7  95983585.100 8                
  23474691.490 5                                                 123360335.201 5
  96124968.99146                                  23474697.53746
  21183221.776 6  21183229.547 9  21183228.005 9                 111318540.593 6
  86741796.104 9  83127436.372 9                
  22101619.770 4  22101630.564 9  22101626.649 9                 116144755.694 4
  90502487.927 9  86731402.697 9                
  21363236.941 7  21363245.997 9  21363240.783 9                 112264518.912 7
  87478929.119 9  83833942.794 9                
  20358607.874 2                                                 108637428.213 2
                                                
  19758305.083 8  19758309.042 9                                 105767757.185 8
  82263824.050 9                                
  22781016.250 6  22781022.321 8                                 121991320.537 6
  94882169.695 8                                
  22379506.503 6  22379513.822 9                                 119505341.597 6
  92948632.565 9                                
  23088741.291 6  23088748.295 8                                 123379221.462 6
  95961646.909 8                                
  21087454.610 7  21087460.386 9                                 112645403.193 7
  87613281.819 9                                
  22993564.324 4  22993572.348 8                                 123043186.767 4
  95700285.868 8                                
  20539448.800 7  20539452.183 9                                 109640971.423 7
  85276262.357 9                                
  21588977.476 7                                                 115486478.512 7
                                                
 23  9 21 18 42  0.0000000  0 22E03E05E08E13E15E34G02G10G18G21G23G24
                                G32R06R07R08R09R15R16R21R22R23
  23267119.558 7                                                 122269541.200 7
                                                
  26115909.594 4                                                 137240023.577 4
                                                
  24766944.043 7                                                 130151171.778 7
                                                
  24770450.370 6                                                 130169598.430 6
                                                
  24281755.690 7                                                 127601485.505 7
                                                
  27479230.924 4                                                 144404312.508 4
                                                
  24304669.926 5                                                 127721879.070 5
  99523590.11346                                  24304675.76846
  20246253.302 8  20246261.395 9  20246256.172 9                 106394733.885 8
  82905061.882 9  79450758.141 9                
  24469201.458 1  24469215.958 7  24469218.805 8                 128586472.938 1
 100197340.193 7  96022446.952 8                
  23468083.154 5                                                 123325609.560 5
  96097910.08346                                  23468089.20946
  21187785.511 6  21187793.029 9  21187791.849 9                 111342522.319 6
  86760483.118 9  83145344.771 9                
  22107474.370 4  22107485.427 9  22107480.767 9                 116175523.097 4
  90526462.484 9  86754378.303 9                
  21356861.230 7  21356870.427 9  21356865.256 9                 112231015.102 7
  87452822.259 9  83808923.734 9                
  20362709.117 2                                                 108659312.730 2
                                                
  19753935.699 8  19753939.614 9                                 105744366.822 8
  82245631.556 9                                
  22771113.706 5  22771118.995 8                                 121938294.368 5
  94840927.150 8                                
  22367080.697 6  22367087.961 9                                 119438988.697 6
  92897024.915 9                                
  23094963.406 6  23094970.743 8                                 123412469.644 6
  95987506.590 8                                
  21083639.671 7  21083645.096 9                                 112625024.599 7
  87597431.838 9                                
  23004866.810 3  23004874.009 8                                 123103668.693 3
  95747327.183 8                                
  20544099.614 7  20544102.640 9                                 109665794.988 7
  85295569.550 9                                
  21581977.259 6                                                 115449031.775 6
                                                
 23  9 21 18 42 15.0000000  0 22E03E05E08E13E15E34G02G10G18G21G23G24
                                G32R06R07R08R09R15R16R21R22R23
  23267102.936 7                                                 122269452.662 7
                                                
  26121201.413 4                                                 137267836.546 4
                                                
  24760464.931 7                                                 130117123.692 7
                                                
  24766042.554 6                                                 130146433.028 6
                                                
  24285840.111 7                                                 127622948.012 7
                                                
  27487324.374 4                                                 144446843.422 4
                                                
  24296014.331 5                                                 127676395.708 5
  99488148.59146                                  24296020.95446
  20243832.912 8  20243840.475 9  20243835.345 9                 106382012.474 8
  82895149.097 9  79441258.387 9                
  24479102.327 1  24479115.570 7  24479116.549 8                 128638483.184 1
 100237867.435 7  96061285.559 8                
  23461484.969 5                                                 123290937.711 5
  96070893.06247                                  23461492.78347
  21192357.213 6  21192364.709 9  21192364.139 9                 111366546.981 6
  86779203.607 9  83163285.243 9                
  22113343.265 5  22113353.980 9  22113349.483 9                 116206363.324 5
  90550493.834 9  86777408.312 9                
  21350491.687 7  21350500.668 9  21350495.529 9                 112197542.189 7
  87426739.478 9  83783927.740 9                
  20366814.316 3                                                 108681218.899 3
                                                
  19749572.561 8  19749577.143 9                                 105721012.814 8
  82227467.344 9                                
  22761208.348 5  22761213.449 8                                 121885250.285 5
  94799670.735 8                                
  22354658.172 6  22354665.732 9                                 119372656.192 6
  92845433.096 9                                
  23101202.951 5  23101211.300 8                                 123445819.183 5
  96013445.045 8                                
  21079853.718 7  21079858.463 9                                 112604799.924 7
  87581701.535 9                                
  23016166.878 1  23016174.513 8                                 123164135.673 1
  95794356.922 8                                
  20548774.221 7  20548777.538 9                                 109690750.525 7
  85314979.389 9                                
  21575003.127 7                                                 115411725.079 7
                                                
 23  9 21 18 42 30.0000000  0 22E03E05E08E13E15E34G02G10G18G21G23G24
                                G32R06R07R08R09R15R16R21R22R23
  23267090.040 7                                                 122269385.755 7
                                                
  26126489.762 5                                                 137295629.060 5
                                                
  24753987.805 7                                                 130083087.233 7
                                                
  24761646.963 6                                                 130123336.954 6
                                                
  24289934.841 7                                                 127644467.687 7
                                                
  27495413.544 3                                                 144489350.247 3
                                                
  24287368.483 5                                                 127630960.234 5
  99452744.36946                                  24287374.84246
  20241424.573 8  20241432.268 9  20241427.067 9                 106369356.689 8
  82885287.446 9  79431807.636 9                
  24488995.285 1  24489008.159 7  24489010.110 8                
 100278379.196 7  96100109.281 8                
  23454899.767 5                                                 123256331.543 5
  96043927.26347                                  23454907.65547
  21196939.216 6  21196946.448 9  21196946.480 9                 111390626.063 6
  86797966.504 9  83181266.320 9                
  22119228.025 5  22119238.365 9  22119234.190 9                 116237287.576 5
  90574590.624 9  86800501.076 9                
  21344129.913 7  21344139.336 9  21344134.072 9                 112164111.706 7
  87400689.770 9  83758963.433 9                
  20370926.229 3                                                 108703158.352 3
                                                
  19745219.070 8  19745223.416 9                                 105697707.402 8
  82209340.902 9                                
  22751301.874 5  22751306.966 8                                 121832199.894 5
  94758409.380 8                                
  22342242.727 6  22342250.535 9                                 119306356.368 6
  92793866.684 9                                
  23107465.215 5  23107473.855 8                                 123479281.613 5
  96039471.354 8                                
  21076098.505 7  21076103.602 9                                 112584741.046 7
  87566100.217 9                                
  23027465.532 2  23027473.508 8                                 123224598.853 2
  95841383.827 8                                
  20553476.112 7  20553479.567 9                                 109715849.457 7
  85334500.770 9                                
  21568057.378 6                                                 115374570.511 6
                                                
 23  9 21 18 42 45.0000000  0 21E03E05E08E13E15E34G02G10G21G23G24G32
                                R06R07R08R09R15R16R21R22R23
  23267081.997 7                                                 122269342.624 7
                                                
  26131774.862 5                                                 137323403.270 5
                                                
  24747513.813 7                                                 130049064.658 7
                                                
  24757265.579 6                                                 130100312.543 6
                                                
  24294041.201 7                                                 127666046.591 7
                                                
  27503497.748 2                                                 144531835.034 2
                                                
  24278731.716 6                                                 127585575.158 6
  99417379.39646                                  24278737.96446
  20239029.135 8  20239036.739 9  20239031.774 9                 106356768.905 8
  82875478.763 9  79422407.652 9                
  23448327.409 5                                                 123221793.649 5
  96017014.65946                                  23448334.92446
  21201532.165 6  21201539.590 9  21201538.744 9                 111414761.724 6
  86816773.501 9  83199289.650 9                
  22125128.906 3  22125139.757 9  22125135.905 9                 116268297.817 3
  90598754.396 9  86823658.005 9                
  21337776.935 7  21337786.057 9  21337780.802 9                 112130725.965 7
  87374674.922 9  83734032.541 9                
  20375043.875 3                                                 108725133.275 3
                                                
  19740875.061 8  19740878.794 9                                 105674452.496 8
  82191253.769 9                                
  22741394.542 5  22741399.102 9                                 121779145.452 5
  94717144.908 9                                
  22329833.584 6  22329840.311 9                                 119240091.940 6
  92742327.804 9                                
  23113748.999 5  23113757.893 9                                 123512858.582 5
  96065586.724 9                                
  21072375.175 7  21072379.979 9                                 112564850.515 7
  87550629.820 9                                
  23038764.982 1  23038772.414 8                                 123285060.104 1
  95888408.964 8                                
  20558205.544 7  20558209.058 9                                 109741093.653 7
  85354135.094 9                                
  21561141.058 7                                                 115337570.479 7
                                                
 23  9 21 18 43  0.0000000  0 21E03E05E08E13E15E34G02G10G21G23G24G32
                                R06R07R08R09R15R16R21R22R23
  23267076.590 7                                                 122269314.992 7
                                                
  26137055.259 4                                                 137351150.831 4
                                                
  24741040.506 7                                                 130015047.771 7
                                                
  24752896.382 6                                                 130077351.769 6
                                                
  24298157.454 7                                                 127687676.374 7
                                                
  27511576.855 1                                                 144574289.431 1
                                                
  24270103.719 6                                                 127540232.551 6
  99382047.51847                                  24270110.76947
  20236645.186 8  20236652.840 9  20236647.661 9                 106344241.046 8
  82865716.808 9  79413052.433 9                
  23441766.578 5                                                 123187315.964 5
  95990148.95546                                  23441773.91946
  21206134.158 6  21206141.673 9  21206140.592 9                 111438945.688 6
  86835618.101 9  83217349.086 9                
  22131044.853 4  22131055.675 9  22131051.979 9                 116299385.467 4
  90622978.484 9  86846872.783 9                
  21331430.461 7  21331439.842 9  21331433.859 9                 112097376.783 7
  87348688.582 9  83709128.964 9                
  20379167.178 2                                                 108747135.303 2
                                                
  19736538.747 8  19736542.792 9                                 105651240.034 8
  82173199.633 9                                
  22731483.758 5  22731488.912 9                                 121726078.923 5
  94675871.012 9                                
  22317429.479 6  22317436.277 9                                 119173855.089 6
  92690810.353 9                                
  23120052.332 4  23120061.592 9                                 123546541.220 4
  96091784.294 9                                
  21068681.650 7  21068686.727 9                                 112545120.075 7
  87535283.953 9                                
  23050060.571 1  23050068.188 8                                 123345510.30511
  95935425.747 8                                
  20562959.564 7  20562963.384 9                                 109766474.395 7
  85373875.648 9                                
  21554251.126 6                                                 115300717.167 6
                                                
 23  9 21 18 43 15.0000000  0 22E03E05E08E13E15E34G02G10G18G21G23G24
                                G32R06R07R08R09R15R16R21R22R23
  23267074.527 7                                                 122269302.427 7
                                                
  26142330.423 5                                                 137378871.432 5
                                                
  24734568.282 7                                                 129981036.213 7
                                                
  24748539.022 6                                                 130054454.384 6
                                                
  24302282.885 7                                                 127709356.561 7
                                                
  27519649.707 1                                                 144616712.840 1
                                                
  24261483.608 6                                                 127494932.328 6
  99346748.64446                                  24261490.47146
  20234272.454 8  20234279.982 9  20234275.078 9                 106331772.665 8
  82856001.181 9  79403741.633 9                
                  24518668.204 7  24518664.939 8                
 100399809.856 7  96216480.156 8                
  23435216.586 5                                                 123152898.150 5
  95963329.91547                                  23435223.92847
  21210745.607 6  21210752.918 9  21210752.064 9                 111463177.536 6
  86854500.028 9  83235444.270 9                
  22136974.744 5  22136985.795 9  22136982.310 9                 116330549.801 5
  90647262.358 9  86870144.830 9                
  21325091.353 7  21325100.704 9  21325095.035 9                 112064063.887 7
  87322730.486 9  83684252.462 9                
  20383295.036 3                                                 108769164.057 3
                                                
  19732210.343 8  19732214.245 9                                 105628069.580 8
  82155178.190 9                                
  22721571.967 5  22721578.025 8                                 121672999.854 5
  94634587.310 8                                
  22305030.153 6  22305037.142 9                                 119107646.178 6
  92639314.708 9                                
  23126376.051 6  23126383.770 9                                 123580328.961 6
  96118063.574 9                                
  21065017.723 7  21065022.637 9                                 112525549.413 7
  87520062.332 9                                
  23061355.309 1  23061364.368 8                                 123405948.559 1
  95982433.163 8                                
  20567740.390 7  20567743.912 9                                 109791990.767 7
  85393721.674 9                                
  21547389.600 6                                                 115264010.535 6
                                                
 23  9 21 18 43 30.0000000  0 22E03E05E08E13E15E34G02G10G18G21G23G24
                                G32R06R07R08R09R15R16R21R22R23
  23267075.906 7                                                 122269310.866 7
                                                
  26147601.849 6                                                 137406570.910 6
                                                
  24728098.231 7                                                 129947035.988 7
                                                
  24744195.105 6                                                 130031626.533 6
                                                
  24306419.121 7                                                 127731092.958 7
                                                
  27527718.109 1                                                 144659111.021 1
                                                
  24252872.174 5                                                 127449680.865 5
  99311487.78247                                  24252879.24447
  20231912.547 7  20231919.897 9  20231915.066 9                 106319370.119 7
  82846336.838 9  79394479.978 9                
                  24528545.120 7  24528540.694 8                
 100440248.933 7  96255234.219 8                
  23428679.856 5                                                 123118546.499 5
  95936562.43446                                  23428687.54346
  21215366.993 6  21215374.441 9  21215373.704 9                 111487463.206 6
  86873423.879 9  83253579.626 9                
  22142921.323 5  22142932.355 9  22142928.331 9                 116361796.490 5
  90671610.417 9  86893478.387 9                
  21318760.144 7  21318769.464 9  21318764.083 9                 112030793.241 7
  87296805.344 9  83659407.527 9                
  20387429.846 3                                                 108791225.272 3
                                                
  19727890.786 8  19727895.182 9                                 105604947.199 8
  82137194.123 9                                
  22711658.793 6  22711664.001 8                                 121619914.711 6
  94593299.004 8                                
  22292637.817 6  22292645.415 9                                 119041471.624 6
  92587845.711 9                                
  23132719.543 6  23132726.584 8                                 123614227.489 6
  96144429.105 8                                
  21061385.683 7  21061389.748 9                                 112506144.912 7
  87504969.954 9                                
  23072648.084 1  23072657.914 8                                 123466380.608 1
  96029435.761 8                                
  20572546.606 7  20572549.882 9                                 109817648.633 7
  85413677.744 9                                
  21540555.801 6                                                 115227457.077 6
                                                
 23  9 21 18 43 45.0000000  0 22E03E05E08E13E15E34G02G10G18G21G23G24
                                G32R06R07R08R09R15R16R21R22R23
  23267082.831 7                                                 122269348.075 7
                                                
  26152870.313 6                                                 137434257.081 6
                                                
  24721631.828 7                                                 129913054.976 7
                                                
  24739865.588 6                                                 130008876.207 6
                                                
  24310567.840 7                                                 127752893.307 7
                                                
  27535783.941 1                                                 144701491.707 1
                                                
  24244272.041 6                                                 127404486.250 6
  99276271.25147                                  24244279.51547
  20229566.456 8  20229573.900 9  20229568.856 9                 106307041.288 8
  82836729.953 9  79385273.376 9                
                  24538417.400 7  24538413.509 8                
 100480677.116 7  96293977.849 8                
  23422157.269 5                                                 123084269.127 5
  95909852.82046                                  23422164.65046
  21220000.140 6  21220007.513 9  21220006.970 9                 111511810.478 6
  86892395.756 9  83271761.004 9                
  22148884.366 5  22148895.342 9  22148892.297 9                 116393133.107 5
  90696028.523 9  86916879.083 9                
  21312438.503 7  21312447.803 9  21312442.096 9                 111997572.797 7
  87270919.325 9  83634600.069 9                
  20391571.799 3                                                 108813326.946 3
                                                
  19723582.031 8  19723586.280 9                                 105581881.175 8
  82119253.887 9                                
  22701745.300 5  22701750.340 8                                 121566830.958 5
  94552011.723 8                                
  22280253.999 6  22280259.967 9                                 118975340.019 6
  92536410.124 9                                
  23139084.669 5  23139093.624 8                                 123648244.135 5
  96170886.429 8                                
  21057785.318 7  21057790.617 9                                 112486914.703 7
  87490013.156 9                                
  23083941.148 1  23083950.348 8                                 123526813.874 1
  96076439.227 8                                
  20577380.949 7  20577384.704 9                                 109843455.519 7
  85433749.745 9                                
  21533752.920 6                                                 115191065.126 6
                                                
 23  9 21 18 44  0.0000000  0 23E03E05E08E13E15E34G02G10G18G21G23G24
                                G28G32R06R07R08R09R15R16R21R22R23
  23267094.404 7                                                 122269408.566 7
                                                
  26158135.474 6                                                 137461924.372 6
                                                
  24715167.987 7                                                 129879087.755 7
                                                
  24735550.663 6                                                 129986198.084 6
                                                
  24314727.442 7                                                 127774751.998 7
                                                
  27543844.996 1                                                 144743849.188 1
                                                
  24235681.431 6                                                 127359343.149 6
  99241094.85847                                  24235689.54247
  20227233.364 8  20227240.696 9  20227235.686 9                 106294780.846 8
  82827176.354 9  79376117.854 9                
                  24548286.158 7  24548282.507 8                
 100521089.884 7  96332706.746 8                
  23415647.253 5                                                 123050060.691 5
  95883196.94446                                  23415655.20146
  21224643.998 6  21224651.441 9  21224650.484 9                 111536213.830 6
  86911411.324 9  83289984.256 9                
  22154863.863 5  22154874.781 9  22154872.150 9                 116424553.813 5
  90720512.142 9  86940342.580 9                
  24158226.340 1  24158238.828 8  24158239.131 8                 126952258.14511
  98923950.39518  94802110.20218                
  21306125.330 7  21306134.581 9  21306128.702 9                 111964397.133 7
  87245068.153 9  83609826.028 9                
  20395720.181 3                                                 108835463.592 3
                                                
  19719282.535 8  19719286.512 9                                 105558865.760 8
  82101353.018 9                                
  22691831.799 5  22691838.275 9                                 121513743.482 5
  94510721.520 9                                
  22267876.685 6  22267882.605 9                                 118909246.687 6
  92485004.256 9                                
  23145471.844 4  23145480.720 8                                 123682373.090 4
  96197431.040 8                                
  21054216.764 6  21054222.606 9                                 112467853.713 6
  87475187.958 9                                
  23095234.112 2  23095245.460 8                                 123587242.253 2
  96123438.947 8                                
  20582242.412 7  20582246.244 9                                 109869405.462 7
  85453932.998 9                                
  21526978.448 6                                                 115154829.399 6
                                                
 23  9 21 18 44 15.0000000  0 23E03E05E08E13E15E34G02G10G18G21G23G24
                                G28G32R06R07R08R09R15R16R21R22R23
  23267109.181 7                                                 122269485.847 7
                                                
  26163395.495 6                                                 137489566.380 6
                                                
  24708706.033 7                                                 129845127.946 7
                                                
  24731247.807 6                                                 129963585.971 6
                                                
  24318896.771 7                                                 127796662.504 7
                                                
  27551898.357 1                                                 144786176.901 1
                                                
  24227099.561 6                                                 127314245.528 6
  99205953.92647                                  24227107.57247
  20224911.799 8  20224919.556 9  20224914.632 9                 106282582.623 8
  82817671.258 9  79367008.801 9                
                  24558149.160 7  24558146.472 8                
 100561482.026 7  96371415.859 8                
  23409149.673 6                                                 123015915.022 6
  95856589.95947                                  23409157.30847
  21229297.250 6  21229304.706 9  21229304.237 9                 111560666.834 6
  86930465.567 9  83308244.559 9                
  22160857.540 5  22160868.350 8  22160865.994 9                 116456051.904 5
  90745056.151 8  86963863.864 9                
  24145798.237 1  24145810.378 8  24145810.787 8                 126886947.86011
  98873059.379 8  94753339.689 8                
  21299819.529 7  21299828.810 9  21299822.634 9                 111931259.928 7
  87219246.977 9  83585080.738 9                
  20399873.656 3                                                 108857628.497 3
                                                
  19714991.651 8  19714995.377 9                                 105535894.736 8
  82083486.659 9                                
  22681915.918 5  22681921.941 9                                 121460646.063 5
  94469423.527 9                                
  22255505.287 6  22255511.598 9                                 118843185.113 6
  92433623.165 9                                
  23151877.752 5  23151888.487 8                                 123716607.410 5
  96224057.666 8                                
  21050679.466 7  21050684.440 9                                 112448955.347 7
  87460489.227 9                                
  23106523.350 2  23106535.259 8                                 123647658.764 2
  96170429.401 8                                
  20587129.538 7  20587132.345 9                                 109895491.728 7
  85474222.279 9                                
  21520232.752 6                                                 115118743.766 6
                                                
 23  9 21 18 44 30.0000000  0 23E03E05E08E13E15E34G02G10G18G21G23G24
                                G28G32R06R07R08R09R15R16R21R22R23
  23267128.051 7                                                 122269583.614 7
                                                
  26168651.274 6                                                 137517186.752 6
                                                
  24702245.919 7                                                 129811179.322 7
                                                
  24726957.876 6                                                 129941043.751 6
                                                
  24323076.535 7                                                 127818628.461 7
                                                
  27559948.611 1                                                 144828478.44111
                                                
  24218527.628 5                                                 127269197.503 5
  99170851.60647                                  24218534.67247
  20222603.205 8  20222611.146 9  20222605.893 9                 106270450.592 8
  82808217.713 9  79357949.153 9                
                  24568010.528 7  24568006.392 7                
 100601856.315 7  96410107.844 7                
  23402664.948 6                                                 122981836.331 6
  95830035.14446                                  23402672.04646
  21233960.848 6  21233967.942 9  21233967.644 9                 111585173.139 6
  86949561.379 9  83326544.677 9                
  22166866.969 4  22166877.588 8  22166874.670 9                 116487630.808 4
  90769663.073 8  86987445.470 9                
  24133367.219 1  24133379.340 8  24133379.909 8                 126821625.004 1
  98822158.497 8  94704559.726 8                
  21293521.560 7  21293530.999 9  21293524.945 9                 111898164.945 7
  87193458.688 9  83560366.979 9                
  20404033.659 3                                                 108879825.358 3
                                                
  19710709.213 8  19710712.964 9                                 105512971.680 8
  82065657.622 9                                
  22671999.544 5  22672004.088 9                                 121407542.278 5
  94428120.705 9                                
  22243140.567 6  22243147.089 9                                 118777160.155 6
  92382270.519 9                                
  23158304.472 3  23158313.399 8                                 123750950.479 3
  96250768.962 8                                
  21047172.775 7  21047177.610 9                                 112430223.694 7
  87445920.134 9                                
  23117812.934 1  23117824.168 7                                 123708066.676 1
  96217413.156 7                                
  20592042.333 7  20592045.851 9                                 109921717.647 7
  85494620.184 9                                
  21513516.052 6                                                 115082812.448 6
                                                
 23  9 21 18 44 45.0000000  0 23E03E05E08E13E15E34G02G10G18G21G23G24
                                G28G32R06R07R08R09R15R16R21R22R23
  23267151.952 7                                                 122269709.217 7
                                                
  26173904.628 6                                                 137544792.862 6
                                                
  24695788.870 7                                                 129777249.313 7
                                                
  24722682.754 6                                                 129918578.941 6
                                                
  24327268.752 7                                                 127840657.110 7
                                                
  27567996.085 1                                                
                                                
  24209966.004 5                                                 127224206.807 5
  99135793.98047                                  24209972.61747
  20220308.685 8  20220316.302 9  20220311.425 9                 106258392.315 8
  82798821.637 9  79348944.582 9                
                  24577872.534 7  24577865.526 7                
 100642218.14617  96448787.884 7                
  23396193.918 6                                                 122947832.027 6
  95803538.29447                                  23396201.12747
  21238635.210 7  21238643.218 9  21238642.473 9                 111609740.111 7
  86968704.446 9  83344890.109 9                
  22172892.739 4  22172903.558 8  22172900.718 9                 116519297.632 4
  90794338.506 8  87011092.762 9                
  24120935.103 1  24120947.820 8  24120947.938 8                 126756297.164 1
  98771253.821 8  94655776.089 8                
  21287233.591 7  21287242.618 9  21287236.801 9                 111865119.678 7
  87167709.140 9  83535690.338 9                
  20408200.619 2                                                 108902061.769 2
                                                
  19706437.512 8  19706440.699 9                                 105490104.260 8
  82047871.845 9                                
  22662083.059 5  22662087.472 9                                 121354440.118 5
  94386819.066 9                                
  22230784.757 6  22230791.839 9                                 118711179.860 6
  92330952.664 9                                
  23164754.056 5  23164761.031 8                                 123785409.467 5
  96277570.268 8                                
  21043697.947 7  21043703.685 9                                 112411666.377 7
  87431486.717 9                                
  23129100.720 1  23129108.103 7                                 123768472.949 1
  96264395.65317                                
  20596982.855 7  20596986.074 9                                 109948090.449 7
  85515132.320 9                                
  21506829.353 6                                                 115047043.238 6
                                                
 23  9 21 18 45  0.0000000  0 22E03E05E08E13E15G02G10G18G21G23G24G28
                                G32R06R07R08R09R15R16R21R22R23
  23267181.927 7                                                 122269867.391 7
                                                
  26179156.327 6                                                 137572389.454 6
                                                
  24689336.833 7                                                 129743342.729 7
                                                
  24718423.215 6                                                 129896196.514 6
                                                
  24331473.330 7                                                 127862753.140 7
                                                
  24201416.506 6                                                 127179278.482 6
  99100784.95947                                  24201423.20547
  20218029.032 8  20218036.532 9  20218031.526 9                 106246412.247 8
  82789486.520 9  79339998.415 9                
                  24587743.844 7  24587720.779 7                
 100682571.209 7  96487459.498 7                
  23389738.338 6                                                 122913907.236 6
  95777103.42247                                  23389745.25847
  21243322.773 6  21243330.413 9  21243330.021 9                 111634372.522 6
  86987898.463 9  83363284.379 9                
  22178936.601 2  22178947.450 8  22178943.816 8                 116551056.865 2
  90819085.924 8  87034808.982 8                
  24108502.852 1  24108516.191 8  24108516.399 8                 126690969.552 1
  98720349.308 8  94606992.671 8                
  21280955.414 7  21280964.681 9  21280958.832 9                 111832128.949 7
  87142002.068 9  83511054.421 9                
  20412375.932 2                                                 108924342.494 2
                                                
  19702177.214 8  19702180.624 9                                 105467297.465 8
  82030133.244 9                                
  22652167.716 5  22652173.000 9                                 121301344.074 5
  94345522.255 9                                
  22218437.719 6  22218444.457 9                                 118645249.454 6
  92279673.553 9                                
  23171224.514 3  23171232.956 8                                 123819988.801 3
  96304465.239 8                                
  21040257.937 7  21040263.640 9                                 112393288.500 7
  87417192.797 9                                
  23140391.080 1  23140398.549 7                                 123828882.049 1
  96311380.27817                                
  20601951.919 7  20601955.769 9                                 109974614.354 7
  85535762.019 9                                
  21500173.708 7                                                 115011441.531 7
                                                
 23  9 21 18 45 15.0000000  0 22E03E05E08E13E15G02G10G18G21G23G24G28
                                G32R06R07R08R09R15R16R21R22R23
  23267217.112 7                                                 122270051.513 7
                                                
  26184404.738 6                                                 137599969.877 6
                                                
  24682887.922 7                                                 129709453.059 7
                                                
  24714178.923 6                                                 129873890.022 6
                                                
  24335689.600 7                                                 127884909.787 7
                                                
  24192877.118 6                                                 127134406.364 6
  99065819.67647                                  24192884.32547
  20215763.004 8  20215770.489 9  20215765.596 9                 106234504.522 8
  82780207.773 9  79331106.264 9                
                  24597606.636 7  24597572.053 7                
 100722909.99817  96526117.401 7                
  23383296.511 6                                                 122880055.616 6
  95750725.56847                                  23383303.72847
  21248021.358 6  21248029.044 9  21248028.825 9                 111659063.668 6
  87007138.315 9  83381722.543 9                
  22184996.506 2  22185007.716 8  22185004.166 9                 116582901.552 2
  90843899.941 8  87058589.077 9                
  24096069.687 2  24096083.827 8  24096083.668 8                 126625635.784 2
  98669440.024 8  94558204.638 8                
  21274686.630 7  21274695.820 9  21274689.843 9                 111799186.265 7
  87116332.481 9  83486454.358 9                
  20416558.244 2                                                 108946660.657 2
                                                
  19697926.742 8  19697930.677 9                                 105444544.772 8
  82012436.744 9                                
  22642252.070 5  22642257.911 9                                 121248247.874 5
  94304225.251 9                                
  22206099.020 6  22206105.549 9                                 118579362.908 6
  92228428.537 9                                
  23177716.385 2  23177725.265 9                                 123854681.187 2
  96331448.238 9                                
  21036849.800 7  21036855.262 9                                 112375083.679 7
  87403033.495 9                                
  23151679.765 1  23151687.434 7                                 123889286.737 1
  96358361.526 7                                
  20606947.797 7  20606950.793 9                                 110001282.525 7
  85556503.886 9                                
  21493548.001 6                                                 114976000.977 6
                                                
 23  9 21 18 45 30.0000000  0 22E03E05E08E13E15G02G10G18G21G23G24G28
                                G32R06R07R08R09R15R16R21R22R23
  23267257.535 7                                                 122270264.098 7
                                                
  26189650.739 6                                                 137627536.692 6
                                                
  24676442.394 7                                                 129675582.895 7
                                                
  24709949.354 6                                                 129851662.258 6
                                                
  24339918.030 7                                                 127907129.555 7
                                                
  24184349.667 6                                                 127089593.114 6
  99030900.31147                                  24184356.41047
  20213511.086 8  20213518.635 9  20213513.881 9                 106222671.761 8
  82770987.448 9  79322270.112 9                
                  24607459.175 7  24607420.502 7                
 100763236.295 7  96564763.42117                
  23376869.092 5                                                 122846279.915 5
  95724406.87047                                  23376877.34047
  21252731.854 6  21252739.273 9  21252739.632 9                 111683816.139 6
  87026425.917 9  83400206.496 9                
  22191073.256 3  22191084.236 8  22191079.679 8                 116614833.979 3
  90868782.368 8  87082434.681 8                
  24083637.474 2  24083650.228 8  24083650.520 8                 126560298.854 2
  98618528.308 8  94509414.295 8                
  21268427.348 7  21268436.701 9  21268430.683 9                 111766294.257 7
  87090702.373 9  83461892.165 9                
  20420748.313 3                                                 108969018.959 3
                                                
  19693686.886 8  19693690.813 9                                 105421848.700 8
  81994784.245 9                                
  22632336.979 5  22632342.478 9                                 121195154.059 5
  94262930.167 9                                
  22193769.753 6  22193776.370 9                                 118513523.435 6
  92177220.192 9                                
  23184230.167 3  23184239.862 9                                 123889489.154 3
  96358521.047 9                                
  21033474.549 7  21033480.256 9                                 112357054.570 7
  87389010.902 9                                
  23162966.171 1  23162976.631 7                                 123949689.222 1
  96405341.021 7                                
  20611970.956 7  20611974.383 9                                 110028097.116 7
  85577359.649 9                                
  21486953.427 6                                                 114940724.532 6
                                                
 23  9 21 18 45 45.0000000  0 22E03E05E08E13E15G02G10G18G21G23G24G28
                                G32R06R07R08R09R15R16R21R22R23
  23267304.670 7                                                 122270511.711 7
                                                
  26194895.080 6                                                 137655096.420 6
                                                
  24670002.217 7                                                 129641738.880 7
                                                
  24705736.005 6                                                 129829519.932 6
                                                
  24344159.413 7                                                 127929418.911 7
                                                
  24175834.481 6                                                 127044845.758 6
  98996032.31447                                  24175841.71947
  20211275.221 8  20211282.511 9  20211277.886 9                 106210920.693 8
  82761830.766 9  79313494.974 9                
                  24617304.516 7  24617267.375 7                
 100803555.02917  96603402.14917                
  23370457.644 5                                                 122812586.546 5
  95698152.35747                                  23370465.82947
  21257455.143 6  21257462.228 9  21257462.444 9                 111708636.492 6
  87045766.426 9  83418741.143 9                
  22197167.075 3  22197179.149 8  22197174.218 8                 116646860.375 3
  90893738.004 8  87106350.500 8                
  24071205.550 2  24071217.755 8  24071218.319 8                 126494965.774 2
  98567619.504 8  94460626.716 8                
  21262178.833 7  21262188.312 9  21262182.381 9                 111733459.566 7
  87065116.934 9  83437372.762 9                
  20424947.219 3                                                 108991423.833 3
                                                
  19689458.942 8  19689462.507 9                                 105399216.144 8
  81977181.133 9                                
  22622423.725 6  22622429.917 9                                 121142069.322 6
  94221642.099 9                                
  22181449.862 6  22181457.044 9                                 118447738.279 6
  92126054.039 9                                
  23190767.408 4  23190776.170 8                                 123924419.145 4
  96385688.608 8                                
  21030134.085 7  21030139.451 9                                 112339208.196 7
  87375130.400 9                                
  23174255.629 1  23174265.345 8                                 124010095.415 1
  96452323.539 8                                
  20617022.740 7  20617026.325 9                                 110055064.547 7
  85598334.295 9                                
  21480391.300 6                                                 114905619.237 6
                                                
 23  9 21 18 46  0.0000000  0 21E03E05E08E13E15G02G10G21G23G24G28G32
                                R06R07R08R09R15R16R21R22R23
  23267357.208 7                                                 122270789.360 7
                                                
  26200136.770 6                                                 137682644.069 6
                                                
  24663565.890 7                                                 129607916.124 7
                                                
  24701537.437 6                                                 129807458.277 6
                                                
  24348413.212 7                                                 127951772.737 7
                                                
  24167330.860 6                                                 127000159.623 6
  98961211.95747                                  24167338.28747
  20209053.758 8  20209061.438 9  20209056.291 9                 106199246.457 8
  82752733.955 9  79304777.204 9                
  23364060.888 6                                                 122778971.405 6
  95671958.72547                                  23364068.81847
  21262190.371 6  21262197.159 9  21262197.299 9                 111733519.705 6
  87065155.915 9  83437322.743 9                
  22203278.099 2  22203290.339 8  22203285.394 8                 116678975.582 2
  90918762.755 8  87130332.617 8                
  24058772.668 2  24058784.769 8  24058785.914 8                 126429631.856 2
  98516710.073 8  94411838.522 8                
  21255940.967 7  21255950.077 9  21255944.544 9                 111700677.389 7
  87039572.375 9  83412892.585 9                
  20429153.639 3                                                 109013870.468 3
                                                
  19685242.013 8  19685245.536 9                                 105376642.090 8
  81959623.558 9                                
  22612511.132 5  22612516.857 9                                 121088989.261 5
  94180357.675 9                                
  22169140.120 6  22169146.902 9                                 118382003.191 6
  92074926.870 9                                
  23197325.577 3  23197334.436 8                                 123959464.973 3
  96412946.520 8                                
  21026826.599 7  21026831.467 9                                 112321539.741 7
  87361388.278 9                                
  23185544.540 1  23185554.203 7                                 124070500.311 1
  96499304.903 7                                
  20622102.493 7  20622106.005 9                                 110082179.320 7
  85619423.485 9                                
  21473859.534 6                                                 114870680.366 6
                                                
 23  9 21 18 46 15.0000000  0 22E03E05E08E13E15E25G02G10G21G23G24G28
                                G32R06R07R08R09R15R16R21R22R23
  23267415.223 7                                                 122271094.520 7
                                                
  26205376.155 6                                                 137710177.145 6
                                                
  24657133.018 7                                                 129574112.178 7
                                                
  24697353.747 6                                                 129785475.014 6
                                                
  24352678.637 7                                                 127974188.516 7
                                                
  27468843.811 1                                                 144349750.35611
                                                
  24158838.605 6                                                 126955532.566 6
  98926437.70447                                  24158846.05947
  20206846.442 8  20206854.140 9  20206848.982 9                 106187646.891 8
  82743695.313 9  79296115.188 9                
  23357678.318 5                                                 122745432.089 5
  95645824.23447                                  23357686.76747
  21266936.598 6  21266943.563 9  21266944.094 9                 111758463.312 6
  87084592.477 9  83455949.418 9                
  22209405.708 3  22209417.470 8  22209412.879 8                 116711176.797 3
  90943854.571 8  87154378.954 8                
  24046339.684 3  24046351.044 8  24046353.083 8                 126364295.013 3
  98465798.381 8  94363048.168 8                
  21249712.149 7  21249721.229 9  21249715.639 9                 111667945.263 7
  87014066.826 9  83388449.788 9                
  20433367.382 3                                                 109036356.062 3
                                                
  19681034.982 8  19681038.581 9                                 105354123.909 8
  81942109.438 9                                
  22602599.613 5  22602606.009 9                                 121035910.932 5
  94139074.596 9                                
  22156838.468 6  22156845.947 9                                 118316316.267 6
  92023837.114 9                                
  23203905.842 5  23203915.399 8                                 123994624.529 5
  96440292.756 8                                
  21023551.732 7  21023556.810 9                                 112304046.703 7
  87347782.605 9                                
  23196834.145 2  23196839.854 7                                 124130900.434 2
  96546282.612 7                                
  20627209.386 7  20627212.364 9                                 110109438.553 7
  85640625.067 9                                
  21467358.822 6                                                 114835905.773 6
                                                
 23  9 21 18 46 30.0000000  0 22E03E05E08E13E15E25G02G10G21G23G24G28
                                G32R06R07R08R09R15R16R21R22R23
  23267480.780 7                                                 122271437.917 7
                                                
  26210614.794 5                                                 137737706.337 5
                                                
  24650706.070 7                                                 129540337.806 7
                                                
  24693187.536 6                                                 129763580.979 6
                                                
  24356958.282 7                                                 127996676.810 7
                                                
  27460036.165 1                                                 144303471.530 1
                                                
  24150359.571 6                                                 126910975.554 6
  98891718.02347                                  24150367.41647
  20204655.225 8  20204663.042 9  20204657.902 9                 106176132.709 8
  82734723.226 9  79287516.919 9                
  23351312.354 6                                                 122711979.587 6
  95619757.36247                                  23351320.68947
  21271696.828 6  21271703.986 9  21271704.360 9                 111783477.951 6
  87104084.365 9  83474629.143 9                
  22215552.212 3  22215563.467 8  22215558.909 8                 116743474.431 3
  90969021.528 8  87178497.266 8                
  24033907.316 4  24033919.283 8  24033921.217 8                 126298966.258 4
  98414892.976 8  94314263.837 8                
  21243495.011 7  21243504.022 9  21243498.436 9                 111635273.985 7
  86988608.723 9  83364052.424 9                
  20437590.345 2                                                 109058891.643 2
                                                
  19676841.299 8  19676844.511 9                                 105331672.828 8
  81924647.472 9                                
  22592689.303 5  22592695.711 9                                 120982845.565 5
  94097801.613 9                                
  22144549.065 6  22144554.896 9                                 118250688.871 6
  91972793.685 9                                
  23210508.758 4  23210517.761 8                                 124029907.885 4
  96467735.400 8                                
  21020311.806 7  21020317.294 9                                 112286740.347 7
  87334322.093 9                                
  23208120.009 1  23208127.525 7                                 124191306.62211
  96593265.02017                                
  20632344.678 8  20632348.139 9                                 110136852.840 8
  85661947.253 9                                
  21460890.961 6                                                 114801306.661 6
                                                
 23  9 21 18 46 45.0000000  0 21E03E05E08E13E15E25G02G10G21G23G24G28
                                G32R06R07R08R09R15R16R22R23
  23267552.522 7                                                 122271816.111 7
                                                
  26215852.286 5                                                 137765228.268 5
                                                
  24644284.279 7                                                 129506589.755 7
                                                
  24689037.790 6                                                 129741773.013 6
                                                
  24361250.837 7                                                 128019234.171 7
                                                
  27451230.438 1                                                 144257207.96511
                                                
  24141893.692 6                                                 126866485.541 6
  98857050.52647                                  24141900.83747
  20202479.683 8  20202487.620 9  20202482.467 9                 106164700.937 8
  82725815.333 9  79278980.199 9                
  23344962.723 5                                                 122678610.528 5
  95593755.54946                                  23344970.17946
  21276469.790 6  21276477.147 9  21276476.923 9                 111808560.244 6
  87123628.990 9  83493359.390 9                
  22221716.446 3  22221727.389 8  22221722.958 8                 116775864.782 3
  90994260.734 8  87202684.845 8                
  24021476.885 4  24021489.046 8  24021490.021 8                 126233642.588 4
  98363991.536 8  94265483.299 8                
  21237288.864 7  21237298.192 9  21237291.618 9                 111602660.295 7
  86963195.480 9  83339698.051 9                
  20441822.088 2                                                 109081473.698 2
                                                
  19672659.071 8  19672662.322 9                                 105309285.411 8
  81907235.035 9                                
  22582781.852 5  22582787.302 9                                 120929789.729 5
  94056536.007 9                                
  22132269.146 6  22132276.330 9                                 118185117.959 6
  91921794.157 9                                
  23217133.720 4  23217143.269 8                                 124065311.342 4
  96495271.322 8                                
  21017106.565 7  21017112.246 9                                 112269617.483 7
  87321004.334 9                                
  20637508.627 7  20637512.042 9                                 110164418.351 7
  85683387.067 9                                
  21454455.503 6                                                 114766880.130 6
                                                
 23  9 21 18 47  0.0000000  0 21E03E05E08E13E15E25G02G10G21G23G24G28
                                G32R06R07R08R09R15R16R22R23
  23267630.494 7                                                 122272225.323 7
                                                
  26221086.989 6                                                 137792739.118 6
                                                
  24637866.403 7                                                 129472864.244 7
                                                
  24684903.134 6                                                 129720047.544 6
                                                
  24365555.449 7                                                 128041856.701 7
                                                
  27442430.031 1                                                 144210956.13611
                                                
  24133439.428 6                                                 126822059.274 6
  98822432.68447                                  24133445.81447
  20200319.403 8  20200327.110 9  20200321.923 9                 106153347.851 8
  82716968.790 9  79270502.250 9                
  23338628.043 5                                                 122645321.560 5
  95567816.11246                                  23338634.24646
  21281254.977 6  21281261.800 9  21281262.209 9                 111833706.446 6
  87143223.392 9  83512137.327 9                
  22227896.586 2  22227907.739 8  22227903.660 8                 116808343.813 2
  91019569.004 8  87226938.635 8                
  24009046.368 4  24009058.174 8  24009059.164 8                 126168320.560 4
  98313091.400 8  94216704.001 8                
  21231092.828 7  21231102.162 9  21231095.741 9                 111570100.523 7
  86937824.251 9  83315383.947 9                
  20446061.600 2                                                 109104098.215 2
                                                
  19668488.071 8  19668491.226 9                                 105286957.930 8
  81889869.241 9                                
  22572875.380 5  22572881.422 9                                 120876740.020 5
  94015275.211 9                                
  22119999.945 6  22120006.496 9                                 118119600.737 6
  91870836.411 9                                
  23223780.547 5  23223790.460 8                                 124100830.596 5
  96522897.330 8                                
  21013935.149 7  21013940.240 9                                 112252674.180 7
  87307826.221 9                                
  20642700.140 8  20642703.789 9                                 110192130.876 8
  85704941.218 9                                
  21448051.323 6                                                 114732622.673 6
                                                
 23  9 21 18 47 15.0000000  0 22E03E05E08E13E15E25G02G10G21G23G24G28
                                G32R06R07R08R09R15R16R21R22R23
  23267715.515 7                                                 122272671.129 7
                                                
  26226321.444 6                                                 137820244.476 6
                                                
  24631454.036 7                                                 129439166.986 7
                                                
  24680786.009 6                                                 129698410.308 6
                                                
  24369873.907 7                                                 128064549.901 7
                                                
  27433633.183 1                                                 144164722.147 1
                                                
  24124998.891 6                                                 126777702.600 6
  98787869.09247                                  24125005.32147
  20198175.009 7  20198182.767 9  20198177.683 9                 106142079.231 7
  82708188.034 9  79262087.363 9                
  23332309.795 5                                                 122612118.534 5
  95541943.68247                                  23332316.68447
  21286053.422 6  21286060.460 9  21286060.705 9                 111858922.036 6
  87162871.884 9  83530967.135 9                
  22234095.024 3  22234106.682 8  22234101.871 8                 116840916.865 3
  91044950.589 8  87251262.604 8                
  23996617.100 5  23996629.228 8  23996629.793 8                 126103006.161 5
  98262197.169 8  94167930.410 8                
  21224908.469 7  21224917.364 9  21224911.695 9                 111537600.349 7
  86912499.432 9  83291114.338 9                
  20450310.758 2                                                 109126770.998 2
                                                
  19664329.247 8  19664332.583 9                                 105264696.049 8
  81872554.446 9                                
  22562970.470 6  22562976.758 9                                 120823701.813 6
  93974023.351 9                                
  22107742.202 6  22107748.806 9                                 118054142.944 6
  91819924.888 9                                
  23230450.051 6  23230460.348 8                                 124136471.071 6
  96550617.640 8                                
  21010797.267 7  21010802.955 9                                 112235916.640 7
  87294792.597 9                                
  23241987.451 1  23241997.714 7                                 124372532.49911
  96734214.85617                                
  20647920.086 7  20647923.637 9                                 110219995.803 7
  85726613.922 9                                
  21441679.774 6                                                 114698540.394 6
                                                
 23  9 21 18 47 30.0000000  0 22E03E05E08E13E15E25G02G10G21G23G24G28
                                G32R06R07R08R09R15R16R21R22R23
  23267807.074 7                                                 122273151.660 7
                                                
  26231554.755 6                                                 137847742.466 6
                                                
  24625046.819 7                                                 129405496.175 7
                                                
  24676685.283 6                                                 129676859.696 6
                                                
  24374205.703 7                                                 128087311.799 7
                                                
  27424840.256 1                                                 144118504.32811
                                                
  24116570.849 6                                                 126733414.048 6
  98753358.53847                                  24116577.80447
  20196046.524 8  20196054.351 9  20196049.129 9                 106130893.434 8
  82699471.822 9  79253734.337 9                
  23326007.796 5                                                 122578999.907 5
  95516136.97747                                  23326014.01747
  21290864.855 6  21290871.816 9  21290872.226 9                 111884205.219 6
  87182573.010 9  83549847.384 9                
  22240310.946 1  22240322.227 8  22240318.102 8                 116873581.756 1
  91070403.775 8  87275655.203 8                
  23984189.733 5  23984201.448 8  23984202.356 9                 126037697.898 5
  98211307.711 8  94119161.405 9                
  21218734.877 7  21218743.923 9  21218738.014 9                 111505157.984 7
  86887219.682 9  83266887.914 9                
  20454568.412 2                                                 109149490.070 2
                                                
  19660182.655 8  19660186.070 9                                 105242498.264 8
  81855289.509 9                                
  22553067.792 6  22553074.189 9                                 120770673.587 6
  93932779.209 9                                
  22095494.837 7  22095501.283 9                                 117988743.785 7
  91769058.993 9                                
  23237142.022 6  23237151.004 8                                 124172230.354 6
  96578430.371 8                                
  21007695.180 7  21007700.495 9                                 112219343.139 7
  87281902.069 9                                
  23253275.858 1  23253286.523 7                                 124432941.513 1
  96781199.499 7                                
  20653168.601 8  20653171.358 9                                 110248010.896 8
  85748403.385 9                                
  21435340.731 6                                                 114664631.790 6
                                                
 23  9 21 18 47 45.0000000  0 22E03E05E08E13E15E25G02G10G21G23G24G28
                                G32R06R07R08R09R15R16R21R22R23
  23267903.771 7                                                 122273660.255 7
                                                
  26236784.469 6                                                 137875226.401 6
                                                
  24618643.243 7                                                 129371845.241 7
                                                
  24672599.566 6                                                 129655389.193 6
                                                
  24378548.798 6                                                 128110135.693 6
                                                
  27416046.774 1                                                 144072296.359 1
                                                
  24108154.606 6                                                 126689187.048 6
  98718896.00747                                  24108162.04647
  20193932.298 8  20193940.368 9  20193934.799 9                 106119783.877 8
  82690815.029 9  79245438.233 9                
  23319719.876 6                                                 122545959.211 6
  95490390.99747                                  23319726.91447
  21295687.769 6  21295694.946 9  21295694.986 9                 111909549.271 6
  87202321.608 9  83568773.082 9                
  22246543.639 1  22246554.915 9  22246551.122 9                 116906331.621 1
  91095923.031 9  87300111.202 9                
  23971761.468 5  23971773.341 9  23971774.343 9                 125972389.472 5
  98160418.130 9  94070392.255 9                
  21212570.937 7  21212579.903 9  21212574.128 9                 111472766.879 7
  86861979.880 9  83242699.777 9                
  20458833.431 2                                                 109172248.735 2
                                                
  19656046.769 8  19656049.562 9                                 105220357.499 8
  81838068.925 9                                
  22543166.027 6  22543172.097 9                                 120717648.701 6
  93891537.702 9                                
  22083256.935 6  22083263.877 9                                 117923396.864 6
  91718233.660 9                                
  23243855.407 6  23243862.779 8                                 124208101.472 6
  96606330.063 8                                
  21004625.597 7  21004631.050 9                                 112202946.976 7
  87269149.519 9                                
  23264564.495 1  23264575.410 7                                 124493343.73011
  96828178.871 7                                
  20658443.375 7  20658446.940 9                                 110276168.876 7
  85770304.017 9                                
  21429033.225 6                                                 114630890.386 6
                                                
 23  9 21 18 48  0.0000000  0 22E03E05E08E13E15E25G02G10G21G23G24G28
                                G32R06R07R08R09R15R16R21R22R23
  23268006.704 7                                                 122274200.763 7
                                                
  26242012.773 6                                                 137902700.216 6
                                                
  24612243.906 7                                                 129338218.101 7
                                                
  24668529.603 6                                                 129634002.868 6
                                                
  24382904.960 6                                                 128133025.306 6
                                                
  27407255.526 1                                                 144026102.353 1
                                                
  24099750.849 6                                                 126645025.911 6
  98684484.77247                                  24099757.85447
  20191833.598 8  20191841.127 9  20191836.016 9                 106108754.810 8
  82682220.940 9  79237202.220 9                
  23313448.183 6                                                 122513000.382 6
  95464708.80747                                  23313454.90447
  21300522.930 6  21300530.062 9  21300530.032 9                 111934958.048 6
  87222120.633 9  83587747.148 9                
  22252792.427 2  22252803.962 9  22252800.297 9                 116939169.917 2
  91121511.260 9  87324633.297 9                
  23959334.818 5  23959346.238 8  23959347.349 9                 125907085.136 5
  98109531.733 8  94021626.152 9                
  21206417.709 7  21206426.523 9  21206420.786 9                 111440431.035 7
  86836783.137 9  83218552.896 9                
  20463106.786 2                                                 109195050.845 2
                                                
  19651922.094 8  19651925.120 9                                 105198277.957 8
  81820895.974 9                                
  22533265.519 6  22533270.188 9                                 120664631.220 6
  93850301.970 9                                
  22071030.608 6  22071036.424 9                                 117858106.960 6
  91667452.715 9                                
  23250589.944 6  23250598.609 8                                 124244087.963 6
  96634319.604 8                                
  21001590.109 7  21001595.797 9                                 112186732.234 7
  87256538.060 9                                
  23275851.800 1  23275862.132 7                                 124553742.790 1
  96875155.733 7                                
  20663745.902 7  20663749.183 9                                 110304473.416 7
  85792318.583 9                                
  21422757.987 6                                                 114597320.506 6
                                                
 23  9 21 18 48 15.0000000  0 22E03E05E08E13E15E25G02G10G21G23G24G28
                                G32R06R07R08R09R15R16R21R22R23
  23268116.802 7                                                 122274780.438 7
                                                
  26247240.078 6                                                 137930171.121 6
                                                
  24605851.048 7                                                 129304622.089 7
                                                
  24664477.381 6                                                 129612708.176 6
                                                
  24387274.099 7                                                 128155987.832 7
                                                
  27398467.562 1                                                 143979930.24211
                                                
  24091361.471 6                                                 126600938.325 6
  98650130.89347                                  24091368.40247
  20189751.724 8  20189759.189 9  20189754.003 9                 106097813.622 8
  82673695.338 9  79229031.860 9                
  23307193.312 6                                                 122480131.222 6
  95439096.48046                                  23307201.01946
  21305371.525 6  21305379.457 9  21305378.837 9                 111960438.862 6
  87241975.758 9  83606774.963 9                
  22259058.770 2  22259070.535 8  22259066.578 9                 116972103.715 2
  91147173.939 8  87349226.654 9                
  23946909.967 5  23946921.571 8  23946922.392 9                 125841792.516 5
  98058654.478 8  93972868.781 9                
  21200276.251 7  21200285.086 9  21200279.936 9                 111408157.783 7
  86811635.171 9  83194452.735 9                
  20467388.782 2                                                 109217903.648 2
                                                
  19647810.414 8  19647813.473 9                                 105176267.520 8
  81803776.752 9                                
  22523367.193 6  22523372.222 9                                 120611628.564 6
  93809077.717 9                                
  22058816.025 6  22058822.754 9                                 117792881.974 6
  91616722.234 9                                
  23257346.784 5  23257355.862 8                                 124280196.595 5
  96662404.060 8                                
  20998590.320 7  20998595.603 9                                 112170706.692 7
  87244073.750 9                                
  23287139.538 1  23287155.936 7                                 124614145.422 1
  96922135.378 7                                
  20669077.296 7  20669080.754 9                                 110332931.588 7
  85814452.709 9                                
  21416515.875 6                                                 114563929.918 6
                                                
 23  9 21 18 48 30.0000000  0 22E03E05E08E13E15E25G02G10G21G23G24G28
                                G32R06R07R08R09R15R16R21R22R23
  23268234.887 7                                                 122275400.203 7
                                                
  26252466.993 6                                                 137957640.058 6
                                                
  24599463.902 7                                                 129271058.271 7
                                                
  24660443.348 6                                                 129591506.233 6
                                                
  24391658.121 7                                                 128179024.135 7
                                                
  27389686.999 1                                                 143933780.969 1
                                                
  24082985.870 6                                                 126556925.556 6
  98615835.28747                                  24082993.01147
  20187686.598 8  20187693.916 9  20187688.986 9                 106086961.477 8
  82665239.123 9  79220927.983 9                
  23300955.884 6                                                 122447353.031 6
  95413555.06846                                  23300962.95246
  21310233.963 6  21310241.825 9  21310241.344 9                 111985992.582 6
  87261887.718 9  83625857.249 9                
  22265345.143 2  22265355.350 8  22265352.158 9                 117005133.695 2
  91172911.541 8  87373891.823 9                
  23934487.431 5  23934498.951 9  23934500.163 9                 125776512.877 5
  98007787.363 9  93924121.133 9                
  21194146.970 7  21194155.853 9  21194150.535 9                 111375948.196 7
  86786536.798 9  83170400.141 9                
  20471681.643 2                                                 109240808.218 2
                                                
  19643711.780 8  19643714.790 9                                 105154326.789 8
  81786711.768 9                                
  22513472.517 5  22513478.413 9                                 120558642.018 5
  93767866.053 9                                
  22046613.974 6  22046620.048 9                                 117727723.451 6
  91566043.487 9                                
  23264126.908 4  23264136.440 8                                 124316428.276 4
  96690584.191 8                                
  20995625.937 7  20995631.595 9                                 112154871.446 7
  87231757.452 9                                
  23298427.068 1  23298448.858 7                                 124674552.252 1
  96969118.312 7                                
  20674437.243 8  20674440.439 9                                 110361543.934 8
  85836706.736 9                                
  21410307.277 6                                                 114530720.191 6
                                                
 23  9 21 18 48 45.0000000  0 22E03E05E08E13E15E25G02G10G21G23G24G28
                                G32R06R07R08R09R15R16R21R22R23
  23268359.187 7                                                 122276054.059 7
                                                
  26257693.275 6                                                 137985100.947 6
                                                
  24593082.145 7                                                 129237520.639 7
                                                
  24656424.941 7                                                 129570391.253 7
                                                
  24396054.697 7                                                 128202128.051 7
                                                
  27380908.365 1                                                 143887648.810 1
                                                
  24074623.642 6                                                 126512981.916 6
  98581593.52847                                  24074630.48747
  20185636.941 8  20185644.460 9  20185639.669 9                 106076192.346 8
  82656847.585 9  79212886.087 9                
  23294734.499 6                                                 122414659.880 6
  95388079.89047                                  23294741.94247
  21315110.025 6  21315117.189 9  21315116.863 9                 112011613.177 6
  87281851.772 9  83644989.468 9                
  22271647.899 2  22271657.934 9  22271654.837 9                 117038253.465 2
  91198719.119 9  87398624.062 9                
  23922066.444 5  23922077.953 9  23922079.265 9                 125711240.601 5
  97956925.967 9  93875378.983 9                
  21188028.379 7  21188037.250 9  21188032.227 9                 111343796.300 7
  86761483.388 9  83146390.617 9                
  20475982.250 2                                                 109263758.288 2
                                                
  19639624.658 8  19639628.131 9                                 105132449.695 8
  81769696.255 9                                
  22503579.692 6  22503585.190 9                                 120505665.428 6
  93726662.074 9                                
  22034423.118 6  22034429.649 9                                 117662625.840 6
  91515412.091 9                                
  23270929.892 4  23270938.793 8                                 124352776.225 4
  96718854.696 8                                
  20992695.550 8  20992701.912 9                                 112139220.476 8
  87219584.476 9                                
  23309716.360 1  23309735.846 7                                 124734956.718 1
  97016099.46717                                
  20679824.829 7  20679828.447 9                                 110390303.905 7
  85859075.570 9                                
  21404131.684 7                                                 114497685.228 7
                                                
 23  9 21 18 49  0.0000000  0 23E03E05E08E13E15E25G02G10G12G21G23G24
                                G28G32R06R07R08R09R15R16R21R22R23
  23268490.788 7                                                 122276745.749 7
                                                
  26262918.286 6                                                 138012557.664 6
                                                
  24586705.634 7                                                 129204013.083 7
                                                
  24652424.162 6                                                 129549367.182 6
                                                
  24400464.760 7                                                 128225303.292 7
                                                
  27372133.666 1                                                 143841538.070 1
                                                
  24066275.321 6                                                 126469111.441 6
  98547408.79147                                  24066282.14047
  20183604.559 8  20183611.810 9  20183607.025 9                 106065510.424 8
  82648523.999 9  79204909.339 9                
  24596741.552 3                                                 129256731.65313
                                                
  23288530.187 6                                                 122382055.633 6
  95362674.03047                                  23288538.15747
  21319998.825 6  21320006.070 9  21320005.669 9                 112037304.403 6
  87301870.893 9  83664174.438 9                
  22277968.138 2  22277978.155 9  22277975.499 9                 117071466.587 2
  91224599.498 9  87423426.042 9                
  23909647.516 5  23909659.000 9  23909660.675 9                 125645979.843 5
  97906073.552 9  93826645.429 9                
  21181922.131 7  21181930.860 9  21181925.678 9                 111311706.026 7
  86736478.004 9  83122427.115 9                
  20480292.964 2                                                 109286757.831 2
                                                
  19635550.785 8  19635554.317 9                                 105110640.387 8
  81752733.479 9                                
  22493689.301 6  22493694.269 9                                 120452702.747 6
  93685468.949 9                                
  22022244.298 6  22022250.718 9                                 117597593.746 6
  91464831.664 9                                
  23277753.213 2  23277762.797 8                                 124389244.078 2
  96747218.566 8                                
  20989800.819 7  20989806.885 9                                 112123758.013 7
  87207558.118 9                                
  23321004.083 1  23321043.476 7                                 124795362.152 1
  97063081.41317                                
  20685241.077 7  20685244.179 9                                 110419215.078 7
  85881562.004 9                                
  21397990.533 7                                                 114464829.278 7
                                                
 23  9 21 18 49 15.0000000  0 23E03E05E08E13E15E25G02G10G12G21G23G24
                                G28G32R06R07R08R09R15R16R21R22R23
  23268630.355 7                                                 122277479.223 7
                                                
  26268142.739 5                                                 138040014.070 5
                                                
  24580335.973 7                                                 129170539.630 7
                                                
  24648441.390 6                                                 129528438.146 6
                                                
  24404889.017 7                                                 128248553.738 7
                                                
  27363364.754 1                                                 143795452.90011
                                                
  24057941.258 5                                                 126425318.476 5
  98513284.44947                                  24057948.41647
  20181589.209 8  20181596.477 9  20181591.879 9                 106054919.854 8
  82640271.609 9  79197000.801 9                
  24587770.782 4  24587783.431 7                                 129209587.808 4
 100682861.85117                                
  23282343.206 6                                                 122349544.797 6
  95337340.94547                                  23282351.20047
  21324902.176 6  21324909.343 9  21324908.722 9                 112063070.247 6
  87321948.114 9  83683415.099 9                
  22284306.315 3  22284317.195 9  22284314.134 9                 117104776.726 3
  91250555.367 9  87448300.452 9                
  23897231.867 5  23897243.307 9  23897245.045 9                 125580734.920 5
  97855233.457 9  93777923.709 9                
  21175828.030 7  21175836.506 9  21175831.655 9                 111279681.395 7
  86711523.732 9  83098512.646 9                
  20484613.056 2                                                 109309810.756 2
                                                
  19631489.810 8  19631493.150 9                                 105088903.178 8
  81735826.739 9                                
  22483801.904 5  22483807.513 9                                 120399758.445 5
  93644290.113 9                                
  22010078.912 6  22010085.350 9                                 117532631.638 6
  91414305.654 9                                
  23284600.575 3  23284611.034 8                                 124425835.429 3
  96775678.440 8                                
  20986942.485 7  20986947.758 9                                 112108488.176 7
  87195681.563 9                                
  23332290.958 1                                                 124855772.24811
                                                
  20690685.963 7  20690690.316 9                                 110448281.000 7
  85904168.771 9                                
  21391882.034 6                                                 114432156.771 6
                                                
 23  9 21 18 49 30.0000000  0 23E03E05E08E13E15E25G02G10G12G21G23G24
                                G28G32R06R07R08R09R15R16R21R22R23
  23268776.193 7                                                 122278245.028 7
                                                
  26273365.821 6                                                 138067460.771 6
                                                
  24573970.862 7                                                 129137090.909 7
                                                
  24644475.167 6                                                 129507594.890 6
                                                
  24409326.127 7                                                 128271869.803 7
                                                
  27354594.527 1                                                 143749384.340 1
                                                
  24049621.281 6                                                 126381593.872 6
  98479213.37647                                  24049628.24847
  20179589.413 8  20179596.840 9  20179592.207 9                 106044411.343 8
  82632083.175 9  79189153.535 9                
  24578808.371 2  24578822.151 7                                 129162491.413 2
 100646163.421 7                                
  23276172.751 6                                                 122317118.181 6
  95312073.51447                                  23276180.84647
  21329817.226 6  21329824.820 9  21329824.181 9                 112088901.188 6
  87342076.104 9  83702704.415 9                
  22290661.640 1  22290672.545 9  22290668.685 9                 117138174.141 1
  91276579.334 9  87473240.050 9                
  23884817.266 5  23884828.694 9  23884830.525 9                 125515496.779 5
  97804398.652 9  93729207.048 9                
  21169744.719 7  21169752.936 9  21169748.132 9                 111247713.088 7
  86686613.360 9  83074640.207 9                
  20488941.476 2                                                 109332907.408 2
                                                
  19627441.161 8  19627443.784 9                                 105067228.142 8
  81718968.387 9                                
  22473916.585 5  22473922.177 8                                 120346822.510 5
  93603117.780 8                                
  21997924.981 7  21997931.898 9                                 117467730.746 7
  91363827.289 9                                
  23291470.732 4  23291479.919 8                                 124462540.284 4
  96804226.573 8                                
  20984118.582 7  20984123.554 9                                 112093401.641 7
  87183947.641 9                                
  23343582.330 2                                                 124916176.853 2
                                                
  20696158.175 7  20696162.193 9                                 110477491.910 7
  85926888.311 9                                
  21385806.480 6                                                 114399658.450 6
                                                
 23  9 21 18 49 45.0000000  0 23E03E05E08E13E15E25G02G10G12G21G23G24
                                G28G32R06R07R08R09R15R16R21R22R23
  23268927.293 7                                                 122279039.063 7
                                                
  26278586.037 6                                                 138094893.602 6
                                                
  24567609.390 7                                                 129103662.871 7
                                                
  24640524.459 6                                                 129486833.489 6
                                                
  24413774.707 7                                                 128295247.289 7
                                                
  27345828.463 1                                                 143703328.50411
                                                
  24041313.125 6                                                 126337934.094 6
  98445192.84447                                  24041320.53247
  20177604.530 8  20177611.913 9  20177607.248 9                 106033980.878 8
  82623955.552 9  79181364.556 9                
  24569854.321 2  24569868.359 7                                 129115438.957 2
 100609499.301 7                                
  23270017.524 6                                                 122284771.753 6
  95286868.52947                                  23270024.06347
  21334744.179 6  21334752.073 9  21334751.009 9                 112114793.156 6
  87362251.613 9  83722039.268 9                
  22297033.416 2  22297044.139 9  22297039.727 9                 117171654.521 2
  91302667.866 9  87498241.542 9                
  23872403.326 5  23872414.684 9  23872416.586 9                 125450261.659 5
  97753566.190 9  93680492.637 9                
  21163671.410 7  21163679.942 9  21163674.743 9                 111215797.063 7
  86661743.771 9  83050806.831 9                
  20493277.122 2                                                 109356043.743 2
                                                
  19623402.611 8  19623405.795 9                                 105045611.518 8
  81702155.448 9                                
  22464032.334 5  22464036.816 9                                 120293891.413 5
  93561949.213 9                                
  21985781.811 6  21985788.718 9                                 117402887.312 6
  91313393.595 9                                
  23298359.906 5  23298368.902 8                                 124499354.111 5
  96832859.370 8                                
  20981327.756 7  20981333.378 9                                 112078494.298 7
  87172353.046 9                                
  23354868.725 1                                                 124976571.251 1
                                                
  20701656.518 7  20701660.477 9                                 110506843.107 7
  85949717.001 9                                
  21379763.769 6                                                 114367330.638 6
                                                
 23  9 21 18 50  0.0000000  0 23E03E05E08E13E15E25G02G10G12G21G23G24
                                G28G32R06R07R08R09R15R16R21R22R23
  23269085.937 7                                                 122279873.938 7
                                                
  26283806.454 6                                                 138122325.235 6
                                                
  24561254.877 7                                                 129070268.245 7
                                                
  24636591.864 6                                                 129466166.781 6
                                                
  24418237.629 6                                                 128318698.749 6
                                                
  27337071.371 1                                                 143657298.261 1
                                                
  24033019.827 6                                                 126294351.859 6
  98411232.71347                                  24033026.35547
  20175637.331 7  20175644.260 9  20175639.655 9                 106023641.415 7
  82615898.823 9  79173643.513 9                
  24560911.106 2  24560924.271 8                                
 100572879.904 8                                
  23263879.739 6                                                 122252518.380 6
  95261736.02846                                  23263886.39446
  21339685.560 6  21339693.228 9  21339692.257 9                 112140758.729 6
  87382484.498 9  83741429.113 9                
  22303422.465 3  22303433.219 9  22303429.068 9                 117205230.061 3
  91328830.594 9  87523314.167 9                
  23859992.496 5  23860004.132 9  23860005.455 9                 125385042.512 5
  97702746.189 9  93631790.166 9                
  21157610.248 7  21157618.753 9  21157613.736 9                 111183946.058 7
  86636924.824 9  83027022.018 9                
  20497622.762 3                                                 109379232.456 3
                                                
  19619377.556 8  19619380.821 9                                 105024066.251 8
  81685398.032 9                                
  22454150.228 5  22454155.882 9                                 120240977.830 5
  93520794.297 9                                
  21973652.050 6  21973658.338 9                                 117338114.812 6
  91263015.046 9                                
  23305271.497 5  23305281.490 8                                 124536289.184 5
  96861586.571 8                                
  20978572.759 7  20978578.469 9                                 112063779.105 7
  87160907.901 9                                
  23366155.179 1                                                 125036967.976 1
                                                
  20707183.647 7  20707187.232 9                                 110536346.966 7
  85972664.446 9                                
  21373754.352 6                                                 114335186.398 6
                                                
 23  9 21 18 50 15.0000000  0 23E03E05E08E13E15E25G02G10G12G21G23G24
                                G28G32R06R07R08R09R15R16R21R22R23
  23269252.980 7                                                 122280751.669 7
                                                
  26289026.504 6                                                 138149757.686 6
                                                
  24554906.943 7                                                 129036909.136 7
                                                
  24632677.143 6                                                 129445597.001 6
                                                
  24422714.919 7                                                 128342226.122 7
                                                
  27328319.474 1                                                 143611296.017 1
                                                
  24024741.373 6                                                 126250849.645 6
  98377334.87547                                  24024748.23547
  20173687.598 8  20173694.637 9  20173689.947 9                 106013395.047 8
  82607914.640 9  79165992.012 9                
  24551979.530 2  24551991.702 8                                 129021508.22912
 100536306.719 8                                
  23257760.004 6                                                 122220360.308 6
  95236677.83347                                  23257767.12347
  21344641.168 6  21344649.049 9  21344648.108 9                 112166799.929 6
  87402776.317 9  83760875.433 9                
  22309830.193 3  22309841.308 9  22309836.295 9                 117238902.650 3
  91355068.919 9  87548459.217 9                
  23847585.076 5  23847596.625 9  23847597.671 9                 125319841.861 5
  97651940.579 9  93583101.500 9                
  21151561.964 7  21151570.247 9  21151565.673 9                 111152162.234 7
  86612158.194 9  83003287.384 9                
  20501978.251 2                                                 109402475.513 2
                                                
  19615366.896 8  19615369.714 9                                 105002594.285 8
  81668697.637 9                                
  22444273.106 5  22444277.820 9                                 120188084.195 5
  93479654.829 9                                
  21961536.276 6  21961542.393 9                                 117273416.087 6
  91212693.884 9                                
  23312206.735 1  23312221.380 8                                 124573347.490 1
  96890409.585 8                                
  20975854.915 7  20975860.166 9                                 112049258.321 7
  87149613.937 9                                
  23377443.126 1                                                 125097368.673 1
                                                
  20712739.722 7  20712744.000 9                                 110566005.335 7
  85995731.994 9                                
  21367780.224 7                                                 114303228.298 7
                                                
 23  9 21 18 50 30.0000000  0 23E03E05E08E13E15E25G02G10G12G21G23G24
                                G28G32R06R07R08R09R15R16R21R22R23
  23269427.633 7                                                 122281668.411 7
                                                
  26294246.005 5                                                 138177187.128 5
                                                
  24548564.549 7                                                 129003581.762 7
                                                
  24628780.774 6                                                 129425120.458 6
                                                
  24427205.516 7                                                 128365825.476 7
                                                
  27319570.559 2                                                 143565318.435 2
                                                
  24016477.662 6                                                 126207423.796 6
  98343496.59947                                  24016484.86447
  20171754.230 8  20171761.954 9  20171757.077 9                 106003238.413 8
  82600000.373 9  79158407.508 9                
  24543058.707 1  24543071.177 8                                 128974628.617 1
 100499777.286 8                                
  23251658.611 5                                                 122188294.029 5
  95211691.14547                                  23251665.36047
  21349610.031 6  21349618.107 9  21349617.090 9                 112192912.918 6
  87423124.068 9  83780375.368 9                
  22316255.822 2  22316266.510 9  22316262.172 9                 117272668.125 2
  91381379.623 9  87573673.656 9                
  23835180.339 5  23835192.480 9  23835192.786 9                 125254656.168 5
  97601146.685 9  93534423.999 9                
  21145525.799 7  21145533.673 9  21145529.475 9                 111120441.846 7
  86587441.030 9  82979600.075 9                
  20506343.083 2                                                 109425769.300 2
                                                
  19611368.878 8  19611371.789 9                                 104981192.120 8
  81652051.509 9                                
  22434398.650 5  22434402.948 8                                 120135206.559 5
  93438527.801 8                                
  21949433.284 6  21949439.165 9                                 117208787.579 6
  91162427.388 9                                
  23319163.654 1  23319176.116 7                                 124610524.41111
  96919325.147 7                                
  20973172.354 8  20973177.327 9                                 112034928.437 8
  87138468.484 9                                
  23388730.526 1                                                 125157768.913 1
                                                
  20718324.008 7  20718327.437 9                                 110595813.885 7
  86018916.397 9                                
  21361840.218 7                                                 114271452.729 7
                                                
 23  9 21 18 50 45.0000000  0 21E03E05E08E13E15E25G02G10G12G21G23G24
                                G28G32R06R07R08R09R16R22R23
  23269608.368 7                                                 122282618.959 7
                                                
  26299464.047 5                                                 138204608.326 5
                                                
  24542227.770 7                                                 128970280.983 7
                                                
  24624900.779 6                                                 129404732.139 6
                                                
  24431709.059 7                                                 128389491.467 7
                                                
  27310825.118 3                                                 143519360.507 3
                                                
  24008227.188 6                                                 126164069.524 6
  98309714.08347                                  24008234.51647
  20169837.730 7  20169845.328 9  20169840.545 9                 105993166.232 7
  82592151.916 9  79150886.071 9                
  24534147.457 2  24534159.841 7                                 128927800.626 2
 100463287.975 7                                
  23245572.826 6                                                 122156314.696 6
  95186772.22347                                  23245579.60047
  21354591.919 6  21354599.954 9  21354598.747 9                 112219092.463 6
  87443523.676 9  83799924.983 9                
  22322697.266 2  22322708.387 9  22322704.558 9                 117306520.975 2
  91407758.449 9  87598953.335 9                
  23822778.029 5  23822789.474 9  23822790.266 9                 125189480.566 5
  97550360.625 9  93485754.061 9                
  21139500.565 7  21139509.031 9  21139504.284 9                 111088779.767 7
  86562769.307 9  82955956.331 9                
  20510716.974 2                                                 109449108.097 2
                                                
  19607382.670 8  19607385.447 9                                 104959854.345 8
  81635455.458 9                                
  22424525.533 5  22424531.226 8                                 120082339.771 5
  93397409.272 8                                
  21937342.393 6  21937349.392 9                                 117144224.896 6
  91112212.069 9                                
  20970524.118 7  20970529.693 9                                 112020784.041 7
  87127467.320 9                                
  20723935.585 7  20723939.057 9                                 110625767.028 7
  86042213.274 9                                
  21355933.235 6                                                 114239854.646 6
                                                
 23  9 21 18 51  0.0000000  0 21E03E05E08E13E15E25G02G10G12G21G23G24
                                G28G32R06R07R08R09R16R22R23
  23269796.355 7                                                 122283606.594 7
                                                
  26304681.155 5                                                 138232024.579 5
                                                
  24535896.467 7                                                 128937010.216 7
                                                
  24621038.550 6                                                 129384435.497 6
                                                
  24436225.841 7                                                 128413227.319 7
                                                
  27302084.082 3                                                 143473425.803 3
                                                
  23999991.754 6                                                 126120790.380 6
  98275990.12147                                  23999998.84247
  20167937.981 8  20167945.338 9  20167940.695 9                 105983181.998 8
  82584371.998 9  79143430.313 9                
  24525246.849 2  24525258.744 7                                 128881027.82212
 100426841.805 7                                
  23239504.416 6                                                 122124425.806 6
  95161923.78747                                  23239511.34347
  21359587.127 6  21359594.902 9  21359593.840 9                 112245341.843 6
  87463977.695 9  83819526.738 9                
  22329156.934 2  22329167.558 9  22329163.476 9                 117340464.255 2
  91434207.643 9  87624300.498 9                
  23810378.079 5  23810389.611 9  23810390.316 9                 125124318.756 5
  97499585.291 9  93437094.394 9                
  21133487.307 7  21133495.397 9  21133490.874 9                 111057179.394 7
  86538145.663 9  82932358.661 9                
  20515099.600 2                                                 109472495.464 2
                                                
  19603409.269 8  19603411.717 9                                 104938584.463 8
  81618912.209 9                                
  22414656.615 6  22414661.205 9                                 120029487.557 6
  93356302.054 9                                
  21925264.756 6  21925271.459 9                                 117079732.034 6
  91062051.020 9                                
  20967911.968 7  20967917.761 9                                 112006828.942 7
  87116613.320 9                                
  20729574.321 7  20729577.700 9                                 110655867.693 7
  86065624.838 9                                
  21350060.623 6                                                 114208437.831 6
                                                
 23  9 21 18 51 15.0000000  0 21E03E05E08E13E15E25G02G10G12G21G23G24
                                G28G32R06R07R08R09R16R22R23
  23269990.596 7                                                 122284626.885 7
                                                
  26309896.685 5                                                 138259431.474 5
                                                
  24529570.255 7                                                 128903765.049 7
                                                
  24617193.065 6                                                 129364226.350 6
                                                
  24440755.040 7                                                 128437028.501 7
                                                
  27293345.732 2                                                 143427510.307 2
                                                
  23991769.922 6                                                 126077582.558 6
  98242321.76447                                  23991776.07647
  20166053.834 8  20166061.122 9  20166056.534 9                 105973281.396 8
  82576657.250 9  79136037.013 9                
  24516357.207 1  24516368.296 8                                 128834306.31911
 100390435.497 8                                
  23233453.024 6                                                 122092623.190 6
  95137142.56647                                  23233459.53147
  21364594.707 6  21364602.238 9  21364601.692 9                 112271656.607 6
  87484482.668 9  83839177.339 9                
  22335632.009 3  22335643.235 9  22335639.527 9                 117374493.177 3
  91460723.690 9  87649711.677 9                
  23797980.496 5  23797991.772 9  23797992.023 9                 125059166.680 5
  97448817.541 9  93388441.994 9                
  21127484.618 7  21127493.121 9  21127488.345 9                 111025636.402 7
  86513566.707 9  82908803.847 9                
  20519491.046 2                                                 109495926.931 2
                                                
  19599447.264 8  19599449.979 9                                 104917378.133 8
  81602418.438 9                                
  22404788.096 6  22404793.395 9                                 119976645.306 6
  93315202.616 9                                
  21913199.614 6  21913206.615 9                                 117015304.721 6
  91011941.022 9                                
  20965334.138 7  20965339.623 9                                 111993058.432 7
  87105902.907 9                                
  20735239.888 7  20735243.656 9                                 110686110.999 7
  86089147.370 9                                
  21344220.431 6                                                 114177198.079 6
                                                
 23  9 21 18 51 30.0000000  0 21E03E05E08E13E15E25G02G10G12G21G23G24
                                G28G32R06R07R08R09R16R22R23
  23270191.531 7                                                 122285682.638 7
                                                
  26315110.856 6                                                 138286831.799 6
                                                
  24523249.014 7                                                 128870548.388 7
                                                
  24613364.431 6                                                 129344107.646 6
                                                
  24445297.454 7                                                 128460897.691 7
                                                
  27284611.418 1                                                 143381617.214 1
                                                
  23983561.681 6                                                 126034449.025 6
  98208711.23247                                  23983566.54947
  20164186.492 7  20164193.832 9  20164189.035 9                 105963467.668 7
  82569010.176 9  79128708.576 9                
  24507475.713 2  24507488.640 8                                 128787639.50112
 100354071.751 8                                
  23227417.817 6                                                 122060909.933 6
  95112430.93947                                  23227424.35647
  21369615.200 6  21369622.738 9  21369622.540 9                 112298039.517 6
  87505040.742 9  83858878.843 9                
  22342124.527 3  22342135.415 9  22342131.569 9                 117408610.318 3
  91487308.433 9  87675188.732 9                
  23785584.371 6  23785595.517 9  23785596.448 9                 124994027.478 6
  97398059.827 9  93339799.217 9                
  21121493.898 7  21121502.184 9  21121497.358 9                 110994153.682 7
  86489034.728 9  82885294.051 9                
  20523891.132 3                                                 109519405.299 3
                                                
  19595498.471 8  19595501.549 9                                 104896238.220 8
  81585976.264 9                                
  22394922.934 5  22394927.039 9                                 119923816.223 5
  93274113.303 9                                
  21901147.110 6  21901153.978 9                                 116950946.944 6
  90961885.071 9                                
  20962791.213 7  20962795.814 9                                 111979475.833 7
  87095338.660 9                                
  20740932.503 7  20740935.813 9                                 110716499.397 7
  86112782.741 9                                
  21338414.157 6                                                 114146138.596 6
                                                
 23  9 21 18 51 45.0000000  0 22E03E05E08E13E15E25G02G10G12G21G23G24
                                G28G32R06R07R08R09R15R16R22R23
  23270399.026 7                                                 122286773.239 7
                                                
  26320324.063 5                                                 138314224.963 5
                                                
  24516933.548 7                                                 128837359.729 7
                                                
  24609553.297 7                                                 129324078.978 7
                                                
  24449852.294 7                                                 128484834.236 7
                                                
  27275882.371 1                                                 143335746.176 1
                                                
  23975367.641 6                                                 125991389.469 6
  98175158.37047                                  23975373.47247
  20162335.461 7  20162342.784 9  20162337.949 9                 105953740.396 7
  82561430.478 9  79121444.700 9                
  24498604.418 1  24498617.985 8                                
 100317750.492 8                                
  23221399.932 6                                                 122029285.608 6
  95087788.62847                                  23221407.35847
  21374648.697 6  21374656.080 9  21374655.894 9                 112324490.022 6
  87525651.468 9  83878630.777 9                
  22348633.275 1  22348644.388 9  22348640.677 9                 117442814.839 1
  91513961.270 9  87700731.014 9                
  23773191.145 5  23773202.262 9  23773203.219 9                 124928900.961 5
  97347312.000 9  93291165.924 9                
  21115514.153 7  21115522.285 9  21115518.066 9                 110962730.735 7
  86464549.320 9  82861828.890 9                
  20528299.515 2                                                 109542929.905 2
                                                
  19591561.943 8  19591564.200 9                                 104875164.381 8
  81569585.529 9                                
  22385060.168 6  22385064.414 9                                 119870999.468 6
  93233033.671 9                                
  21889107.967 6  21889114.530 9                                 116886658.340 6
  90911882.855 9                                
  23354273.295 1  23354278.669 7                                 124798122.98511
  97065226.89517                                
  20960283.938 7  20960288.726 9                                 111966080.669 7
  87084920.229 9                                
  20746652.435 7  20746656.073 9                                 110747031.867 7
  86136530.185 9                                
  21332641.512 7                                                 114115259.131 7
                                                
 23  9 21 18 52  0.0000000  0 22E03E05E08E13E15E25G02G10G12G21G23G24
                                G28G32R06R07R08R09R15R16R22R23
  23270613.323 7                                                 122287900.938 7
                                                
  26325535.399 5                                                 138341613.181 5
                                                
  24510623.658 7                                                 128804201.361 7
                                                
  24605759.740 6                                                 129304142.755 6
                                                
  24454420.191 7                                                 128508840.257 7
                                                
  27267158.948 2                                                 143289899.761 2
                                                
  23967188.176 6                                                 125948406.661 6
  98141665.32747                                  23967195.12947
  20160501.152 7  20160508.551 9  20160503.641 9                 105944101.855 7
  82553919.950 9  79114247.097 9                
  24489745.869 1  24489759.033 8                                 128694473.92311
 100281473.767 8                                
  23215399.318 6                                                 121997752.622 6
  95063217.48847                                  23215406.81147
  21379694.989 6  21379703.132 9  21379702.360 9                 112351010.274 6
  87546316.577 9  83898434.838 9                
  22355159.498 2  22355169.955 9  22355166.107 9                 117477108.646 2
  91540683.653 9  87726339.980 9                
  23760800.810 5  23760811.888 9  23760812.756 9                 124863789.722 5
  97296576.098 9  93242544.035 9                
  21109546.512 7  21109554.820 9  21109550.555 9                 110931369.949 7
  86440112.365 9  82838410.146 9                
  20532717.240 2                                                 109566502.978 2
                                                
  19587637.859 8  19587640.497 9                                 104854158.826 8
  81553247.871 9                                
  22375199.357 5  22375203.134 9                                 119818197.783 5
  93191965.791 9                                
  21877082.289 6  21877088.456 9                                 116822441.892 6
  90861936.867 9                                
  23361357.491 1                                                 124835981.07711
                                                
  20957811.642 7  20957817.270 9                                 111952875.397 7
  87074649.513 9                                
  20752399.812 7  20752403.115 9                                 110777710.338 7
  86160391.188 9                                
  21326902.814 6                                                 114084562.303 6
                                                
 23  9 21 18 52 15.0000000  0 21E03E05E08E13E15E25G02G10G12G21G23G24
                                G28G32R06R07R08R09R16R22R23
  23270836.352 7                                                 122289072.222 7
                                                
  26330747.836 4                                                 138369003.038 4
                                                
  24504320.756 7                                                 128771079.885 7
                                                
  24601984.611 6                                                 129284305.714 6
                                                
  24459002.913 7                                                 128532922.172 7
                                                
  27258440.250 3                                                 143244084.743 3
                                                
  23959024.824 6                                                 125905507.386 6
  98108237.35247                                  23959030.30147
  20158685.188 8  20158692.618 9  20158687.775 9                 105934558.778 8
  82546483.787 9  79107120.759 9                
  24480899.926 1  24480911.499 8                                
 100245247.090 8                                
  23209417.451 6                                                 121966317.861 6
  95038722.88647                                  23209424.92547
  21384756.389 6  21384764.581 9  21384763.220 9                 112377606.798 6
  87567041.116 9  83918295.842 9                
  22361703.416 2  22361714.641 9  22361710.706 9                 117511497.951 2
  91567480.459 9  87752020.244 9                
  23748415.019 5  23748425.331 9  23748426.797 9                 124798700.722 5
  97245857.488 9  93193938.719 9                
  21103591.907 7  21103600.022 9  21103595.614 9                 110900077.880 7
  86415728.972 9  82815042.721 9                
  20537145.545 3                                                 109590131.222 3
                                                
  19583727.647 8  19583730.016 9                                 104833228.242 8
  81536968.545 9                                
  22365343.195 5  22365346.998 9                                 119765417.854 5
  93150914.779 9                                
  21865071.395 6  21865077.797 9                                 116758304.890 6
  90812052.599 9                                
  20955376.435 8  20955382.082 9                                 111939866.791 8
  87064531.659 9                                
  20758175.460 7  20758178.523 9                                 110808541.055 7
  86184370.612 9                                
  21321200.090 6                                                 114054055.031 6
                                                
 23  9 21 18 52 30.0000000  0 21E03E05E08E13E15E25G02G10G12G21G23G24
                                G28G32R06R07R08R09R16R22R23
  23271067.205 7                                                 122290284.295 7
                                                
  26335959.403 4                                                 138396391.612 4
                                                
  24498024.424 7                                                 128737992.599 7
                                                
  24598228.122 6                                                 129264565.192 6
                                                
  24463599.644 7                                                 128557077.089 7
                                                
  27249727.871 3                                                 143198298.790 3
                                                
  23950876.785 6                                                 125862689.024 6
  98074872.43447                                  23950883.58347
  20156886.774 7  20156894.327 9  20156889.566 9                 105925108.498 7
  82539119.925 9  79100063.741 9                
  24472062.694 1  24472076.214 8                                 128601553.71211
 100209068.618 8                                
  23203453.665 6                                                 121934978.734 6
  95014302.81447                                  23203461.31747
  21389831.461 6  21389839.647 9  21389838.360 9                 112404276.806 6
  87587822.887 9  83938211.719 9                
  22368264.907 3  22368276.274 9  22368272.535 9                 117545979.765 3
  91594349.312 9  87777769.567 9                
  23736032.632 5  23736043.449 9  23736044.581 9                 124733631.410 5
  97195154.249 9  93145348.151 9                
  21097649.650 7  21097657.918 9  21097653.537 9                 110868851.891 7
  86391397.017 9  82791724.611 9                
  20541582.789 3                                                 109613811.583 3
                                                
  19579831.193 8  19579833.721 9                                 104812369.971 8
  81520745.455 9                                
  22355490.747 6  22355494.143 9                                 119712656.729 6
  93109878.442 9                                
  21853075.158 6  21853081.242 9                                 116694245.231 6
  90762228.530 9                                
  20952977.682 8  20952983.232 9                                 111927052.086 8
  87054564.681 9                                
  20763978.641 7  20763982.312 9                                 110839520.790 7
  86208465.922 9                                
  21315531.888 7                                                 114023735.099 7
                                                
 23  9 21 18 52 45.0000000  0 21E03E05E08E13E15E25G02G10G12G21G23G24
                                G28G32R06R07R08R09R16R22R23
  23271304.021 7                                                 122291530.251 7
                                                
  26341169.632 5                                                 138423772.162 5
                                                
  24491733.079 7                                                 128704932.631 7
                                                
  24594488.864 6                                                 129244914.477 6
                                                
  24468208.764 7                                                 128581297.973 7
                                                
  27241019.577 4                                                 143152535.249 4
                                                
  23942742.712 6                                                 125819945.005 6
  98041565.41847                                  23942749.45947
  20155104.920 8  20155112.431 9  20155107.640 9                 105915744.547 8
  82531823.326 9  79093071.170 9                
  24463237.918 2  24463251.350 8                                 128555179.899 2
 100172933.203 8                                
  23197506.927 6                                                 121903728.583 6
  94989952.04446                                  23197513.69646
  21394919.415 6  21394927.164 9  21394926.642 9                 112431013.325 6
  87608656.505 9  83958177.271 9                
  22374842.491 3  22374854.242 9  22374851.053 9                 117580546.760 3
  91621284.610 9  87803582.540 9                
  23723652.593 5  23723663.329 9  23723664.622 9                 124668575.347 5
  97144461.326 9  93096767.453 9                
  21091718.831 7  21091726.976 9  21091722.637 9                 110837685.104 7
  86367111.220 9  82768450.730 9                
  20546028.714 3                                                 109637537.266 3
                                                
  19575946.982 8  19575949.286 9                                 104791577.190 8
  81504573.305 9                                
  22345639.692 4  22345644.534 9                                 119659907.996 4
  93068851.720 9                                
  21841092.334 6  21841098.392 9                                 116630256.244 6
  90712459.404 9                                
  20950613.617 7  20950618.575 9                                 111914424.384 7
  87044743.146 9                                
  20769809.211 7  20769812.466 9                                 110870642.101 7
  86232671.344 9                                
  21309897.254 7                                                 113993595.485 7
                                                
 23  9 21 18 53  0.0000000  0 22E03E05E08E13E15E25G02G10G12G21G23G24
                                G28G32R06R07R08R09R15R16R22R23
  23271548.248 7                                                 122292814.041 7
                                                
  26346379.221 5                                                 138451148.533 5
                                                
  24485448.188 7                                                 128671904.034 7
                                                
  24590767.036 6                                                 129225357.738 6
                                                
  24472830.695 7                                                 128605588.725 7
                                                
  27232316.290 2                                                 143106798.425 2
                                                
  23934623.792 6                                                 125777279.671 6
  98008319.73547                                  23934630.35247
  20153340.229 8  20153347.576 9  20153342.821 9                 105906470.704 8
  82524596.956 9  79086145.886 9                
  24454425.503 3  24454438.068 8                                 128508865.830 3
 100136844.479 8                                
  23191577.945 6                                                 121872571.650 6
  94965673.96747                                  23191585.19547
  21400020.669 6  21400028.333 9  21400028.188 9                 112457820.306 6
  87629545.069 9  83978195.423 9                
  22381437.563 4  22381448.597 9  22381445.246 9                 117615202.741 4
  91648289.212 9  87829461.931 9                
  23711275.717 5  23711286.921 9  23711287.975 9                 124603536.762 5
  97093782.070 9  93048199.841 9                
  21085800.094 7  21085808.227 9  21085803.889 9                 110806581.602 7
  86342874.737 9  82745224.106 9                
  20550483.795 2                                                 109661312.055 2
                                                
  19572075.580 8  19572078.728 9                                 104770853.731 8
  81488455.062 9                                
  22335792.451 5  22335796.973 9                                 119607175.426 5
  93027837.561 9                                
  21829122.582 6  21829129.312 9                                 116566342.693 6
  90662748.961 9                                
  23389913.689 1                                                 124988572.60911
                                                
  20948285.643 7  20948290.552 9                                 111901988.013 7
  87035070.436 9                                
  20775666.348 7  20775669.849 9                                 110901908.728 7
  86256989.783 9                                
  21304297.991 7                                                 113963640.571 7
                                                
 23  9 21 18 53 15.0000000  0 22E03E05E08E13E15E25G02G10G12G21G23G24
                                G28G32R06R07R08R09R15R16R22R23
  23271801.094 7                                                 122294142.265 7
                                                
  26351589.195 5                                                 138478527.380 5
                                                
  24479170.370 7                                                 128638913.505 7
                                                
  24587064.573 6                                                 129205901.738 6
                                                
  24477467.864 7                                                 128629955.818 7
                                                
  27223617.690 2                                                 143061095.308 2
                                                
  23926521.529 6                                                 125734699.939 6
  97975140.75747                                  23926527.76147
  20151594.190 7  20151601.003 9  20151596.323 9                 105897293.936 7
  82517446.249 9  79079293.112 9                
  24445625.266 1  24445637.616 8                                 128462618.712 1
 100100807.908 8                                
  23185668.049 6                                                 121841514.855 6
  94941473.84646                                  23185674.95846
  21405136.434 6  21405144.292 9  21405143.533 9                 112484704.367 6
  87650493.648 9  83998271.158 9                
  22388050.680 4  22388061.801 9  22388058.249 9                 117649953.922 4
  91675368.060 9  87855412.467 9                
  23698904.202 5  23698915.307 9  23698916.043 9                 124538522.741 5
  97043121.930 9  92999650.551 9                
  21079894.372 7  21079903.059 9  21079898.313 9                 110775548.097 7
  86318692.815 9  82722049.757 9                
  20554950.141 2                                                 109685142.917 2
                                                
  19568218.835 8  19568221.360 9                                 104750206.813 8
  81472396.319 9                                
  22325949.384 4  22325954.343 9                                 119554466.372 4
  92986841.630 9                                
  21817169.071 6  21817175.483 9                                 116502511.946 6
  90613102.899 9                                
  23397107.687 1  23397115.076 7                                 125027012.938 1
  97243273.12817                                
  20945994.304 7  20946000.524 9                                 111889749.632 7
  87025551.722 9                                
  20781552.148 7  20781555.375 9                                 110933326.817 7
  86281426.076 9                                
  21298734.078 6                                                 113933877.681 6
                                                
 23  9 21 18 53 30.0000000  0 22E03E05E08E13E15E25G02G10G12G21G23G24
                                G28G32R06R07R08R09R15R16R22R23
  23272062.262 7                                                 122295515.451 7
                                                
  26356800.380 4                                                 138505909.177 4
                                                
  24472899.666 7                                                 128605961.637 7
                                                
  24583381.523 6                                                 129186547.183 6
                                                
  24482119.587 7                                                 128654399.675 7
                                                
  27214927.221 1                                                 143015426.710 1
                                                
  23918435.121 6                                                 125692206.770 6
  97942029.21947                                  23918441.50747
  20149866.559 8  20149873.385 9  20149868.575 9                 105888215.172 8
  82510371.908 9  79072513.517 9                
  24436837.181 1  24436850.101 8                                 128416439.557 1
 100064824.182 8                                
  23179777.339 6                                                 121810559.011 6
  94917352.45447                                  23179783.69047
  21410267.236 6  21410274.935 9  21410274.342 9                 112511665.968 6
  87671502.646 9  84018404.787 9                
  22394681.903 5  22394692.899 9  22394689.227 9                 117684800.657 5
  91702521.298 9  87881434.310 9                
  23686537.087 5  23686547.968 8  23686548.901 9                 124473534.142 5
  96992481.600 8  92951120.273 9                
  21074002.310 7  21074010.866 9  21074006.542 9                 110744585.224 7
  86294565.908 9  82698928.142 9                
  20559426.835 2                                                 109709030.120 2
                                                
  19564376.169 8  19564378.289 9                                 104729636.889 8
  81456397.494 9                                
  22316110.372 5  22316115.122 9                                 119501781.126 5
  92945864.287 9                                
  21805231.896 6  21805237.658 9                                 116438765.092 6
  90563522.073 9                                
  23404324.841 1  23404330.937 7                                
  97273264.436 7                                
  20943740.590 7  20943745.542 9                                 111877710.280 7
  87016187.771 9                                
  20787466.242 7  20787469.991 9                                 110964896.697 7
  86305980.386 9                                
  21293206.466 6                                                 113904307.389 6
                                                
 23  9 21 18 53 45.0000000  0 22E03E05E08E13E15E25G02G10G12G21G23G24
                                G28G32R06R07R08R09R15R16R22R23
  23272330.857 7                                                 122296926.394 7
                                                
  26362010.330 5                                                 138533286.832 5
                                                
  24466635.146 7                                                 128573041.323 7
                                                
  24579716.332 6                                                 129167287.049 6
                                                
  24486784.302 7                                                 128678913.002 7
                                                
  27206242.774 2                                                 142969785.774 2
                                                
  23910364.126 6                                                 125649793.277 6
  97908979.78147                                  23910371.41947
  20148155.900 8  20148163.275 9  20148158.383 9                 105879227.162 8
  82503368.237 9  79065801.684 9                
  24428060.339 1  24428073.655 8                                 128370321.66211
 100028888.216 8                                
  23173904.571 6                                                 121779696.912 6
  94893304.09346                                  23173911.60046
  21415411.242 6  21415418.702 9  21415418.538 9                 112538697.903 6
  87692566.471 9  84038590.950 9                
  22401329.969 5  22401340.654 8  22401337.435 9                 117719735.415 5
  91729743.126 8  87907521.896 9                
  23674173.570 4  23674184.443 9  23674185.529 9                 124408564.158 4
  96941855.769 9  92902603.866 9                
  21068122.397 7  21068130.724 9  21068126.466 9                 110713685.869 7
  86270488.511 9  82675853.980 9                
  20563912.586 3                                                 109732966.445 3
                                                
  19560546.335 8  19560548.835 9                                 104709136.655 8
  81440452.892 9                                
  22306274.555 5  22306279.725 9                                 119449112.530 5
  92904899.913 9                                
  21793308.317 6  21793314.090 9                                 116375095.475 6
  90514001.335 9                                
                  23411569.847 8                                
  97303343.385 8                                
  20941522.367 7  20941528.077 9                                 111865862.312 7
  87006972.684 9                                
  20793407.387 7  20793410.294 9                                 110996610.642 7
  86330646.729 9                                
  21287713.262 6                                                 113874922.788 6
                                                
 23  9 21 18 54  0.0000000  0 22E03E05E08E13E15E25G02G10G12G21G23G24
                                G28G32R06R07R08R09R15R16R22R23
  23272606.682 7                                                 122298376.767 7
                                                
  26367219.200 5                                                 138560661.926 5
                                                
  24460376.980 7                                                 128540154.271 7
                                                
  24576069.929 6                                                 129148123.184 6
                                                
  24491462.452 7                                                 128703497.381 7
                                                
  27197563.455 2                                                 142924174.412 2
                                                
  23902308.138 6                                                 125607461.323 6
  97875993.89747                                  23902315.61747
  20146462.975 8  20146470.529 9  20146465.756 9                 105870331.847 8
  82496436.821 9  79059159.082 9                
  24419296.301 2  24419309.916 8                                
  99993001.591 8                                
  23168050.022 6                                                 121748930.637 6
  94869330.39846                                  23168056.42446
  21420568.868 6  21420576.765 9  21420576.059 9                 112565801.861 6
  87713686.376 9  84058830.875 9                
  22407994.447 5  22408005.735 8  22408002.535 9                 117754759.578 5
  91757034.656 8  87933676.262 9                
  23661813.555 5  23661824.866 9  23661825.988 9                 124343614.798 5
  96891246.005 9  92854102.866 9                
  21062254.769 7  21062263.420 9  21062258.779 9                 110682851.810 7
  86246461.985 9  82652828.561 9                
  20568407.735 3                                                 109756953.592 3
                                                
  19556730.305 8  19556732.750 9                                 104688708.231 8
  81424564.147 9                                
  22296443.155 5  22296447.578 9                                 119396462.316 5
  92863949.793 9                                
  21781400.322 6  21781406.254 9                                 116311505.522 6
  90464542.561 9                                
                  23418825.410 7                                
  97333510.902 7                                
  20939340.526 7  20939346.555 9                                 111854207.931 7
  86997908.193 9                                
  20799375.424 7  20799379.263 9                                 111028469.887 7
  86355426.121 9                                
  21282254.746 6                                                 113845725.956 6
                                                
 23  9 21 18 54 15.0000000  0 22E03E05E08E13E15E25G02G10G12G21G23G24
                                G28G32R06R07R08R09R15R16R22R23
  23272890.792 7                                                 122299869.855 7
                                                
  26372428.293 5                                                 138588037.822 5
                                                
  24454125.802 7                                                 128507303.907 7
                                                
  24572442.216 6                                                 129129059.093 6
                                                
  24496154.941 7                                                 128728156.001 7
                                                
  27188890.012 2                                                 142878596.353 2
                                                
  23894269.065 6                                                 125565214.683 6
  97843074.46947                                  23894276.84847
  20144788.929 7  20144796.048 9  20144791.314 9                 105861532.785 7
  82489580.390 9  79052588.335 9                
  24410545.805 1  24410558.998 8                                 128278279.28911
  99957167.212 8                                
  23162214.063 6                                                 121718263.822 6
  94845434.22347                                  23162220.82047
  21425740.840 6  21425748.804 9  21425748.149 9                 112592981.086 6
  87734864.978 9  84079127.021 9                
  22414677.246 5  22414687.463 8  22414685.128 9                 117789876.157 5
  91784398.189 8  87959899.640 9                
  23649459.080 4  23649469.855 9  23649471.161 9                 124278689.704 4
  96840655.166 9  92805620.023 9                
  21056400.135 7  21056408.930 9  21056404.236 9                 110652086.444 7
  86222488.986 9  82629854.445 9                
  20572912.736 3                                                 109780994.851 3
                                                
  19552928.340 8  19552930.650 9                                 104668354.882 8
  81408733.757 9                                
  22286614.730 6  22286618.990 9                                 119343834.097 6
  92823016.771 9                                
  21769506.833 6  21769513.218 9                                 116247999.131 6
  90415148.795 9                                
  23426098.520 3  23426106.822 8                                 125181942.93713
  97363769.067 8                                
  20937196.022 7  20937201.262 9                                 111842750.499 7
  86988996.858 9                                
  20805371.565 7  20805375.380 9                                 111060477.487 7
  86380320.885 9                                
  21276832.095 7                                                 113816720.478 7
                                                
 23  9 21 18 54 30.0000000  0 22E03E05E08E13E15E25G02G10G12G21G23G24
                                G28G32R06R07R08R09R15R16R22R23
  23273182.785 7                                                 122301403.015 7
                                                
  26377637.598 5                                                 138615411.837 5
                                                
  24447881.010 7                                                 128474487.629 7
                                                
  24568832.775 6                                                 129110092.258 6
                                                
  24500861.061 7                                                 128752886.090 7
                                                
  27180222.559 1                                                 142833049.317 1
                                                
  23886245.639 5                                                 125523051.004 5
  97810219.74447                                  23886252.87347
  20143132.428 7  20143139.445 9  20143134.852 9                 105852827.362 7
  82482796.942 9  79046087.532 9                
  24401807.351 1  24401820.038 8                                 128232356.515 1
  99921383.304 8                                
  23156397.168 6                                                 121687693.900 6
  94821613.53046                                  23156403.58746
  21430926.664 6  21430935.039 9  21430933.950 9                 112620232.901 6
  87756100.144 9  84099477.373 9                
  22421376.603 5  22421387.643 8  22421384.335 9                 117825082.255 5
  91811831.458 8  87986189.839 9                
  23637108.459 4  23637119.179 9  23637120.368 9                 124213786.712 4
  96790081.530 9  92757153.654 9                
  21050558.448 7  21050567.310 9  21050562.584 9                 110621387.227 7
  86198567.537 9  82606929.720 9                
  20577427.360 2                                                 109805087.541 2
                                                
  19549139.454 8  19549142.114 9                                 104648073.936 8
  81392959.679 9                                
  22276790.038 6  22276794.640 9                                 119291225.660 6
  92782099.188 9                                
  21757629.899 6  21757635.966 9                                 116184574.294 6
  90365818.441 9                                
  23433401.140 3  23433408.827 8                                 125220960.203 3
  97394115.776 8                                
  20935087.197 7  20935093.496 9                                 111831487.535 7
  86980236.793 9                                
  20811395.126 7  20811398.303 9                                 111092630.248 7
  86405328.531 9                                
  21271445.620 6                                                 113787903.835 6
                                                
 23  9 21 18 54 45.0000000  0 22E03E05E08E13E15E25G02G10G12G21G23G24
                                G28G32R06R07R08R09R15R16R22R23
  23273481.675 7                                                 122302973.448 7
                                                
  26382846.058 5                                                 138642781.210 5
                                                
  24441642.209 7                                                 128441702.756 7
                                                
  24565241.432 6                                                 129091220.113 6
                                                
  24505580.204 7                                                 128777684.777 7
                                                
  27171560.251 1                                                 142787530.760 1
                                                
  23878237.306 6                                                 125480967.956 6
  97777427.80447                                  23878244.20047
  20141493.082 8  20141500.099 9  20141495.449 9                 105844213.036 8
  82476084.477 9  79039654.746 9                
  24393080.293 1  24393092.681 8                                 128186496.338 1
  99885648.188 8                                
  23150597.574 6                                                 121657218.432 6
  94797866.41147                                  23150604.15747
  21436125.736 6  21436133.928 9  21436133.255 9                 112647554.538 6
  87777389.686 9  84119879.856 9                
  22428092.517 4  22428103.292 8  22428100.562 9                 117860374.741 4
  91839332.038 8  88012544.561 9                
  23624761.524 5  23624772.450 9  23624773.307 9                 124148903.375 5
  96739523.165 9  92708701.933 9                
  21044728.674 7  21044737.537 9  21044732.689 9                 110590751.473 7
  86174695.530 9  82584052.388 9                
  20581951.896 2                                                 109829228.787 2
                                                
  19545363.919 8  19545366.096 9                                 104627862.784 8
  81377239.867 9                                
  22266969.347 6  22266974.063 9                                 119238634.047 6
  92741194.653 9                                
  21745766.643 6  21745772.912 9                                 116121228.546 6
  90316549.622 9                                
  23440723.506 1  23440731.858 8                                 125260087.787 1
  97424548.410 8                                
  20933014.966 7  20933020.467 9                                 111820416.133 7
  86971625.664 9                                
  20817444.823 7  20817448.185 9                                 111124924.942 7
  86430446.619 9                                
  21266093.878 7                                                 113759273.830 7
                                                
 23  9 21 18 55  0.0000000  0 22E03E05E08E13E15E25G02G10G12G21G23G24
                                G28G32R06R07R08R09R15R16R22R23
  23273787.693 7                                                 122304580.433 7
                                                
  26388053.382 5                                                 138670145.222 5
                                                
  24435409.391 7                                                 128408948.586 7
                                                
  24561667.943 6                                                 129072442.084 6
                                                
  24510311.803 7                                                 128802551.224 7
                                                
  27162903.107 1                                                 142742040.36411
                                                
  23870244.593 6                                                 125438965.188 6
  97744698.36147                                  23870250.22647
  20139871.083 8  20139878.001 9  20139873.467 9                 105835689.088 8
  82469442.450 9  79033289.464 9                
  24384364.752 1  24384377.061 8                                 128140698.52911
  99849961.679 8                                
  23144816.199 6                                                 121626836.812 6
  94774192.44246                                  23144822.65446
  21441337.928 6  21441346.280 9  21441345.408 9                 112674945.201 6
  87798733.041 9  84140333.895 9                
  22434824.838 4  22434835.932 8  22434833.007 9                 117895752.672 4
  91866899.220 8  88038963.078 9                
  23612418.036 5  23612428.770 9  23612430.118 9                 124084039.265 5
  96688979.872 9  92660264.609 9                
  21038910.683 7  21038919.594 9  21038914.902 9                 110560178.505 7
  86150872.473 9  82561221.957 9                
  20586484.693 2                                                 109853417.910 2
                                                
  19541601.265 8  19541603.161 9                                 104607720.919 8
  81361574.008 9                                
  22257150.586 6  22257155.124 9                                 119186058.332 6
  92700302.472 9                                
  21733919.383 6  21733925.321 9                                 116057962.002 6
  90267342.395 9                                
  23448064.687 2  23448072.718 7                                 125299324.518 2
  97455065.993 7                                
  20930977.912 7  20930983.853 9                                 111809535.972 7
  86963163.331 9                                
  20823521.068 7  20823524.135 9                                 111157360.474 7
  86455674.229 9                                
  21260776.661 7                                                 113730830.008 7
                                                
 23  9 21 18 55 15.0000000  0 21E03E05E08E13E15G02G10G12G21G23G24G28
                                G32R06R07R08R09R15R16R22R23
  23274101.734 7                                                 122306231.306 7
                                                
  26393261.365 5                                                 138697511.223 5
                                                
  24429183.724 7                                                 128376232.566 7
                                                
  24558114.322 6                                                 129053765.707 6
                                                
  24515058.095 7                                                 128827492.664 7
                                                
  23862268.061 6                                                 125397049.913 6
  97712037.13747                                  23862274.01447
  20138267.550 8  20138274.520 9  20138270.095 9                 105827263.323 8
  82462876.910 9  79026997.486 9                
  24375662.455 1  24375675.560 8                                 128094970.974 1
  99814329.845 8                                
  23139054.142 6                                                 121596556.833 6
  94750597.68546                                  23139060.46446
  21446565.283 6  21446573.035 9  21446572.232 9                 112702412.220 6
  87820135.889 9  84160844.954 9                
  22441574.678 4  22441585.359 8  22441582.554 9                 117931223.076 4
  91894538.465 8  88065450.642 9                
  23600079.802 5  23600090.838 9  23600091.852 9                 124019202.147 5
  96638457.593 9  92611847.429 9                
  21033106.358 7  21033114.800 9  21033110.276 9                 110529675.833 7
  86127104.155 9  82538444.001 9                
  20591028.019 2                                                 109877662.220 2
                                                
  19537852.578 8  19537854.735 9                                 104587655.451 8
  81345967.515 9                                
  22247337.414 5  22247342.034 9                                 119133506.568 5
  92659428.953 9                                
  21722086.834 6  21722094.581 9                                 115994782.609 6
  90218202.948 9                                
  23455428.392 1  23455442.780 7                                 125338677.845 1
  97485674.26117                                
  20928978.515 7  20928984.246 9                                 111798854.429 7
  86954855.464 9                                
  20829625.181 7  20829628.230 9                                 111189943.975 7
  86481016.914 9                                
  21255494.973 6                                                 113702580.011 6
                                                
 23  9 21 18 55 30.0000000  0 21E03E05E08E13E15G02G10G12G21G23G24G28
                                G32R06R07R08R09R15R16R22R23
  23274423.877 7                                                 122307925.079 7
                                                
  26398469.360 5                                                 138724878.274 5
                                                
  24422964.897 7                                                 128343553.804 7
                                                
  24554579.338 6                                                 129035190.144 6
                                                
  24519818.414 7                                                 128852508.021 7
                                                
  23854308.563 5                                                 125355221.854 5
  97679443.85747                                  23854314.84747
  20136682.635 8  20136689.873 9  20136684.948 9                 105818934.952 8
  82456387.277 9  79020778.257 9                
  24366974.341 1  24366987.316 8                                 128049313.066 1
  99778752.330 8                                
  23133310.836 6                                                 121566377.365 6
  94727081.23346                                  23133317.49946
  21451806.059 6  21451813.695 9  21451813.475 9                 112729954.614 6
  87841597.470 9  84181412.287 9                
  22448342.105 3  22448353.162 8  22448349.745 9                 117966784.667 3
  91922248.702 8  88092006.337 9                
  23587746.653 5  23587757.399 9  23587758.538 9                 123954391.421 5
  96587955.852 9  92563449.959 9                
  21027314.905 7  21027323.904 9  21027318.905 9                 110499242.526 7
  86103389.899 9  82515717.849 9                
  20595581.936 2                                                 109901960.837 2
                                                
  19534118.833 8  19534120.895 9                                 104567666.122 8
  81330420.284 9                                
  22237527.639 6  22237532.971 9                                 119080977.839 6
  92618573.316 9                                
  21710272.412 6  21710278.148 9                                 115931690.081 6
  90169131.038 9                                
  23462814.516 1                                                 125378146.136 1
                                                
  20927015.743 7  20927021.757 9                                 111788370.654 7
  86946701.458 9                                
  20835756.909 7  20835760.257 9                                 111222673.931 7
  86506473.487 9                                
  21250250.082 6                                                 113674523.128 6
                                                
 23  9 21 18 55 45.0000000  0 21E03E05E08E13E15G02G10G12G21G23G24G28
                                G32R06R07R08R09R15R16R22R23
  23274754.738 7                                                 122309662.989 7
                                                
  26403677.551 5                                                 138752247.545 5
                                                
  24416753.851 7                                                 128310913.595 7
                                                
  24551064.277 6                                                 129016716.857 6
                                                
  24524592.804 6                                                 128877598.431 6
                                                
  23846365.919 6                                                 125313482.404 6
  97646919.69346                                  23846371.74746
  20135116.405 8  20135123.827 9  20135118.910 9                 105810705.176 8
  82449974.454 9  79014632.633 9                
  24358300.025 1  24358312.549 8                                 128003726.643 1
  99743230.482 8                                
  23127587.547 6                                                 121536300.211 6
  94703644.51546                                  23127594.35646
  21457062.050 6  21457069.804 9  21457069.470 9                 112757573.595 6
  87863118.723 9  84202036.805 9                
  22455126.581 3  22455137.515 8  22455134.592 9                 118002438.436 3
  91950030.871 8  88118630.858 9                
  23575418.408 6  23575429.125 9  23575430.494 9                 123889608.682 6
  96537475.904 9  92515073.385 9                
  21021537.406 7  21021546.089 9  21021541.086 9                 110468879.963 7
  86079730.748 9  82493044.506 9                
  20600145.348 2                                                 109926315.034 2
                                                
  19530399.024 8  19530400.942 9                                 104547753.815 8
  81314932.957 9                                
  22227723.044 6  22227727.342 9                                 119028473.215 6
  92577736.439 9                                
  21698473.563 6  21698479.848 9                                 115868686.180 6
  90120128.108 9                                
  23470222.377 1                                                 125417730.286 1
                                                
  20925090.835 7  20925096.761 9                                 111778086.220 7
  86938702.447 9                                
  20841915.586 7  20841919.463 9                                 111255551.244 7
  86532044.688 9                                
  21245041.233 6                                                 113646660.971 6
                                                
 23  9 21 18 56  0.0000000  0 22E03E05E08E13E15E25G02G10G12G21G23G24
                                G28G32R06R07R08R09R15R16R22R23
  23574885.541 7                                                 123886861.329 7
                                                
  26708676.692 4                                                 140355033.688 4
                                                
  24710342.050 7                                                 129853730.609 7
                                                
  24847360.083 6                                                 130573763.589 6
                                                
  24829173.240 7                                                 130478178.520 7
                                                
  27428138.144 1                                                 144135837.39411
                                                
  24138232.354 6                                                 126847251.199 6
  98842064.21847                                  24138238.34847
  20433361.140 7  20433368.362 9  20433363.561 9                 107377991.305 7
  83671236.384 9  80185008.645 9                
  24649431.541 3  24649443.573 8                                 129533631.32313
 100935364.159 8                                
  23421675.580 6                                                 123081744.199 6
  95907886.61947                                  23421681.97647
  21762123.948 6  21762131.684 9  21762131.493 9                 114360683.667 6
  89112295.360 9  85399164.425 9                
  22761720.454 2  22761730.639 8  22761728.146 9                 119613598.144 2
  93205479.901 8  89321769.546 9                
  23862888.891 6  23862899.635 9  23862900.340 9                 125400275.036 6
  97714618.594 9  93643168.525 9                
  21315565.095 7  21315573.941 9  21315569.194 9                 112014006.635 7
  87283725.584 9  83646872.887 9                
  20904511.163 2                                                 111550469.430 2
                                                
  19826485.969 8  19826487.418 9                                 106132729.160 8
  82547691.523 9                                
  22517715.383 6  22517719.832 9                                 120581368.269 6
  93785543.715 9                                
  21986484.450 6  21986490.087 9                                 117406647.290 6
  91316320.149 9                                
  23777442.156 3                                                 127059423.354 3
                                                
  21222994.946 7  21223000.268 9                                 113369435.507 7
  88176418.579 9                                
  21147893.493 7  21147897.220 9                                 112888882.171 7
  87802413.186 9                                
  21539661.689 6                                                 115222679.701 6
                                                
 23  9 21 18 56 15.0000000  0 21E03E05E08E13E15E25G02G10G12G21G23G24
                                G28G32R06R07R08R09R16R22R23
  23575232.760 7                                                 123888686.430 7
                                                
  26713885.959 4                                                 140382406.396 4
                                                
  24704145.544 7                                                 129821166.683 7
                                                
  24843883.869 6                                                 130555494.195 6
                                                
  24833975.732 7                                                 130503417.633 7
                                                
  27419516.935 2                                                 144090527.993 2
                                                
  24130323.065 6                                                 126805689.123 6
  98809678.20547                                  24130329.60347
  20431832.552 8  20431839.964 9  20431834.992 9                 107369958.521 8
  83664977.051 9  80179010.120 9                
  24640784.172 3  24640795.669 7                                 129488187.697 3
 100899953.683 7                                
  23415991.115 6                                                 123051871.393 6
  95884609.11846                                  23415997.44346
  21767408.143 6  21767416.136 9  21767416.248 9                 114388454.638 6
  89133935.041 9  85419902.445 9                
  22768539.475 1  22768550.435 8  22768548.270 9                 119649434.313 1
  93233404.164 8  89348530.295 9                
  23850571.755 6  23850582.289 9  23850583.149 9                 125335548.339 6
  97664182.305 9  93594833.773 9                
  21309813.949 7  21309822.906 9  21309818.096 9                 111983784.696 7
  87260176.026 9  83624304.587 9                
  20909095.706 2                                                 111574933.595 2
                                                
  19822794.286 8  19822796.358 9                                 106112970.429 8
  82532323.643 9                                
  22507918.731 6  22507923.709 9                                 120528911.786 6
  93744744.316 9                                
  21974719.051 6  21974724.849 9                                 117343821.674 6
  91267455.897 9                                
  21221143.549 7  21221149.855 9                                 113359548.808 7
  88168728.921 9                                
  21154107.400 7  21154110.747 9                                 112922051.887 7
  87828211.800 9                                
  21534525.967 7                                                 115195206.883 7
                                                
 23  9 21 18 56 30.0000000  0 21E03E05E08E13E15E25G02G10G12G21G23G24
                                G28G32R06R07R08R09R16R22R23
  23575588.959 7                                                 123890558.679 7
                                                
  26719096.095 4                                                 140409784.369 4
                                                
  24697956.797 7                                                 129788644.556 7
                                                
  24840427.378 6                                                 130537330.582 6
                                                
  24838793.744 6                                                 130528734.450 6
                                                
  27410902.521 3                                                 144045259.310 3
                                                
  24122431.477 6                                                 126764219.658 6
  98777364.42747                                  24122438.44347
  20430323.810 8  20430330.519 9  20430325.952 9                 107362028.059 8
  83658797.469 9  80173088.016 9                
  24632150.674 1  24632162.052 7                                 129442819.834 1
 100864602.191 7                                
  23410326.730 6                                                 123022104.563 6
  95861414.23646                                  23410333.28146
  21772708.271 6  21772715.672 9  21772715.984 9                 114416305.107 6
  89155636.684 9  85440699.842 9                
  22775377.192 1  22775387.070 8  22775385.248 9                 119685364.825 1
  93261401.886 8  89375361.443 9                
  23838260.464 6  23838270.985 8  23838272.409 9                 125270853.709 6
  97613771.043 8  93546522.989 9                
  21304076.782 7  21304086.175 9  21304080.726 9                 111953636.786 7
  87236684.174 9  83601791.539 9                
  20913691.583 2                                                 111599456.239 2
                                                
  19819118.653 8  19819120.741 9                                 106093292.343 8
  82517018.470 9                                
  22498128.380 6  22498133.729 9                                 120476483.100 6
  93703966.498 9                                
  21962971.135 6  21962977.123 9                                 117281089.628 6
  91218664.379 9                                
  21219330.809 7  21219336.317 9                                 113349864.639 7
  88161196.789 9                                
  21160348.986 7  21160352.747 9                                 112955370.733 7
  87854126.420 9                                
  21529427.950 7                                                 115167932.878 7
                                                
 23  9 21 18 56 45.0000000  0 21E03E05E08E13E15E25G02G10G12G21G23G24
                                G28G32R06R07R08R09R16R22R23
  23575954.067 7                                                 123892476.431 7
                                                
  26724306.869 5                                                 140437166.023 5
                                                
  24691775.588 7                                                 129756162.661 7
                                                
  24836990.705 6                                                 130519271.278 6
                                                
  24843625.823 7                                                 130554127.275 7
                                                
  27402293.904 2                                                 144000030.004 2
                                                
  24114557.762 6                                                 126722841.609 6
  98745121.82047                                  24114564.40747
  20428833.659 8  20428840.759 9  20428836.052 9                 107354198.371 8
  83652696.416 9  80167241.177 9                
  24623532.514 1  24623542.225 7                                 129397526.539 1
 100829308.771 7                                
  23404682.230 6                                                 122992442.269 6
  95838300.76047                                  23404688.75047
  21778022.515 6  21778030.515 9  21778030.244 9                 114444233.416 6
  89177398.960 9  85461555.366 9                
  22782232.512 1  22782241.947 8  22782240.029 9                 119721387.763 1
  93289471.589 8  89402261.600 9                
  23825955.482 6  23825965.974 9  23825967.283 9                 125206189.936 6
  97563383.827 9  93498235.247 9                
  21298353.735 7  21298362.934 9  21298357.579 9                 111923561.355 7
  87213248.782 9  83579332.621 9                
  20918298.176 2                                                 111624035.694 2
                                                
  19815457.195 8  19815459.522 9                                 106073693.278 8
  82501774.771 9                                
  22488342.496 5  22488347.896 9                                 120424080.974 5
  93663209.339 9                                
  21951240.890 6  21951246.639 9                                 117218450.271 6
  91169944.960 9                                
  21217555.642 7  21217561.307 9                                 113340381.561 7
  88153821.063 9                                
  21166618.496 7  21166621.974 9                                 112988836.804 7
  87880155.548 9                                
  21524365.965 6                                                 115140856.219 6
                                                
 23  9 21 18 57  0.0000000  0 21E03E05E08E13E15E25G02G10G12G21G23G24
                                G28G32R06R07R08R09R16R22R23
  23576326.681 7                                                 123894435.149 7
                                                
  26729517.366 5                                                 140464546.835 5
                                                
  24685601.392 7                                                 129723716.548 7
                                                
  24833572.534 6                                                 130501311.913 6
                                                
  24848471.189 6                                                 130579591.450 6
                                                
  27393692.837 1                                                 143954835.976 1
                                                
  24106700.141 6                                                 126681550.762 6
  98712947.15947                                  24106706.62847
  20427362.344 7  20427369.251 9  20427364.402 9                 107346465.325 7
  83646670.675 9  80161466.504 9                
  24614927.298 1  24614936.003 7                                 129352303.73211
 100794070.290 7                                
  23399056.605 6                                                 122962880.273 6
  95815265.48047                                  23399062.86247
  21783351.170 6  21783358.750 9  21783359.006 9                 114472235.030 6
  89199218.373 9  85482465.623 9                
  22789103.588 1  22789114.543 7  22789111.658 9                 119757498.222 1
  93317609.626 7  89429227.193 9                
  23813655.663 5  23813665.558 8  23813667.239 9                 125141552.880 5
  97513017.405 8  93449967.446 9                
  21292643.675 7  21292652.544 9  21292647.276 9                 111893553.965 7
  87189866.424 9  83556924.531 9                
  20922913.766 3                                                 111648667.534 3
                                                
  19811809.944 8  19811812.025 9                                 106054168.883 8
  82486589.145 9                                
  22478561.209 5  22478565.515 9                                 120371700.659 5
  93622469.126 9                                
  21939527.263 6  21939532.876 9                                 117155899.448 6
  91121294.371 9                                
  21215817.364 7  21215822.645 9                                 113331094.902 7
  88146598.102 9                                
  21172914.560 7  21172918.058 9                                 113022444.994 7
  87906295.204 9                                
  21519340.283 6                                                 115113972.669 6
                                                
 23  9 21 18 57 15.0000000  0 21E03E05E08E13E15E25G02G10G12G21G23G24
                                G28G32R06R07R08R09R16R22R23
  23576707.966 7                                                 123896437.297 7
                                                
  26734728.902 5                                                 140491929.205 5
                                                
  24679434.201 7                                                 129691308.768 7
                                                
  24830174.852 6                                                 130483455.126 6
                                                
  24853331.113 6                                                 130605129.329 6
                                                
  27385100.525 1                                                 143909679.953 1
                                                
  24098859.957 6                                                 126640349.865 6
  98680842.59847                                  24098865.70247
  20425909.244 8  20425916.354 9  20425911.620 9                 107338831.163 8
  83640721.979 9  80155765.659 9                
  24606334.833 3  24606345.634 7                                 129307154.295 3
 100758889.077 7                                
  23393450.921 6                                                 122933421.258 6
  95792310.40347                                  23393457.44347
  21788694.004 6  21788702.348 9  21788702.046 9                 114500312.385 6
  89221096.794 9  85503432.429 9                
  22795992.316 1  22796002.853 8  22796000.235 9                 119793698.446 1
  93345817.640 8  89456259.815 9                
  23801360.756 6  23801371.500 8  23801372.547 9                 125076945.381 6
  97462673.980 8  93401721.721 9                
  21286946.828 7  21286956.104 9  21286950.572 9                 111863617.206 7
  87166539.080 9  83534569.168 9                
  20927540.618 2                                                 111673354.092 2
                                                
  19808176.913 8  19808178.746 9                                 106034721.610 8
  82471463.465 9                                
  22468784.290 6  22468788.266 9                                 120319344.951 6
  93581748.073 9                                
  21927830.375 6  21927836.973 9                                 117093440.348 6
  91072715.170 9                                
  21214115.848 7  21214121.640 9                                 113322007.466 7
  88139530.141 9                                
  21179237.031 7  21179241.288 9                                 113056197.441 7
  87932547.081 9                                
  21514350.937 6                                                 115087284.995 6
                                                
 23  9 21 18 57 30.0000000  0 21E03E05E08E13E15E25G02G10G12G21G23G24
                                G28G32R06R07R08R09R16R22R23
  23577097.332 7                                                 123898484.456 7
                                                
  26739938.855 5                                                 140519314.838 5
                                                
  24673274.515 7                                                 129658940.956 7
                                                
  24826796.917 7                                                 130465702.641 7
                                                
  24858205.298 6                                                 130630742.361 6
                                                
  27376516.114 2                                                 143864563.926 2
                                                
  24091037.437 6                                                 126599240.935 6
  98648809.69147                                  24091043.39247
  20424475.737 8  20424482.886 9  20424478.125 9                 107331297.912 8
  83634851.909 9  80150140.162 9                
  24597757.200 2  24597769.212 8                                 129262080.582 2
 100723766.735 8                                
  23387865.127 6                                                 122904067.102 6
  95769437.03346                                  23387871.68146
  21794051.914 6  21794059.772 9  21794059.599 9                 114528466.995 6
  89243035.445 9  85524456.954 9                
  22802898.456 1  22802909.760 8  22802906.909 9                 119829989.718 1
  93374096.497 8  89483360.454 9                
  23789072.491 6  23789082.557 8  23789083.977 9                 125012369.328 6
  97412355.087 8  93353499.499 9                
  21281263.946 7  21281272.927 9  21281267.576 9                 111833752.716 7
  87143268.057 9  83512267.778 9                
  20932176.947 2                                                 111698097.146 2
                                                
  19804558.917 8  19804560.383 9                                 106015353.400 8
  82456399.303 9                                
  22459011.747 6  22459016.169 9                                 120267015.559 6
  93541047.504 9                                
  21916151.954 6  21916157.043 9                                 117031075.100 6
  91024208.958 9                                
  21212452.087 7  21212457.882 9                                 113313121.037 7
  88132618.487 9                                
  21185587.833 7  21185591.289 9                                 113090095.287 7
  87958912.022 9                                
  21509398.648 6                                                 115060795.008 6
                                                
 23  9 21 18 57 45.0000000  0 21E03E05E08E13E15E25G02G10G12G21G23G24
                                G28G32R06R07R08R09R16R22R23
  23577495.854 7                                                 123900577.878 7
                                                
  26745151.185 4                                                 140546704.875 4
                                                
  24667123.391 7                                                 129626614.489 7
                                                
  24823438.787 7                                                 130448055.919 7
                                                
  24863093.774 7                                                 130656431.760 7
                                                
  27367938.657 4                                                 143819489.294 4
                                                
  24083232.078 6                                                 126558225.509 6
  98616849.64847                                  24083238.24447
  20423061.515 8  20423068.804 9  20423063.867 9                 107323867.107 8
  83629061.673 9  80144591.198 9                
  24589194.847 3  24589208.063 8                                 129217084.086 3
 100688704.630 8                                
  23382299.144 6                                                 122874819.262 6
  95746646.53646                                  23382306.79046
  21799424.684 6  21799432.464 9  21799431.961 9                 114556700.150 6
  89265035.275 9  85545540.116 9                
  22809821.953 3  22809833.589 8  22809829.965 8                 119866373.102 3
  93402447.139 8  89510529.759 8                
  23776790.382 5  23776800.178 9  23776801.388 9                 124947826.369 5
  97362062.014 9  93305301.976 9                
  21275594.506 7  21275604.174 9  21275598.205 9                 111803961.868 7
  87120054.439 9  83490021.389 9                
  20936825.008 2                                                 111722897.794 2
                                                
  19800955.565 8  19800957.447 9                                 105996065.375 8
  82441397.513 9                                
  22449245.042 5  22449249.881 9                                 120214713.751 5
  93500368.398 9                                
  21904490.672 6  21904496.134 9                                 116968805.842 6
  90975777.370 9                                
  21210826.778 7  21210832.219 9                                 113304436.841 7
  88125864.101 9                                
  21191965.270 7  21191968.663 9                                 113124139.396 7
  87985390.739 9                                
  21504484.463 6                                                 115034504.466 6
                                                
 23  9 21 18 58  0.0000000  0 21E03E05E08E13E15E25G02G10G12G21G23G24
                                G28G32R06R07R08R09R16R22R23
  23577902.205 7                                                 123902713.229 7
                                                
  26750363.506 5                                                 140574095.067 5
                                                
  24660978.910 7                                                 129594325.066 7
                                                
  24820099.910 7                                                 130430510.784 7
                                                
  24867995.799 7                                                 130682193.023 7
                                                
  27359368.419 4                                                 143774452.183 4
                                                
  24075444.445 6                                                 126517299.494 6
  98584959.32047                                  24075450.10547
  20421666.457 7  20421673.497 9  20421668.345 9                 107316534.471 7
  83623347.932 9  80139115.518 9                
  24580645.800 1  24580658.242 8                                 129172160.965 1
 100653699.757 8                                
  23376752.904 6                                                 122845673.654 6
  95723935.72347                                  23376759.81247
  21804811.387 6  21804819.362 9  21804818.677 9                 114585007.423 6
  89287092.891 9  85566678.652 9                
  22816762.464 3  22816773.668 8  22816771.111 9                 119902843.846 3
  93430865.857 8  89537764.384 9                
  23764513.372 5  23764523.768 9  23764524.879 9                 124883312.629 5
  97311791.653 9  93257126.224 9                
  21269938.916 7  21269948.485 9  21269942.458 9                 111774240.432 7
  87096894.892 9  83467826.839 9                
  20941481.936 1                                                 111747751.640 1
                                                
  19797366.584 8  19797368.480 9                                 105976853.405 8
  82426454.862 9                                
  22439481.639 5  22439486.613 9                                 120162435.562 5
  93459707.595 9                                
  21892846.387 6  21892851.649 9                                 116906628.594 6
  90927417.400 9                                
  21209237.545 7  21209243.422 9                                 113295950.532 7
  88119263.666 9                                
  21198369.447 7  21198373.327 9                                 113158324.990 7
  88011979.450 9                                
  21499605.800 6                                                 115008409.123 6
                                                
 23  9 21 18 58 15.0000000  0 21E03E05E08E13E15E25G02G10G12G21G23G24
                                G28G32R06R07R08R09R16R22R23
  23578317.199 7                                                 123904893.463 7
                                                
  26755575.933 5                                                 140601488.359 5
                                                
  24654842.312 7                                                 129562075.712 7
                                                
  24816781.262 6                                                 130413070.310 6
                                                
  24872912.276 6                                                 130708028.995 6
                                                
  27350806.594 4                                                 143729455.834 4
                                                
  24067673.791 6                                                 126476466.281 6
  98553141.26447                                  24067680.51347
  20420290.210 7  20420297.619 9  20420292.595 9                 107309303.103 7
  83617713.077 9  80133715.460 9                
  24572111.345 2  24572124.182 8                                 129127314.683 2
 100618754.626 8                                
  23371226.867 5                                                 122816633.521 5
  95701307.07447                                  23371233.39147
  21810212.608 6  21810220.416 9  21810220.129 9                 114613391.771 6
  89309210.549 9  85587874.713 9                
  22823719.607 2  22823731.504 8  22823727.051 8                 119939404.702 2
  93459354.794 8  89565066.257 8                
  23752242.492 5  23752252.899 9  23752254.350 9                 124818831.307 5
  97261546.606 9  93208974.737 9                
  21264296.807 7  21264306.212 9  21264300.589 9                 111744591.442 7
  87073791.780 9  83445686.351 9                
  20946150.327 1                                                 111772661.608 1
                                                
  19793792.647 8  19793793.697 9                                 105957720.419 8
  82411573.644 9                                
  22429724.563 6  22429728.713 9                                 120110183.892 6
  93419067.454 9                                
  21881220.634 6  21881226.796 9                                 116844547.012 6
  90879131.797 9                                
  21207687.087 7  21207692.056 9                                 113287665.299 7
  88112819.588 9                                
  21204800.437 7  21204804.386 9                                 113192654.679 7
  88038680.313 9                                
  21494764.966 7                                                 114982512.090 7
                                                
 23  9 21 18 58 30.0000000  0 21E03E05E08E13E15E25G02G10G12G21G23G24
                                G28G32R06R07R08R09R16R22R23
  23578740.986 7                                                 123907119.902 7
                                                
  26760790.009 5                                                 140628886.093 5
                                                
  24648713.177 7                                                 129529867.872 7
                                                
  24813482.633 7                                                 130395736.062 7
                                                
  24877843.431 7                                                 130733940.910 7
                                                
  27342251.870 4                                                 143684501.932 4
                                                
  24059921.081 6                                                 126435727.525 6
  98521396.79947                                  24059927.39447
  20418933.632 7  20418940.903 9  20418935.790 9                 107302174.403 7
  83612158.257 9  80128392.077 9                
  24563591.647 1  24563604.431 8                                
 100583870.674 8                                
  23365721.029 6                                                 122787700.313 6
  95678761.73847                                  23365727.21547
  21815629.086 6  21815636.835 9  21815636.563 9                 114641854.529 6
  89331389.271 9  85609129.319 9                
  22830694.624 1  22830705.846 8  22830701.256 8                 119976056.690 1
  93487914.771 8  89592436.161 8                
  23739978.581 5  23739989.194 9  23739990.366 9                 124754384.185 5
  97211328.177 9  93160848.784 9                
  21258668.879 7  21258678.298 9  21258672.369 9                 111715016.318 7
  87050746.255 9  83423601.050 9                
  20950829.470 2                                                 111797629.246 2
                                                
  19790233.085 8  19790235.500 9                                 105938668.064 8
  82396755.169 9                                
  22419972.223 6  22419976.377 9                                 120057960.265 6
  93378449.157 9                                
  21869612.982 6  21869618.792 9                                 116782563.177 6
  90830922.206 9                                
  21206173.921 7  21206179.114 9                                 113279582.699 7
  88106533.111 9                                
  21211258.813 7  21211262.525 9                                 113227129.302 7
  88065493.867 9                                
  21489961.399 6                                                 114956815.283 6
                                                
 23  9 21 18 58 45.0000000  0 21E03E05E08E13E15E25G02G10G12G21G23G24
                                G28G32R06R07R08R09R16R22R23
  23579173.548 7                                                 123909394.060 7
                                                
  26766004.650 5                                                 140656289.794 5
                                                
  24642592.473 7                                                 129497703.070 7
                                                
  24810204.304 7                                                 130378509.678 7
                                                
  24882789.194 7                                                 130759930.169 7
                                                
  27333704.495 4                                                 143639592.359 4
                                                
  24052187.440 6                                                 126395084.957 6
  98489727.30747                                  24052194.06047
  20417597.355 7  20417604.167 9  20417599.148 9                 107295150.206 7
  83606684.864 9  80123146.746 9                
  24555088.526 1  24555100.002 7                                 129037859.57811
 100549049.530 7                                
  23360235.715 6                                                 122758875.815 6
  95656301.09847                                  23360242.08947
  21821060.384 6  21821068.283 9  21821068.121 9                 114670397.098 6
  89353630.209 9  85630443.551 9                
  22837686.334 3  22837698.163 8  22837694.287 8                 120012800.920 3
  93516546.694 8  89619875.038 8                
  23727721.508 5  23727732.036 9  23727733.159 9                 124689973.117 5
  97161137.836 9  93112749.758 9                
  21253055.379 7  21253064.805 9  21253058.708 9                 111685516.684 7
  87027759.523 9  83401572.112 9                
  20955519.362 2                                                 111822655.906 2
                                                
  19786689.448 8  19786691.397 9                                 105919697.778 8
  82382000.514 9                                
  22410225.038 6  22410229.826 9                                 120005766.663 6
  93337854.206 9                                
  21858024.363 7  21858029.697 9                                 116720679.134 7
  90782790.244 9                                
  21204699.355 7  21204704.750 9                                 113271704.119 7
  88100405.356 9                                
  21217744.558 7  21217748.788 9                                 113261749.943 7
  88092420.975 9                                
  21485194.924 6                                                 114931320.195 6
                                                
 23  9 21 18 59  0.0000000  0 21E03E05E08E13E15E25G02G10G12G21G23G24
                                G28G32R06R07R08R09R16R22R23
  23579614.594 7                                                 123911712.180 7
                                                
  26771220.277 5                                                 140683695.714 5
                                                
  24636479.110 7                                                 129465577.706 7
                                                
  24806946.158 7                                                 130361387.557 7
                                                
  24887748.383 7                                                 130785992.893 7
                                                
  27325166.696 3                                                 143594723.625 3
                                                
  24044471.073 6                                                 126354535.172 6
  98458130.12747                                  24044477.66747
  20416279.778 7  20416286.811 9  20416281.658 9                 107288226.949 7
  83601290.127 9  80117976.785 9                
  24546600.294 2  24546610.576 7                                
 100514288.574 7                                
  23354770.820 5                                                 122730156.531 5
  95633922.45847                                  23354777.38047
  21826506.320 6  21826514.108 9  21826514.092 9                 114699015.763 6
  89375930.431 9  85651814.590 9                
  22844695.484 2  22844707.010 8  22844702.717 8                 120049633.598 2
  93545247.422 8  89647379.892 8                
  23715470.618 5  23715481.685 9  23715482.265 9                 124625594.747 5
  97110972.972 9  93064675.110 9                
  21247455.671 7  21247464.968 9  21247458.730 9                 111656088.867 7
  87004828.775 9  83379596.813 9                
  20960219.322 2                                                 111847737.798 2
                                                
  19783160.346 8  19783161.442 9                                 105900805.966 8
  82367306.877 9                                
  22400483.265 6  22400487.325 9                                 119953599.035 6
  93297279.407 9                                
  21846453.028 6  21846459.488 9                                 116658891.647 6
  90734733.377 9                                
  21203261.213 7  21203266.775 9                                 113264026.079 7
  88094433.527 9                                
  21224256.500 7  21224260.869 9                                 113296512.630 7
  88119458.583 9                                
  21480465.746 6                                                 114906023.659 6
                                                
 23  9 21 18 59 15.0000000  0 21E03E05E08E13E15E25G02G10G12G21G23G24
                                G28G32R06R07R08R09R16R22R23
  23580064.349 7                                                 123914075.615 7
                                                
  26776436.002 5                                                 140711105.233 5
                                                
  24630373.754 7                                                 129433493.144 7
                                                
  24803708.111 6                                                 130344371.259 6
                                                
  24892722.522 6                                                 130812130.322 6
                                                
  27316636.184 4                                                 143549897.492 4
                                                
  24036772.717 6                                                 126314079.837 6
  98426606.54247                                  24036779.34847
  20414981.432 7  20414988.965 9  20414983.500 9                 107281406.272 7
  83595975.313 9  80112883.424 9                
  24538125.497 3  24538134.235 7                                 128948718.67213
 100479589.229 7                                
  23349326.006 5                                                 122701543.884 5
  95611626.93047                                  23349332.25647
  21831967.072 6  21831974.997 9  21831974.523 9                 114727711.842 6
  89398290.964 9  85673243.443 9                
  22851721.463 2  22851733.305 8  22851729.297 8                 120086555.570 2
  93574017.744 8  89674951.461 8                
  23703226.524 5  23703237.069 9  23703237.915 9                 124561250.779 5
  97060834.915 9  93016626.141 9                
  21241869.477 7  21241878.941 9  21241873.010 9                 111626734.333 7
  86981955.120 9  83357676.235 9                
  20964930.695 2                                                 111872876.374 2
                                                
  19779645.646 8  19779647.798 9                                 105881994.221 8
  82352675.522 9                                
  22390746.289 6  22390750.918 9                                 119901458.970 6
  93256726.088 9                                
  21834900.734 6  21834905.977 9                                 116597202.543 6
  90686753.032 9                                
  21201862.093 7  21201867.207 9                                 113256549.814 7
  88088618.673 9                                
  21230795.709 7  21230800.261 9                                 113331418.165 7
  88146607.278 9                                
  21475775.009 7                                                 114880926.992 7
                                                
 23  9 21 18 59 30.0000000  0 21E03E05E08E13E15E25G02G10G12G21G23G24
                                G28G32R06R07R08R09R16R22R23
  23580523.914 7                                                 123916491.101 7
                                                
  26781653.241 5                                                 140738525.089 5
                                                
  24624277.161 7                                                 129401456.234 7
                                                
  24800491.621 7                                                 130327467.666 7
                                                
  24897711.588 6                                                 130838349.108 6
                                                
  27308115.520 4                                                 143505120.937 4
                                                
  24029093.711 6                                                 126273726.057 6
  98395162.07947                                  24029099.99247
  20413704.709 7  20413711.801 9  20413706.441 9                 107274694.873 7
  83590745.636 9  80107871.662 9                
  24529668.019 2  24529678.978 8                                 128904273.871 2
 100444957.055 8                                
  23343902.767 6                                                 122673044.980 6
  95589420.04547                                  23343909.38147
  21837444.115 6  21837451.950 9  21837451.372 9                 114756492.008 6
  89420717.051 9  85694735.102 9                
  22858765.519 2  22858778.319 8  22858772.622 8                 120123573.442 2
  93602862.796 8  89702594.629 8                
  23690989.934 5  23691000.414 9  23691001.546 9                 124496948.297 5
  97010729.202 9  92968608.184 9                
  21236298.768 7  21236308.140 9  21236302.157 9                 111597459.892 7
  86959143.878 9  83335815.472 9                
  20969653.423 2                                                 111898078.302 2
                                                
  19776147.875 8  19776149.381 9                                 105863269.499 8
  82338111.863 9                                
  22381016.545 6  22381021.217 8                                 119849354.042 6
  93216200.082 8                                
  21823368.028 7  21823373.258 9                                 116535619.703 7
  90638855.346 9                                
  21200501.545 7  21200506.698 9                                 113249282.383 7
  88082966.227 9                                
  21237362.457 7  21237366.967 9                                 113366472.868 7
  88173872.007 9                                
  21471121.741 6                                                 114856037.485 6
                                                
 23  9 21 18 59 45.0000000  0 21E03E05E08E13E15E25G02G10G12G21G23G24
                                G28G32R06R07R08R09R16R22R23
  23580993.075 7                                                 123918956.721 7
                                                
  26786872.666 5                                                 140765953.310 5
                                                
  24618189.609 7                                                 129369465.113 7
                                                
  24797295.990 6                                                 130310674.967 6
                                                
  24902716.146 7                                                 130864647.172 7
                                                
  27299604.366 4                                                 143460392.429 4
                                                
  24021433.648 6                                                 126233472.238 6
  98363795.49147                                  24021439.20147
  20412447.850 7  20412455.218 9  20412449.928 9                 107268091.263 7
  83585599.949 9  80102940.374 9                
  24521226.556 1  24521237.782 8                                 128859913.890 1
 100410390.871 8                                
  23338500.639 6                                                 122644658.083 6
  95567300.39247                                  23338507.98947
  21842936.469 6  21842944.053 9  21842943.803 9                 114785354.316 6
  89443207.155 9  85716288.090 9                
  22865827.805 4  22865840.721 8  22865833.736 8                 120160684.899 4
  93631780.773 8  89730307.669 8                
  23678761.561 5  23678771.514 9  23678772.735 9                 124432685.831 5
  96960654.636 9  92920620.071 9                
  21230742.712 7  21230752.435 9  21230746.153 9                 111568263.690 7
  86936393.619 9  83314013.129 9                
  20974388.128 2                                                 111923341.882 2
                                                
  19772666.072 8  19772667.897 9                                 105844629.840 8
  82323614.373 9                                
  22371292.432 6  22371296.109 9                                 119797281.772 6
  93175699.450 9                                
  21811855.135 6  21811860.870 9                                 116474141.412 6
  90591038.951 9                                
  21199179.784 7  21199185.924 9                                 113242221.898 7
  88077474.750 9                                
  21243957.028 7  21243961.420 9                                 113401674.510 7
  88201250.992 9                                
  21466507.704 7                                                 114831353.579 7
                                                
 23  9 21 19  0  0.0000000  0 21E03E05E08E13E15E25G02G10G12G21G23G24
                                G28G32R06R07R08R09R16R22R23
  23581471.216 7                                                 123921469.285 7
                                                
  26792093.243 4                                                 140793386.805 4
                                                
  24612110.157 7                                                 129337516.682 7
                                                
  24794121.110 7                                                 130293990.202 7
                                                
  24907734.738 7                                                 130891021.242 7
                                                
  27291101.600 4                                                 143415709.021 4
                                                
  24013791.508 6                                                 126193315.561 6
  98332504.60847                                  24013797.35947
  20411210.893 8  20411218.606 9  20411213.012 9                 107261592.204 8
  83580535.750 9  80098087.188 9                
  24512800.389 2  24512812.712 8                                
 100375888.645 8                                
  23333119.638 6                                                 122616380.242 6
  95545265.71947                                  23333127.38947
  21848443.735 6  21848451.553 9  21848450.920 9                 114814295.567 6
  89465758.746 9  85737900.026 9                
  22872907.280 3  22872919.625 8  22872913.261 8                 120197886.559 3
  93660769.046 8  89758088.108 8                
  23666539.605 5  23666550.189 9  23666550.914 9                 124368460.500 5
  96910609.008 9  92872659.727 9                
  21225201.057 7  21225210.791 9  21225204.608 9                 111539142.711 7
  86913701.961 9  83292266.949 9                
  20979132.995 2                                                 111948663.571 2
                                                
  19769199.164 8  19769201.234 9                                 105826072.255 8
  82309180.711 9                                
  22361573.518 6  22361578.551 9                                 119745239.104 6
  93135221.900 9                                
  21800361.645 6  21800366.874 9                                 116412765.188 6
  90543301.997 9                                
  21197896.164 7  21197901.617 9                                 113235365.240 7
  88072141.794 9                                
  21250578.703 7  21250582.559 9                                 113437019.460 7
  88228741.490 9                                
  21461930.803 6                                                 114806872.331 6
                                                
 23  9 21 19  0 15.0000000  0 21E03E05E08E13E15E25G02G10G12G21G23G24
                                G28G32R06R07R08R09R16R22R23
  23581956.736 7                                                 123924020.303 7
                                                
  26797312.683 3                                                 140820817.118 3
                                                
  24606037.021 7                                                 129305602.545 7
                                                
  24790964.905 6                                                 130277405.013 6
                                                
  24912766.823 6                                                 130917462.729 6
                                                
  27282605.258 4                                                 143371062.700 4
                                                
  24006167.008 6                                                 126153247.758 6
  98301282.94847                                  24006173.09347
  20409992.990 7  20410000.209 9  20409994.602 9                 107255189.535 7
  83575546.682 9  80093305.978 9                
  24504389.017 3  24504400.793 8                                 128771432.18913
 100341444.171 8                                
  23327757.760 6                                                 122588203.260 6
  95523309.66947                                  23327765.59947
  21853964.389 6  21853972.523 9  21853971.648 9                 114843307.249 6
  89488365.201 9  85759564.551 9                
  22880002.286 4  22880013.915 8  22880009.068 8                 120235169.545 4
  93689820.675 8  89785929.318 8                
  23654323.786 5  23654334.045 9  23654334.771 9                 124304264.211 5
  96860586.070 9  92824721.078 9                
  21219672.506 7  21219681.942 9  21219675.857 9                 111510088.541 7
  86891062.345 9  83270570.666 9                
  20983887.816 2                                                 111974034.956 2
                                                
  19765745.917 8  19765748.724 9                                 105807588.132 8
  82294804.149 9                                
  22351858.527 6  22351862.978 9                                 119693217.986 6
  93094761.047 9                                
  21788885.129 6  21788891.018 9                                 116351483.030 6
  90495638.141 9                                
  21196648.916 7  21196654.477 9                                 113228703.795 7
  88066960.694 9                                
  21257225.166 7  21257229.038 9                                 113472498.607 7
  88256336.318 9                                
  21457390.618 7                                                 114782585.028 7
                                                
 23  9 21 19  0 30.0000000  0 21E03E05E08E13E15E25G02G10G12G21G23G24
                                G28G32R06R07R08R09R16R22R23
  23582449.413 7                                                 123926609.377 7
                                                
  26802532.343 4                                                 140848243.745 4
                                                
  24599970.355 7                                                 129273722.326 7
                                                
  24787827.848 7                                                 130260919.171 7
                                                
  24917811.036 7                                                 130943971.066 7
                                                
  27274115.599 4                                                 143326453.269 4
                                                
  23998559.799 6                                                 126113268.773 6
  98270130.55047                                  23998565.37547
  20408792.643 7  20408800.024 9  20408794.616 9                 107248882.694 7
  83570632.283 9  80088596.328 9                
  24495990.494 1  24496003.057 8                                 128727302.417 1
 100307057.419 8                                
  23322415.300 5                                                 122560127.006 5
  95501432.07847                                  23322422.64147
  21859498.289 6  21859506.418 9  21859505.836 9                 114872388.868 6
  89511026.188 9  85781281.310 9                
  22887112.282 4  22887123.728 8  22887119.696 8                 120272533.240 4
  93718935.161 8  89813830.714 8                
  23642112.935 5  23642123.259 9  23642123.931 9                 124240096.945 5
  96810585.712 9  92776804.069 9                
  21214156.557 7  21214165.963 9  21214159.557 9                 111481100.845 7
  86868474.532 9  83248924.012 9                
  20988652.030 2                                                 111999455.589 2
                                                
  19762307.362 8  19762308.981 9                                 105789177.181 8
  82280484.518 9                                
  22342148.590 6  22342152.669 9                                 119641217.950 6
  93054316.587 9                                
  21777426.428 7  21777431.699 9                                 116290295.000 7
  90448047.479 9                                
  21195438.587 7  21195444.416 9                                 113222237.265 7
  88061931.186 9                                
  21263896.378 7  21263901.061 9                                 113508111.032 7
  88284034.830 9                                
  21452886.978 6                                                 114758491.837 6
                                                
 23  9 21 19  0 45.0000000  0 21E03E05E08E13E15E25G02G10G12G21G23G24
                                G28G32R06R07R08R09R16R22R23
  23582950.589 7                                                 123929242.543 7
                                                
  26807752.356 4                                                 140875672.799 4
                                                
  24593911.476 7                                                 129241882.170 7
                                                
  24784710.503 7                                                 130244538.852 7
                                                
  24922869.233 6                                                 130970552.235 6
                                                
  27265634.709 4                                                 143281887.162 4
                                                
  23990969.694 6                                                 126073385.047 6
  98239052.35847                                  23990976.15447
  20407611.779 7  20407619.117 9  20407613.813 9                 107242678.277 7
  83565797.659 9  80083963.159 9                
  24487608.619 1  24487621.089 8                                 128683253.436 1
 100272733.576 8                                
  23317092.558 6                                                 122532157.613 6
  95479637.79647                                  23317100.24747
  21865046.560 6  21865054.994 9  21865054.596 9                 114901546.504 6
  89533746.388 9  85803054.826 9                
  22894238.841 1  22894249.805 8  22894246.164 8                 120309983.396 1
  93748117.078 8  89841796.659 8                
  23629908.908 5  23629919.277 9  23629920.000 9                 124175965.134 5
  96760612.955 9  92728913.529 9                
  21208653.849 7  21208663.426 9  21208657.089 9                 111452185.769 7
  86845943.329 9  83227331.604 9                
  20993426.330 1                                                 112024931.541 1
                                                
  19758882.508 8  19758884.543 9                                 105770845.343 8
  82266226.430 9                                
  22332442.497 6  22332446.406 8                                 119589244.771 6
  93013893.108 8                                
  21765986.634 7  21765992.919 8                                 116229208.136 7
  90400535.600 8                                
  21194265.638 7  21194271.236 9                                 113215971.833 7
  88057058.085 9                                
  21270593.973 7  21270597.827 9                                 113543862.498 7
  88311841.492 9                                
  21448420.340 7                                                 114734599.086 7
                                                
