     2.11           OBSERVATION DATA    Mixed(MIXED)        RINEX VERSION / TYPE
cnvtToRINEX 3.14.0  convertToRINEX OPR  20230925 141910 UTC PGM / RUN BY / DATE 
----------------------------------------------------------- COMMENT             
1 coleman                                                   MARKER NAME         
                                                            MARKER NUMBER       
GNSS Observer       Trimble                                 OBSERVER / AGENCY   
6309F01906          TRIMBLE R12i        6.21                REC # / TYPE / VERS 
                    TRMR12I         NONE                    ANT # / TYPE        
   110032.8174 -4346680.2903  4650957.7387                  APPROX POSITION XYZ 
        2.0500        0.0000        0.0000                  ANTENNA: DELTA H/E/N
     1     1     0                                          WAVELENGTH FACT L1/2
     9    C1    C2    C5    C8    L1    L2    L5    L8    P2# / TYPES OF OBSERV 
    15.000                                                  INTERVAL            
  2023     9    21    18    43   30.0000000     GPS         TIME OF FIRST OBS   
  2023     9    21    20    52   45.0000000     GPS         TIME OF LAST OBS    
     0                                                      RCV CLOCK OFFS APPL 
    18                                                      LEAP SECONDS        
    35                                                      # OF SATELLITES     
   E02   306     0     0   306   306     0     0   306     0PRN / # OF OBS      
   E03   506     0     0   506   506     0     0   506     0PRN / # OF OBS      
   E05   223     0     0   223   223     0     0   223     0PRN / # OF OBS      
   E07   215     0     0   223   215     0     0   223     0PRN / # OF OBS      
   E08   518     0     0   518   518     0     0   518     0PRN / # OF OBS      
   E13   518     0     0   518   518     0     0   518     0PRN / # OF OBS      
   E15   425     0     0   425   425     0     0   425     0PRN / # OF OBS      
   E24   298     0     0   289   297     0     0   288     0PRN / # OF OBS      
   E25   174     0     0   174   174     0     0   174     0PRN / # OF OBS      
   E26   344     0     0   345   344     0     0   345     0PRN / # OF OBS      
   E34    23     0     0    23    23     0     0    23     0PRN / # OF OBS      
   G02   475     0     0     0   471   426     0     0   428PRN / # OF OBS      
   G03    37    23    40     0    37    23    39     0     0PRN / # OF OBS      
   G10   518   517   517     0   517   517   517     0     0PRN / # OF OBS      
   G12   358   351     0     0   358   351     0     0     0PRN / # OF OBS      
   G18    10     9     9     0     9     9     9     0     0PRN / # OF OBS      
   G21   512     0     0     0   511   506     0     0   506PRN / # OF OBS      
   G23   349   337   345     0   347   337   345     0     0PRN / # OF OBS      
   G24   255   254   254     0   254   254   254     0     0PRN / # OF OBS      
   G28   518   517   517     0   517   517   517     0     0PRN / # OF OBS      
   G31   311   311     0     0   311   311     0     0     0PRN / # OF OBS      
   G32   518   517   517     0   517   517   517     0     0PRN / # OF OBS      
   R01    93    82     0     0    92    80     0     0     0PRN / # OF OBS      
   R06   173     0     0     0   173     0     0     0     0PRN / # OF OBS      
   R07   507   505     0     0   506   503     0     0     0PRN / # OF OBS      
   R08   500   500     0     0   500   500     0     0     0PRN / # OF OBS      
   R09   496   483     0     0   495   482     0     0     0PRN / # OF OBS      
   R10   374     0     0     0   374     0     0     0     0PRN / # OF OBS      
   R11    40    40     0     0    40    40     0     0     0PRN / # OF OBS      
   R15    30    24     0     0    29    24     0     0     0PRN / # OF OBS      
   R16   445   445     0     0   444   445     0     0     0PRN / # OF OBS      
   R21    35    35     0     0    35    35     0     0     0PRN / # OF OBS      
   R22   299   299     0     0   299   299     0     0     0PRN / # OF OBS      
   R23   494     0     0     0   494     0     0     0     0PRN / # OF OBS      
   R24   349   334     0     0   346   333     0     0     0PRN / # OF OBS      
CARRIER PHASE MEASUREMENTS: PHASE SHIFTS REMOVED            COMMENT             
                                                            END OF HEADER       
 23  9 21 18 43 30.0000000  0 22E03E05E08E13E15E24E34G10G18G21G23G24
                                G28G32R06R07R09R15R16R21R22R23
  23321668.416 7                                                 122556192.86617
                                                
  26202476.037 6                                                 137694937.82416
                                                
  24782387.587 7                                                 130232324.12817
                                                
  24798380.563 6                                                 130316370.24416
                                                
  24360969.536 7                                                 128017756.29817
                                                
  27404520.027 6                                                 144011720.88816
                                                
  27582610.031 6                                                 144947589.88416
                                                
  20286472.249 7                                                
                                                
  24583436.921 4                                                
                                                
  23482786.987 1                                                
                                                
  21270295.233 5                                                
                                                
  22197701.409 6                                                
                                                
  24237755.816 6                                                
                                                
  21373101.466 7                                                
                                                
  20442192.334 2                                                 109083453.74112
                                                
  19782210.348 8  19782213.739 9                                 105895697.09318
  82363540.82419                                
  22347687.139 6  22347693.459 9                                 119335401.60416
  92816451.14619                                
  23187249.420 5  23187256.939 8                                 123905630.56315
  96370962.29518                                
  21116279.316 7  21116284.291 9                                 112799370.95917
  87732869.13419                                
  23127278.542 6  23127286.199 9                                 123758722.15216
  96256824.57619                                
  20626875.599 8  20626878.395 9                                 110107662.11518
  85639308.74119                                
  21594703.944 5                                                 115517117.18415
                                                
 23  9 21 18 43 45.0000000  0 21E03E05E08E13E15E24E34G10G18G23G24G28
                                G32R06R07R09R15R16R21R22R23
  23320387.774 7                                                 122549461.737 7
                                                
  26206456.582 6                                                 137715855.769 6
                                                
  24774632.942 7                                                 130191572.127 7
                                                
  24792763.237 6                                                 130286850.426 6
                                                
  24363829.865 7                                                 128032787.634 7
                                                
  27399520.921 6                                                 143985451.431 6
                                                
  27589386.091 6                                                 144983199.880 6
                                                
  20282838.922 8  20282846.574 9  20282840.861 9                 106586999.472 8
  83054876.23219  79594352.12719                
  24592022.256 4  24592034.851 9  24592035.972 9                 129231926.210 4
 100700266.70919  96504420.31319                
  21273640.454 5  21273647.432 7  21273644.872 8                 111793704.259 5
  87112051.15417  83482295.32518                
  22202376.641 5  22202387.380 9  22202383.099 9                 116674253.373 5
  90915068.55119  87126817.142 9                
  24224043.983 6  24224055.882 9  24224056.860 9                 127298148.288 6
  99193458.50419  95060393.38419                
  21365491.228 7  21365499.967 9  21365494.267 9                 112276378.404 7
  87488160.15419  83842783.80319                
  20445047.281 3                                                 109098686.118 3
                                                
  19776614.155 8  19776617.147 9                                 105865738.562 8
  82340239.741 9                                
  22334013.905 6  22334021.127 9                                 119262388.464 6
  92759663.294 9                                
  23192325.962 4  23192333.782 8                                 123932757.813 4
  96392061.190 8                                
  21111390.059 7  21111395.192 9                                 112773252.844 7
  87712555.047 9                                
  23137284.219 6  23137292.163 9                                 123812262.291 6
  96298466.770 9                                
  20630422.051 7  20630425.377 9                                 110126593.229 7
  85654032.907 9                                
  21586612.092 5                                                 115473832.321 5
                                                
 23  9 21 18 44  0.0000000  0 22E03E05E08E13E15E24E34G02G10G18G23G24
                                G28G32R06R07R09R15R16R21R22R23
  23319107.288 7                                                 122542733.680 7
                                                
  26210430.136 6                                                 137736734.637 6
                                                
  24766876.860 7                                                 130150813.722 7
                                                
  24787155.793 6                                                 130257382.613 6
                                                
  24366697.387 7                                                 128047857.095 7
                                                
  27394531.076 5                                                 143959231.014 5
                                                
  27596154.435 6                                                 145018766.499 6
                                                
  24287198.154 1                                                 127630051.64311
                                                
  20279214.943 8  20279222.279 9  20279216.543 9                 106567953.813 8
  83040035.477 9  79580129.738 9                
  24600598.643 2  24600612.235 9  24600613.056 8                 129276999.123 2
 100735388.254 9  96538078.418 8                
  21276992.386 4  21276999.905 8  21276997.677 8                 111811320.872 4
  87125778.396 8  83495450.521 8                
  22207063.110 6  22207073.722 9  22207069.907 9                 116698881.427 6
  90934259.232 9  87145208.205 9                
  24210326.489 5  24210338.697 9  24210339.227 9                 127226062.865 5
  99137288.185 9  95006563.520 9                
  21357885.785 7  21357894.818 9  21357889.142 9                 112236412.767 7
  87457018.118 9  83812939.351 9                
  20447904.869 3                                                 109113932.921 3
                                                
  19771023.139 8  19771026.013 9                                 105835810.040 8
  82316962.030 9                                
  22320344.035 6  22320350.079 9                                 119189393.043 6
  92702889.210 9                                
  23197419.582 4  23197428.401 8                                 123959976.738 4
  96413231.366 8                                
  21106528.690 7  21106533.503 9                                 112747283.362 7
  87692356.564 9                                
  23147284.494 6  23147291.909 9                                 123865776.995 6
  96340089.163 9                                
  20633991.348 7  20633994.961 9                                 110145646.884 7
  85668852.374 9                                
  21578545.297 6                                                 115430683.122 6
                                                
 23  9 21 18 44 15.0000000  0 22E03E05E08E13E15E24E34G02G10G18G23G24
                                G28G32R06R07R09R15R16R21R22R23
  23317827.577 7                                                 122536009.985 7
                                                
  26214395.746 6                                                 137757575.783 6
                                                
  24759119.518 7                                                 130110050.296 7
                                                
  24781558.366 6                                                 130227968.347 6
                                                
  24369572.523 7                                                 128062965.955 7
                                                
  27389551.137 5                                                 143933061.135 5
                                                
  27602914.777 6                                                 145054290.896 6
                                                
  24277321.861 1                                                 127578150.720 1
                                                
  20275600.239 8  20275607.450 9  20275601.789 9                 106548957.963 8
  83025233.516 9  79565944.515 9                
  24609167.734 2  24609181.843 8  24609183.065 8                 129322033.119 2
 100770479.494 8  96571707.502 8                
  21280351.964 2  21280359.441 8  21280357.923 8                 111828974.631 2
  87139534.525 8  83508633.506 8                
  22211761.867 5  22211772.475 9  22211769.269 9                 116723574.509 5
  90953500.545 9  87163647.794 9                
  24196603.482 5  24196615.292 9  24196615.975 9                 127153948.346 5
  99081095.183 9  94952711.910 9                
  21350285.592 7  21350294.604 9  21350288.892 9                 112196473.153 7
  87425896.354 9  83783114.339 9                
  20450764.389 3                                                 109129195.324 3
                                                
  19765438.116 8  19765441.063 9                                 105805913.311 8
  82293708.998 9                                
  22306677.440 6  22306684.030 9                                 119116416.771 6
  92646129.987 9                                
  23202530.485 4  23202539.122 9                                 123987288.355 4
  96434473.758 9                                
  21101694.831 7  21101700.150 9                                 112721463.845 7
  87672274.742 9                                
  23157280.081 5  23157288.737 9                                 123919267.158 5
  96381692.454 9                                
  20637584.500 7  20637587.401 9                                 110164824.203 7
  85683768.027 9                                
  21570505.314 6                                                 115387671.420 6
                                                
 23  9 21 18 44 30.0000000  0 23E03E05E08E13E15E24E34G02G10G18G23G24
                                G28G32R06R07R08R09R15R16R21R22R23
  23316549.069 7                                                 122529291.628 7
                                                
  26218354.730 6                                                 137778380.139 6
                                                
  24751361.721 7                                                 130069282.882 7
                                                
  24775971.202 6                                                 130198608.795 6
                                                
  24372455.373 7                                                 128078115.063 7
                                                
  27384580.504 5                                                 143906942.955 5
                                                
  27609667.309 6                                                 145089773.927 6
                                                
  24267454.098 1                                                 127526284.35311
                                                
  20271995.047 8  20272002.141 9  20271996.472 9                 106530013.125 8
  83010471.274 9  79551797.363 9                
  24617730.446 1  24617744.539 8  24617745.681 8                 129367028.998 1
 100805540.992 8  96605308.065 8                
  21283717.996 1  21283725.753 8  21283723.758 8                 111846666.489 1
  87153320.450 8  83521844.954 8                
  22216473.315 5  22216483.859 9  22216480.589 9                 116748333.209 5
  90972793.033 9  87182136.393 9                
  24182875.008 5  24182886.384 9  24182887.956 9                 127081805.999 5
  99024880.479 9  94898839.539 9                
  21342690.767 7  21342698.989 9  21342693.903 9                 112156560.602 7
  87394795.690 9  83753309.541 9                
  20453628.093 3                                                 109144474.350 3
                                                
  19759859.285 8  19759862.540 9                                 105776049.096 8
  82270481.290 9                                
  22720921.982 1  22720924.525 7                                 121669533.10211
  94631889.58517                                
  22293015.846 6  22293022.429 9                                 119043461.662 6
  92589387.224 9                                
  23207659.029 5  23207667.121 8                                 124014693.449 5
  96455788.802 8                                
  21096890.124 7  21096894.998 9                                 112695795.627 7
  87652310.604 9                                
  23167272.039 5  23167280.550 9                                 123972733.218 5
  96423276.985 9                                
  20641200.144 7  20641203.351 9                                 110184125.798 7
  85698780.322 9                                
  21562490.562 6                                                 115344798.569 6
                                                
 23  9 21 18 44 45.0000000  0 23E03E05E08E13E15E24E34G02G10G18G23G24
                                G28G32R06R07R08R09R15R16R21R22R23
  23315272.047 7                                                 122522580.747 7
                                                
  26222307.428 6                                                 137799149.899 6
                                                
  24743603.916 7                                                 130028513.740 7
                                                
  24770395.261 6                                                 130169306.284 6
                                                
  24375345.867 7                                                 128093306.478 7
                                                
  27379620.218 5                                                 143880878.732 5
                                                
  27616411.782 6                                                 145125217.604 6
                                                
  24257588.706 2                                                 127474454.709 2
                                                
  20268399.876 8  20268407.498 9  20268401.718 9                 106511121.649 8
  82995750.630 9  79537690.102 9                
  24626286.544 2  24626300.438 8  24626301.798 9                 129411988.556 2
 100840574.208 8  96638881.531 9                
  21287092.707 1  21287098.451 7  21287099.388 8                 111864398.666 1
  87167137.608 7  83535086.472 8                
  22221197.782 6  22221208.195 9  22221205.005 9                 116773159.426 6
  90992138.113 9  87200675.434 9                
  24169141.331 5  24169153.366 9  24169154.705 9                 127009638.367 5
  98968646.066 9  94844948.293 9                
  21335101.280 7  21335109.665 9  21335104.304 9                 112116677.411 7
  87363717.877 9  83723526.660 9                
  20456495.134 3                                                 109159772.219 3
                                                
  19754286.679 8  19754289.914 9                                 105746219.757 8
  82247280.708 9                                
  22709703.226 2  22709703.867 7                                 121609461.647 2
  94585167.359 7                                
  22279357.497 6  22279364.858 9                                 118970530.551 6
  92532663.109 9                                
  23212805.499 5  23212812.579 8                                 124042193.623 5
  96477177.745 8                                
  21092113.793 7  21092118.603 9                                 112670281.070 7
  87632465.948 9                                
  23177259.545 5  23177268.154 8                                 124026176.915 5
  96464844.131 8                                
  20644839.293 7  20644842.566 9                                 110203553.530 7
  85713890.764 9                                
  21554502.534 6                                                 115302067.086 6
                                                
 23  9 21 18 45  0.0000000  0 23E03E05E08E13E15E24E34G02G10G18G23G24
                                G28G32R06R07R08R09R15R16R21R22R23
  23313996.369 7                                                 122515876.892 7
                                                
  26226253.018 6                                                 137819884.568 6
                                                
  24735844.919 7                                                 129987742.521 7
                                                
  24764829.547 6                                                 130140060.644 6
                                                
  24378244.823 7                                                 128108539.732 7
                                                
  27374671.287 5                                                 143854868.354 5
                                                
  27623149.086 6                                                 145160621.309 6
                                                
  24247733.995 1                                                 127422661.941 1
                                                
  20264815.267 8  20264822.769 9  20264816.885 9                 106492282.879 8
  82981071.061 9  79523622.173 9                
  24634834.861 3  24634849.051 8  24634850.244 9                 129456911.168 3
 100875578.675 8  96672427.410 9                
  21290474.152 1  21290480.575 7  21290481.465 8                 111882170.660 1
  87180985.97717  83548357.763 8                
  22225934.764 5  22225945.442 9  22225941.606 9                 116798052.518 5
  91011535.325 9  87219264.404 9                
  24155403.835 5  24155415.905 9  24155416.486 9                 126937445.368 5
  98912391.957 9  94791038.103 9                
  21327517.238 7  21327525.277 9  21327520.469 9                 112076823.248 7
  87332662.707 9  83693765.448 9                
  20459364.954 2                                                 109175088.423 2
                                                
  19748720.799 8  19748723.849 9                                 105716425.080 8
  82224107.047 9                                
  22698481.411 3  22698483.400 8                                 121549370.257 3
  94538429.795 8                                
  22265705.170 6  22265710.893 9                                 118897623.298 6
  92475957.576 9                                
  23217969.077 3  23217976.305 8                                 124069788.181 3
  96498640.145 8                                
  21087365.839 7  21087370.741 9                                 112644919.898 7
  87612740.615 9                                
  23187241.526 6  23187250.672 9                                 124079597.445 6
  96506393.326 9                                
  20648502.621 8  20648505.451 9                                 110223106.500 8
  85729098.569 9                                
  21546540.472 6                                                 115259477.096 6
                                                
 23  9 21 18 45 15.0000000  0 23E03E05E08E13E15E24E34G10G18G21G23G24
                                G28G32R06R07R08R09R15R16R21R22R23
  23312722.477 7                                                 122509180.779 7
                                                
  26230192.130 6                                                 137840584.863 6
                                                
  24728086.428 7                                                 129946969.980 7
                                                
  24759275.387 6                                                 130110872.719 6
                                                
  24381151.089 7                                                 128123815.425 7
                                                
  27369732.070 5                                                 143828912.672 5
                                                
  27629878.909 5                                                 145195985.658 5
                                                
  20261240.680 8  20261248.016 9  20261242.368 9                 106473498.216 8
  82966433.653 9  79509594.663 9                
  24643376.872 5  24643390.914 8  24643391.903 9                 129501797.273 5
 100910554.675 8  96705946.069 9                
  23428312.935 2                                                 123116714.38412
                                                
  21293863.348 1  21293871.306 8  21293872.015 8                 111899983.306 1
  87194865.912 8  83561659.301 8                
  22230684.712 5  22230695.492 9  22230691.429 9                 116823012.880 5
  91030984.927 9  87237903.609 9                
  24141661.144 6  24141672.805 9  24141674.257 9                 126865228.106 6
  98856118.915 9  94737109.785 9                
  21319939.152 7  21319947.265 9  21319942.372 9                 112036998.947 7
  87301630.767 9  83664026.541 9                
  20462238.294 2                                                 109190423.618 2
                                                
  19743161.822 8  19743165.070 9                                 105686665.978 8
  82200961.124 9                                
  22687256.129 2  22687258.729 7                                 121489260.180 2
  94491677.549 7                                
  22252056.460 6  22252062.899 8                                 118824741.408 6
  92419271.748 8                                
  23223151.462 3  23223158.476 8                                 124097477.390 3
  96520176.153 8                                
  21082647.164 7  21082652.016 9                                 112619713.334 7
  87593135.526 9                                
  23197220.264 5  23197229.371 8                                 124132995.102 5
  96547924.608 8                                
  20652188.899 8  20652192.133 9                                 110242785.228 8
  85744404.209 9                                
  21538605.345 6                                                 115217029.726 6
                                                
 23  9 21 18 45 30.0000000  0 24E03E05E08E13E15E24E34G02G10G18G21G23
                                G24G28G32R06R07R08R09R15R16R21R22R23
  23311450.337 7                                                 122502496.541 7
                                                
  26234125.355 6                                                 137861254.921 6
                                                
  24720328.162 7                                                 129906200.347 7
                                                
  24753732.954 6                                                 130081746.913 6
                                                
  24384067.379 7                                                 128139137.594 7
                                                
  27364803.884 5                                                 143803015.908 5
                                                
  27636601.686 5                                                 145231314.665 5
                                                
  24228043.179 1                                                
                                                
  20257677.021 8  20257684.739 9  20257678.864 9                 106454771.927 8
  82951841.733 9  79495610.739 9                
  24651911.702 5  24651926.060 8  24651927.517 9                 129546650.779 5
 100945505.276 8  96739440.365 9                
  23420574.160 1                                                 123076039.908 1
                                                
  21297261.809 1  21297267.974 7  21297271.419 8                 111917840.734 1
  87208780.64917  83574994.295 8                
  22235448.051 5  22235458.477 9  22235454.685 9                 116848044.395 5
  91050489.962 9  87256595.923 9                
  24127914.928 6  24127926.418 9  24127927.273 9                 126792991.086 6
  98799830.462 9  94683166.703 9                
  21312367.018 7  21312375.365 9  21312370.519 9                 111997208.718 7
  87270625.425 9  83634313.057 9                
  20465116.963 2                                                 109205782.038 2
                                                
  19737609.767 8  19737612.880 9                                 105656946.604 8
  82177846.047 9                                
  22676028.620 1  22676030.923 7                                 121429135.623 1
  94444914.034 7                                
  22238413.470 6  22238419.641 9                                 118751889.688 6
  92362609.420 9                                
  23228351.668 4  23228359.169 7                                 124125265.338 4
  96541788.884 7                                
  21077957.919 7  21077963.204 9                                 112594665.646 7
  87573653.977 9                                
  23207195.321 6  23207204.328 8                                 124186373.521 6
  96589440.970 8                                
  20655899.994 8  20655902.843 9                                 110262593.469 8
  85759810.609 9                                
  21530698.075 7                                                 115174729.570 7
                                                
 23  9 21 18 45 45.0000000  0 24E03E05E08E13E15E24E34G02G10G18G21G23
                                G24G28G32R06R07R08R09R15R16R21R22R23
  23310180.224 7                                                 122495822.339 7
                                                
  26238052.584 6                                                 137881892.855 6
                                                
  24712569.812 7                                                 129865431.868 7
                                                
  24748201.944 6                                                 130052681.546 6
                                                
  24386991.651 7                                                 128154504.337 7
                                                
  27359887.385 5                                                 143777176.492 5
                                                
  27643317.215 5                                                 145266606.319 5
                                                
  24218212.089 1                                                 127267527.13611
                                                
  20254123.939 8  20254132.023 9  20254126.235 9                 106436102.323 8
  82937293.987 9  79481669.150 9                
  24660440.586 5  24660455.089 8  24660456.239 8                 129591469.586 5
 100980428.884 8  96772908.748 8                
  23412844.955 1                                                 123035422.866 1
                                                
  21300668.755 1  21300671.646 7  21300676.450 7                 111935740.90811
  87222728.86717  83588361.274 7                
  22240224.432 6  22240234.810 9  22240230.976 9                 116873144.940 6
  91070048.793 9  87275339.791 9                
  24114164.657 6  24114176.229 9  24114177.098 9                 126720732.846 6
  98743525.483 9  94629207.756 9                
  21304801.122 7  21304809.640 9  21304804.464 9                 111957450.816 7
  87239645.236 9  83604623.733 9                
  20467998.754 2                                                 109221161.661 2
                                                
  19732065.390 8  19732068.312 9                                 105627265.242 8
  82154760.556 9                                
  22664797.310 4  22664800.391 7                                 121368994.723 4
  94398137.898 7                                
  22224775.580 6  22224782.464 9                                 118679066.868 6
  92305969.553 9                                
  23233569.420 2  23233576.387 8                                 124153149.760 2
  96563476.658 8                                
  21073298.753 7  21073303.171 9                                 112569775.171 7
  87554294.749 9                                
  23217166.535 6  23217174.903 8                                 124239730.289 6
  96630940.553 8                                
  20659634.303 7  20659637.447 9                                 110282529.174 7
  85775316.117 9                                
  21522817.296 6                                                 115132575.141 6
                                                
 23  9 21 18 46  0.0000000  0 23E03E05E08E13E15E24E34G02G10G21G23G24
                                G28G32R06R07R08R09R15R16R21R22R23
  23308912.037 7                                                 122489159.285 7
                                                
  26241974.130 6                                                 137902499.897 6
                                                
  24704812.269 7                                                 129824665.788 7
                                                
  24742682.965 6                                                 130023677.968 6
                                                
  24389924.447 7                                                 128169916.732 7
                                                
  27354980.817 5                                                 143751395.712 5
                                                
  27650026.353 4                                                 145301861.684 4
                                                
  24208387.555 1                                                 127215897.877 1
                                                
  20250582.793 8  20250590.554 9  20250584.612 9                 106417490.685 8
  82922791.398 9  79467770.849 9                
  23405126.594 2                                                 122994865.070 2
                                                
  21304084.018 1  21304090.065 7  21304088.527 7                 111953684.95111
  87236711.17317  83601761.176 7                
  22245014.022 5  22245024.490 9  22245020.904 9                 116898315.352 5
  91089662.083 9  87294135.853 9                
  24100410.551 6  24100422.098 9  24100423.005 9                 126648454.897 6
  98687205.157 9  94575234.109 9                
  21297241.970 7  21297250.360 9  21297245.124 9                 111917726.546 7
  87208691.281 9  83574959.534 9                
  20470885.258 2                                                 109236563.890 2
                                                
  19726527.541 8  19726530.714 9                                 105597623.211 8
  82131705.648 9                                
  22653563.188 3  22653567.795 8                                 121308839.188 3
  94351350.338 8                                
  22211144.116 6  22211150.745 9                                 118606274.947 6
  92249353.721 9                                
  23238806.010 1  23238813.075 8                                 124181131.048 1
  96585239.898 8                                
  21068668.770 7  21068673.294 9                                 112545043.470 7
  87535059.001 9                                
  23227133.675 6  23227142.556 8                                 124293066.383 6
  96672424.076 8                                
  20663393.372 8  20663396.176 9                                 110302593.045 8
  85790921.300 9                                
  21514964.663 6                                                 115090567.891 6
                                                
 23  9 21 18 46 15.0000000  0 22E03E05E08E13E15E24E34G02G10G21G24G28
                                G32R06R07R08R09R15R16R21R22R23
  23307646.051 7                                                 122482505.787 7
                                                
  26245889.158 6                                                 137923074.366 6
                                                
  24697054.971 7                                                 129783900.543 7
                                                
  24737175.126 6                                                 129994734.775 6
                                                
  24392866.059 7                                                 128185373.042 7
                                                
  27350085.577 5                                                 143725672.160 5
                                                
  27656728.129 4                                                 145337078.974 4
                                                
  24198570.052 1                                                 127164309.754 1
                                                
  20247052.008 8  20247059.506 9  20247053.717 9                 106398935.707 8
  82908332.985 9  79453914.859 9                
  23397420.312 3                                                 122954365.122 3
                                                
  22249816.661 5  22249826.993 9  22249823.894 9                 116923553.800 5
  91109328.362 9  87312982.712 9                
  24086652.595 6  24086663.934 8  24086664.721 9                 126576155.981 6
  98630868.479 8  94521244.846 9                
  21289688.963 7  21289696.916 9  21289691.934 9                 111878034.366 7
  87177762.311 9  83545319.288 9                
  20473775.827 3                                                 109251986.854 3
                                                
  19720997.265 8  19721000.916 9                                 105568018.747 8
  82108679.964 9                                
  22642327.560 3  22642330.787 8                                 121248667.136 3
  94304549.961 8                                
  22197517.690 6  22197524.332 9                                 118533512.925 6
  92192761.094 9                                
  23244060.532 3  23244068.143 8                                 124209207.661 3
  96607077.195 8                                
  21064068.143 7  21064073.011 9                                 112520468.916 7
  87515945.457 9                                
  23237097.224 6  23237104.757 8                                 124346379.502 6
  96713889.619 8                                
  20667175.401 7  20667178.477 9                                 110322783.068 7
  85806624.613 9                                
  21507139.187 6                                                 115048706.663 6
                                                
 23  9 21 18 46 30.0000000  0 22E03E05E08E13E15E24E34G02G10G21G24G28
                                G32R06R07R08R09R15R16R21R22R23
  23306381.491 7                                                 122475861.998 7
                                                
  26249798.791 6                                                 137943616.425 6
                                                
  24689297.978 7                                                 129743136.367 7
                                                
  24731679.206 6                                                 129965852.329 6
                                                
  24395815.385 7                                                 128200873.369 7
                                                
  27345200.809 4                                                 143700006.187 4
                                                
  27663422.597 3                                                 145372258.230 3
                                                
  24188760.730 1                                                 127112763.14611
                                                
  20243531.727 8  20243539.496 9  20243533.574 9                 106380437.615 8
  82893918.881 9  79440101.338 9                
  23389724.666 4                                                 122913923.493 4
  95777041.08755                                  23389731.50445
  22254632.375 5  22254642.782 9  22254639.678 9                 116948860.139 5
  91129047.543 9  87331880.241 9                
  24072890.840 6  24072901.602 8  24072902.333 9                 126503836.650 6
  98574515.889 8  94467240.301 9                
  21282141.984 7  21282149.757 9  21282144.892 9                 111838374.515 7
  87146858.564 9  83515703.197 9                
  20476670.129 3                                                 109267430.775 3
                                                
  19715474.032 7  19715477.644 9                                 105538452.327 7
  82085683.857 9                                
  22631087.282 4  22631089.571 7                                 121188478.929 4
  94257736.975 7                                
  22183897.547 6  22183903.487 8                                 118460781.374 6
  92136192.209 8                                
  23249332.065 4  23249339.617 8                                 124237379.139 4
  96628988.261 8                                
  21059497.385 7  21059502.772 9                                 112496051.994 7
  87496954.536 9                                
  23247055.808 6  23247065.120 9                                 124399669.605 6
  96755337.304 9                                
  20670981.144 7  20670984.615 9                                 110343099.215 7
  85822426.014 9                                
  21499340.876 6                                                 115006991.836 6
                                                
 23  9 21 18 46 45.0000000  0 22E03E05E08E13E15E24E34G02G10G21G24G28
                                G32R06R07R08R09R15R16R21R22R23
  23305119.322 7                                                 122469228.395 7
                                                
  26253702.030 6                                                 137964126.609 6
                                                
  24681540.862 7                                                 129702373.882 7
                                                
  24726194.510 6                                                 129937031.331 6
                                                
  24398773.689 7                                                 128216418.133 7
                                                
  27340327.584 5                                                 143674398.364 5
                                                
  27670110.396 4                                                 145407399.771 4
                                                
  24178958.599 1                                                 127061258.92111
                                                
  20240022.807 8  20240030.264 9  20240024.670 9                 106361997.295 8
  82879549.800 9  79426330.971 9                
  23382039.159 4                                                 122873540.684 4
  95745573.99146                                  23382046.94246
  22259461.019 5  22259471.506 9  22259468.208 9                 116974234.628 5
  91148819.816 9  87350828.676 9                
  24059125.105 6  24059135.876 8  24059136.832 9                 126431497.757 6
  98518147.989 8  94413221.148 9                
  21274601.617 7  21274609.432 9  21274604.127 9                 111798747.691 7
  87115980.561 9  83486111.737 9                
  20479567.979 3                                                 109282896.133 3
                                                
  19709958.267 8  19709961.965 9                                 105508924.499 8
  82062717.801 9                                
  22619843.727 1  22619848.423 8                                 121128275.181 1
  94210911.938 8                                
  22170283.216 6  22170288.766 9                                 118388081.310 6
  92079647.786 9                                
  23254621.349 3  23254630.020 8                                 124265645.639 3
  96650973.260 8                                
  21054955.933 7  21054960.720 9                                 112471793.583 7
  87478086.854 9                                
  23257010.380 6  23257018.604 8                                 124452936.523 6
  96796767.023 8                                
  20674811.459 7  20674814.212 9                                 110363541.566 7
  85838325.561 9                                
  21491569.848 6                                                 114965424.498 6
                                                
 23  9 21 18 47  0.0000000  0 22E03E05E08E13E15E24E34G02G10G21G24G28
                                G32R06R07R08R09R15R16R21R22R23
  23303859.648 7                                                 122462608.353 7
                                                
  26257599.482 6                                                 137984608.224 6
                                                
  24673785.416 7                                                 129661616.481 7
                                                
  24720722.606 6                                                 129908275.338 6
                                                
  24401740.952 7                                                 128232010.586 7
                                                
  27335466.630 5                                                 143648852.359 5
                                                
  27676790.408 4                                                 145442506.919 4
                                                
  24169167.240 1                                                 127009800.79411
                                                
  20236525.076 8  20236532.672 9  20236527.178 9                 106343618.198 8
  82865228.418 9  79412606.306 9                
  23374367.086 3                                                 122833220.507 3
  95714155.71646                                  23374373.73946
  22264303.031 5  22264313.951 9  22264310.314 9                 116999680.309 5
  91168647.601 9  87369830.293 9                
  24045356.187 5  24045366.682 8  24045368.027 8                 126359143.042 5
  98461767.777 8  94359190.198 8                
  21267067.792 7  21267075.265 9  21267070.397 9                 111759157.294 7
  87085130.876 9  83456547.487 9                
  20482470.771 2                                                 109298386.279 2
                                                
  19704449.925 8  19704453.737 9                                 105479438.830 8
  82039784.525 9                                
  22608598.797 1  22608604.276 8                                 121068059.806 1
  94164077.891 8                                
  22156676.182 6  22156681.411 9                                 118315417.172 6
  92023131.329 9                                
  23259929.325 3  23259937.296 8                                 124294010.228 3
  96673034.522 8                                
  21050445.401 7  21050450.587 9                                 112447696.962 7
  87459345.072 9                                
  23266960.752 5  23266969.971 9                                 124506183.226 5
  96838180.974 9                                
  20678664.770 7  20678667.811 9                                 110384113.179 7
  85854325.667 9                                
  21483827.943 6                                                 114924008.519 6
                                                
 23  9 21 18 47 15.0000000  0 23E03E05E08E13E15E24E34G02G10G21G23G24
                                G28G32R06R07R08R09R15R16R21R22R23
  23302603.715 7                                                 122456008.011 7
                                                
  26261492.876 6                                                 138005067.449 6
                                                
  24666031.469 7                                                 129620870.445 7
                                                
  24715263.894 6                                                 129879590.722 6
                                                
  24404718.277 7                                                 128247656.822 7
                                                
  27330618.504 5                                                 143623374.505 5
                                                
  27683466.010 4                                                 145477585.600 4
                                                
  24159383.580 1                                                 126958395.608 1
                                                
  20233040.461 8  20233048.375 9  20233042.548 9                 106325306.670 8
  82850959.683 9  79398932.111 9                
  23366707.557 4                                                 122792969.411 4
  95682791.27546                                  23366714.00346
  21321282.321 1                                                 112044049.01611
                                                
  22269160.272 5  22269170.926 9  22269167.149 9                 117025203.106 5
  91188535.461 9  87388889.496 9                
  24031585.638 5  24031596.620 9  24031597.461 8                 126286779.099 5
  98405380.331 9  94305152.277 8                
  21259541.549 7  21259549.409 9  21259544.871 9                 111719609.579 7
  87054314.459 9  83427015.125 9                
  20485379.855 2                                                 109313907.545 2
                                                
  19698950.657 8  19698954.111 9                                 105450001.574 8
  82016888.885 9                                
  22597352.252 1  22597357.860 8                                 121007836.78011
  94117239.277 8                                
  22143075.877 6  22143082.051 8                                 118242795.304 6
  91966647.751 8                                
  23265257.064 3  23265263.073 7                                 124322478.839 3
  96695176.644 7                                
  21045966.184 7  21045971.001 9                                 112423768.909 7
  87440734.360 9                                
  23276908.530 6  23276917.335 8                                 124559415.499 6
  96879583.663 8                                
  20682543.770 7  20682546.971 9                                 110404820.049 7
  85870430.991 9                                
  21476114.859 6                                                 114882750.520 6
                                                
 23  9 21 18 47 30.0000000  0 23E03E05E08E13E15E24E34G02G10G21G23G24
                                G28G32R06R07R08R09R15R16R21R22R23
  23301351.383 7                                                 122449425.771 7
                                                
  26265381.488 6                                                 138025502.695 6
                                                
  24658279.597 7                                                 129580134.250 7
                                                
  24709819.047 6                                                 129850976.052 6
                                                
  24407705.589 7                                                 128263355.130 7
                                                
  27325782.702 5                                                 143597963.304 5
                                                
  27690136.067 4                                                 145512634.068 4
                                                
  24149615.598 1                                                 126907041.728 1
                                                
  20229569.179 7  20229576.460 9  20229570.811 9                 106307061.348 7
  82836742.549 9  79385307.352 9                
  23359060.513 5                                                 122752786.058 5
  95651479.63746                                  23359067.25646
  21324750.150 1                                                 112062270.936 1
                                                
  22274031.626 5  22274041.841 9  22274038.104 9                 117050801.141 5
  91208481.972 9  87408004.872 9                
  24017813.150 5  24017824.501 9  24017825.095 8                 126214404.599 5
  98348984.779 9  94251106.493 8                
  21252023.972 7  21252031.641 9  21252026.980 9                 111680103.091 7
  87023530.199 9  83397513.550 9                
  20488294.253 2                                                 109329458.160 2
                                                
  19693460.364 8  19693463.867 9                                 105420611.479 8
  81994029.930 9                                
  22586105.295 1  22586108.775 7                                 120947608.709 1
  94070395.304 7                                
  22129483.805 6  22129490.017 9                                 118170215.109 6
  91910196.580 9                                
  23270603.856 1                                                 124351049.388 1
                                                
  21041517.729 7  21041522.709 9                                 112400007.981 7
  87422253.633 9                                
  23286853.376 6  23286861.290 8                                 124612631.418 6
  96920973.656 8                                
  20686447.905 7  20686451.388 9                                 110425660.165 7
  85886639.976 9                                
  21468431.692 6                                                 114841649.254 6
                                                
 23  9 21 18 47 45.0000000  0 23E03E05E08E13E15E24E34G02G10G21G23G24
                                G28G32R06R07R08R09R15R16R21R22R23
  23300100.489 7                                                 122442852.235 7
                                                
  26269263.938 6                                                 138045904.535 6
                                                
  24650527.873 7                                                 129539398.542 7
                                                
  24704384.939 6                                                 129822422.128 6
                                                
  24410701.124 7                                                 128279096.033 7
                                                
  27320958.190 5                                                 143572609.621 5
                                                
  27696797.746 4                                                 145547642.908 4
                                                
  24139850.850 1                                                 126855730.17611
                                                
  20226107.976 7  20226115.036 9  20226109.820 9                 106288872.887 7
  82822569.716 9  79371725.065 9                
  23351425.048 5                                                 122712661.253 5
  95620213.53546                                  23351431.34946
  21328225.552 1                                                 112080534.422 1
                                                
  22278915.329 5  22278925.939 9  22278921.909 9                 117076464.721 5
  91228479.556 9  87427169.208 9                
  24004037.050 6  24004048.208 9  24004049.148 8                 126142010.578 6
  98292573.995 9  94197046.133 8                
  21244512.141 8  21244520.110 9  21244515.229 9                 111640628.520 8
  86992770.808 9  83368035.794 9                
  20491211.900 3                                                 109345028.704 3
                                                
  19687977.206 8  19687980.053 9                                 105391258.702 8
  81971199.994 9                                
  22574856.146 2  22574861.046 8                                 120887364.294 2
  94023538.597 8                                
  22115898.355 6  22115904.605 9                                 118097667.561 6
  91853770.769 9                                
  23275968.032 1  23275974.499 7                                 124379712.086 1
  96739689.19917                                
  21037099.482 7  21037103.882 9                                 112376404.746 7
  87403895.556 9                                
  23296793.430 6  23296801.623 8                                 124665820.856 6
  96962343.082 8                                
  20690375.306 7  20690378.212 9                                 110446623.483 7
  85902944.751 9                                
  21460775.827 5                                                 114800695.452 5
                                                
 23  9 21 18 48  0.0000000  0 21E03E05E08E13E15E24E34G10G21G23G24G28
                                G32R06R07R08R09R16R21R22R23
  23298851.741 7                                                 122436289.486 7
                                                
  26273140.405 6                                                 138066275.095 6
                                                
  24642776.497 7                                                 129498665.524 7
                                                
  24698963.460 6                                                 129793931.239 6
                                                
  24413704.956 7                                                 128294881.527 7
                                                
  27316144.741 5                                                 143547315.641 5
                                                
  27703452.699 4                                                 145582614.019 4
                                                
  20222657.706 8  20222665.148 9  20222659.968 9                 106270743.771 8
  82808443.129 9  79358187.074 9                
  23343801.837 5                                                 122672597.194 5
  95588994.86446                                  23343806.93846
  21331708.259 1                  21331714.113 7                 112098841.508 1
                  83710265.99117                
  22283811.353 5  22283822.740 9  22283818.138 9                 117102195.715 5
  91248529.632 9  87446383.857 9                
  23990257.131 5  23990268.853 9  23990269.105 9                 126069599.489 5
  98236149.903 9  94142973.075 9                
  21237006.786 8  21237014.726 9  21237010.018 9                 111601188.065 8
  86962037.995 9  83338583.519 9                
  20494134.408 3                                                 109360621.221 3
                                                
  19682501.143 8  19682504.207 9                                 105361945.661 8
  81948400.956 9                                
  22563603.099 1  22563608.158 8                                 120827105.70211
  93976670.876 8                                
  22102318.730 6  22102324.683 9                                 118025155.376 6
  91797372.530 9                                
  21032710.675 7  21032715.670 9                                 112352961.444 7
  87385661.882 9                                
  23306728.451 6  23306736.903 8                                 124718985.538 6
  97003693.265 8                                
  20694325.901 7  20694328.700 9                                 110467711.941 7
  85919346.832 9                                
  21453147.782 4                                                 114759891.644 4
                                                
 23  9 21 18 48 15.0000000  0 19E03E05E08E13E15E24E34G10G21G24G28G32
                                R06R07R09R16R21R22R23
  23297604.985 7                                                 122429738.315 7
                                                
  26277010.864 6                                                 138086615.154 6
                                                
  24635025.993 7                                                 129457936.063 7
                                                
  24693554.302 6                                                 129765504.406 6
                                                
  24416717.594 7                                                 128310712.348 7
                                                
  27311342.915 5                                                 143522082.366 5
                                                
  27710100.434 4                                                 145617548.062 4
                                                
  20219219.160 8  20219226.632 9  20219221.320 9                 106252674.953 8
  82794363.525 9  79344694.123 9                
  23336189.240 5                                                 122632595.229 5
  95557824.50446                                  23336194.92746
  22288721.096 5  22288732.109 9  22288727.611 9                 117127994.576 5
  91268632.582 9  87465649.193 9                
  23976474.964 5  23976486.631 9  23976487.145 9                 125997172.522 5
  98179713.433 9  94088888.142 9                
  21229508.169 7  21229516.439 9  21229511.639 9                 111561782.606 7
  86931332.421 9  83309157.380 9                
  20497060.679 2                                                 109376236.491 2
                                                
  19677032.729 8  19677036.239 9                                 105332673.563 8
  81925633.807 9                                
  22088746.496 6  22088751.982 8                                 117952680.109 6
  91741002.952 8                                
  21028352.031 7  21028357.342 9                                 112329679.231 7
  87367553.534 9                                
  23316659.319 6  23316668.651 8                                 124772125.740 6
  97045024.357 8                                
  20698299.811 7  20698302.579 9                                 110488925.987 7
  85935846.611 9                                
  21445547.569 3                                                 114719239.095 3
                                                
 23  9 21 18 48 30.0000000  0 21E03E05E08E13E15E24E34G02G10G21G24G28
                                G32R06R07R09R15R16R21R22R23
  23296360.816 7                                                 122423200.494 7
                                                
  26280876.008 6                                                 138106926.500 6
                                                
  24627276.430 7                                                 129417212.039 7
                                                
  24688156.920 6                                                 129737143.597 6
                                                
  24419738.687 7                                                 128326590.185 7
                                                
  27306553.429 5                                                 143496911.768 5
                                                
  27716741.209 4                                                 145652446.676 4
                                                
  24110607.418 1                                                
                                                
  20215792.935 8  20215800.483 9  20215794.759 9                 106234668.421 8
  82780332.449 9  79331247.685 9                
  23328588.913 4                                                 122592657.458 4
  95526704.15146                                  23328595.31646
  22293643.159 5  22293654.524 9  22293649.931 9                 117153862.859 5
  91288789.625 9  87484966.354 9                
  23962690.171 5  23962701.255 9  23962702.241 9                 125924731.842 5
  98123266.255 9  94034792.970 9                
  21222016.548 7  21222024.528 9  21222019.865 9                 111522414.079 7
  86900655.671 9  83279758.816 9                
  20499991.761 3                                                 109391876.305 3
                                                
  19671572.390 8  19671575.764 9                                 105303443.982 8
  81902899.672 9                                
  22075181.611 6  22075187.116 9                                 117880244.173 6
  91684663.938 9                                
  23292165.644 1  23292172.610 7                                
  96807008.681 7                                
  21024023.937 7  21024029.381 9                                 112306560.164 7
  87349572.040 9                                
  23326585.037 6  23326594.221 8                                 124825242.896 6
  97086337.539 8                                
  20702297.790 7  20702300.832 9                                 110510267.013 7
  85952445.156 9                                
  21437976.958 5                                                 114678740.135 5
                                                
 23  9 21 18 48 45.0000000  0 22E03E05E08E13E15E24E34G02G10G21G24G28
                                G32R06R07R08R09R15R16R21R22R23
  23295119.627 7                                                 122416679.065 7
                                                
  26284735.821 6                                                 138127212.127 6
                                                
  24619528.560 7                                                 129376496.503 7
                                                
  24682773.758 6                                                 129708851.977 6
                                                
  24422769.825 7                                                 128342517.937 7
                                                
  27301776.189 5                                                 143471806.994 5
                                                
  27723376.817 5                                                 145687312.763 5
                                                
  24100882.558 1                                                 126650946.56211
                                                
  20212378.932 8  20212386.342 9  20212380.687 9                 106216727.180 8
  82766352.274 9  79317850.011 9                
  23321001.172 5                                                 122552787.017 5
  95495636.31446                                  23321007.83546
  22298579.608 5  22298590.794 9  22298586.393 9                 117179803.255 5
  91309002.889 9  87504337.388 9                
  23948903.378 5  23948913.746 9  23948915.505 9                 125852280.809 5
  98066811.016 9  93980690.063 9                
  21214533.044 7  21214540.729 9  21214536.005 9                 111483085.578 7
  86870010.097 9  83250390.145 9                
  20502927.633 2                                                 109407543.596 2
                                                
  19666120.624 8  19666124.205 9                                 105274260.002 8
  81880201.038 9                                
  22529830.758 1  22529833.476 7                                 120646255.00711
  93836013.241 7                                
  22061624.333 5  22061629.687 9                                 117807851.147 5
  91628358.339 9                                
  23297600.684 1  23297606.409 7                                 124495311.54311
  96829599.014 7                                
  21019727.109 7  21019732.277 9                                 112283607.364 7
  87331719.851 9                                
  23336508.464 5  23336517.094 9                                 124878339.765 5
  97127634.943 9                                
  20706320.171 7  20706323.363 9                                 110531737.715 7
  85969144.529 9                                
  21430434.764 5                                                 114638397.994 5
                                                
 23  9 21 18 49  0.0000000  0 23E03E05E08E13E15E24E34G02G10G21G23G24
                                G28G32R06R07R08R09R15R16R21R22R23
  23293881.306 7                                                 122410172.179 7
                                                
  26288591.122 6                                                 138147470.230 6
                                                
  24611782.178 7                                                 129335787.759 7
                                                
  24677402.859 6                                                 129680627.997 6
                                                
  24425809.675 7                                                 128358493.689 7
                                                
  27297010.975 5                                                 143446766.444 5
                                                
  27730005.128 5                                                 145722144.359 5
                                                
  24091162.808 1                                                 126599875.050 1
                                                
  20208976.784 8  20208984.352 9  20208978.645 9                 106198849.880 8
  82752421.885 9  79304500.065 9                
  23313426.291 5                                                 122512982.187 5
  95464619.54845                                  23313432.91945
  21345731.160 1  21345738.217 7  21345736.884 8                 112172533.53911
  87407259.88717  83765293.864 8                
  22303529.321 5  22303540.211 9  22303536.532 9                 117205813.723 5
  91329270.756 9  87523760.743 9                
  23935113.384 5  23935124.515 9  23935126.375 9                 125779817.967 5
  98010346.545 9  93926578.340 9                
  21207055.697 8  21207064.372 9  21207059.287 9                 111443795.386 8
  86839394.384 9  83221050.082 9                
  20505869.150 2                                                 109423236.717 2
                                                
  19660677.036 8  19660680.633 9                                 105245120.091 8
  81857536.665 9                                
  22518570.542 2  22518569.660 7                                 120585954.17812
  93789112.635 7                                
  22048075.076 5  22048081.284 9                                 117735499.877 5
  91572085.233 9                                
  23303054.762 2  23303058.147 7                                 124524452.727 2
  96852264.19917                                
  21015461.238 7  21015465.986 9                                 112260819.387 7
  87313995.878 9                                
  23346426.367 6  23346435.102 9                                 124931413.845 6
  97168914.639 9                                
  20710366.070 7  20710369.438 9                                 110553335.912 7
  85985943.115 9                                
  21422922.194 4                                                 114598211.063 4
                                                
 23  9 21 18 49 15.0000000  0 22E03E05E08E13E15E24G02G10G21G23G24G28
                                G32R06R07R08R09R15R16R21R22R23
  23292646.142 7                                                 122403682.045 7
                                                
  26292441.353 6                                                 138167703.001 6
                                                
  24604036.946 7                                                 129295088.097 7
                                                
  24672045.204 6                                                 129652474.030 6
                                                
  24428859.577 7                                                 128374519.596 7
                                                
  27292258.106 4                                                 143421792.496 4
                                                
  24081450.655 1                                                 126548856.145 1
                                                
  20205587.465 8  20205595.062 9  20205589.127 9                 106181038.888 8
  82738543.179 9  79291199.638 9                
  23305864.986 4                                                 122473245.784 4
  95433656.07646                                  23305871.15946
  21349260.333 1  21349266.985 7  21349265.552 8                 112191077.127 1
  87421709.411 7  83779141.300 8                
  22308492.706 5  22308503.571 9  22308500.079 9                 117231896.154 5
  91349594.692 9  87543237.847 9                
  23921322.733 5  23921332.717 8  23921335.115 9                 125707345.879 5
  97953874.893 8  93872459.729 9                
  21199587.021 7  21199595.213 9  21199590.123 9                 111404545.830 7
  86808810.320 9  83191740.366 9                
  20508814.692 2                                                 109438957.778 2
                                                
  19655242.007 8  19655245.991 9                                 105216026.792 8
  81834908.559 9                                
  22507309.111 2  22507312.604 8                                 120525646.292 2
  93742206.505 8                                
  22034534.607 6  22034540.643 9                                 117663193.189 6
  91515846.764 9                                
  23308526.511 3  23308533.245 7                                 124553691.761 3
  96875005.659 7                                
  21011226.440 7  21011231.656 9                                 112238198.524 7
  87296401.903 9                                
  23356340.660 5  23356349.831 9                                 124984467.021 5
  97210178.112 9                                
  20714436.122 7  20714439.611 9                                 110575063.503 7
  86002842.305 9                                
  21415441.078 2                                                 114558182.107 2
                                                
 23  9 21 18 49 30.0000000  0 22E03E05E08E13E15E24G02G10G21G23G24G28
                                G32R06R07R08R09R15R16R21R22R23
  23291414.496 7                                                 122397209.376 7
                                                
  26296286.745 6                                                 138187911.164 6
                                                
  24596294.220 7                                                 129254398.276 7
                                                
  24666701.092 6                                                 129624390.982 6
                                                
  24431918.760 7                                                 128390596.243 7
                                                
  27287518.227 5                                                 143396885.990 5
                                                
  24071753.559 1                                                 126497890.539 1
                                                
  20202210.997 8  20202218.534 9  20202212.817 9                 106163295.058 8
  82724716.830 9  79277949.382 9                
  23298316.492 5                                                 122433578.671 5
  95402746.69546                                  23298323.35846
  21352798.128 1  21352805.147 7  21352804.000 8                 112209670.87411
  87436198.007 7  83793026.254 8                
  22313469.477 5  22313480.712 9  22313477.036 9                 117258051.030 5
  91369975.093 9  87562769.045 9                
  23907530.008 5  23907540.158 8  23907542.255 9                 125634865.649 5
  97897396.895 8  93818335.024 9                
  21192125.985 7  21192134.292 9  21192129.029 9                 111365337.698 7
  86778258.555 9  83162461.585 9                
  20511765.696 1                                                 109454707.487 1
                                                
  19649816.196 8  19649819.682 9                                 105186980.536 8
  81812317.035 9                                
  22496046.797 1  22496051.237 8                                 120465331.552 1
  93695295.044 8                                
  22021002.077 6  22021008.103 9                                 117590932.612 6
  91459644.148 9                                
  23314017.271 2  23314024.336 7                                 124583029.250 2
  96897823.657 7                                
  21007022.896 7  21007028.123 9                                 112215745.867 7
  87278938.739 9                                
  23366251.007 5  23366260.822 8                                 125037499.540 5
  97251425.446 8                                
  20718530.890 7  20718534.011 9                                 110596920.905 7
  86019842.436 9                                
  21407986.966 3                                                 114518312.021 3
                                                
 23  9 21 18 49 45.0000000  0 22E03E05E08E13E15E24G02G10G21G23G24G28
                                G32R06R07R08R09R15R16R21R22R23
  23290186.960 7                                                 122390757.892 7
                                                
  26300128.276 6                                                 138208098.466 6
                                                
  24588553.633 7                                                 129213722.124 7
                                                
  24661371.099 6                                                 129596382.748 6
                                                
  24434988.272 7                                                 128406727.299 7
                                                
  27282792.298 4                                                 143372050.861 4
                                                
  24062066.218 4                                                 126446982.766 4
  98530176.37755                                  24062075.66045
  20198847.925 8  20198855.471 9  20198849.924 9                 106145622.239 8
  82710945.810 9  79264752.144 9                
  23290781.974 4                                                 122393984.756 4
  95371894.30446                                  23290789.06946
  21356346.682 2  21356355.319 7  21356352.667 8                 112228318.688 2
  87450728.717 7  83806951.496 8                
  22318461.520 5  22318472.643 9  22318468.615 9                 117284281.767 5
  91390414.585 9  87582356.892 9                
  23893736.580 5  23893747.664 8  23893748.423 9                 125562381.433 5
  97840915.802 8  93764207.335 9                
  21184673.366 7  21184681.716 9  21184676.862 9                 111326174.867 7
  86747742.075 9  83133216.637 9                
  20514723.682 2                                                 109470489.740 2
                                                
  19644399.686 8  19644402.789 9                                 105157985.533 8
  81789765.367 9                                
  22484781.888 1  22484785.862 7                                 120405014.50011
  93648381.790 7                                
  22007479.312 6  22007485.364 9                                 117518722.301 6
  91403480.683 9                                
  23319525.766 1  23319535.015 7                                 124612468.483 1
  96920720.888 7                                
  21002852.179 7  21002856.917 9                                 112193465.267 7
  87261609.395 9                                
  23376158.522 5  23376167.503 8                                 125090514.689 5
  97292659.234 8                                
  20722650.149 7  20722654.047 9                                 110618911.457 7
  86036946.182 9                                
  21400564.095 5                                                 114478605.460 5
                                                
 23  9 21 18 50  0.0000000  0 22E03E05E08E13E15E24G02G10G21G23G24G28
                                G32R06R07R08R09R15R16R21R22R23
  23288963.536 7                                                 122384328.386 7
                                                
  26303965.889 6                                                 138228265.666 6
                                                
  24580815.852 7                                                 129173060.508 7
                                                
  24656055.930 6                                                 129568450.317 6
                                                
  24438068.403 7                                                 128422913.452 7
                                                
  27278080.214 5                                                 143347288.032 5
                                                
  24052391.830 3                                                 126396133.661 3
  98490553.66045                                  24052399.48145
  20195498.870 8  20195506.062 9  20195500.513 9                 106128021.564 8
  82697230.987 9  79251608.767 9                
  23283261.344 4                                                 122354464.979 4
  95341099.69246                                  23283269.19546
  21359905.366 1  21359915.905 7  21359912.279 8                 112247021.140 1
  87465302.129 7  83820917.604 8                
  22323467.592 5  22323479.270 9  22323474.813 9                 117310588.893 5
  91410913.613 9  87602001.765 9                
  23879942.591 5  23879953.500 8  23879954.586 9                 125489894.394 5
  97784432.511 8  93710077.478 9                
  21177229.977 7  21177238.494 9  21177233.061 9                 111287058.199 7
  86717261.567 9  83104006.147 9                
  20517687.631 3                                                 109486305.193 3
                                                
  19638992.904 8  19638996.141 9                                 105129042.690 8
  81767254.273 9                                
  22473518.097 3  22473517.791 7                                 120344695.734 3
  93601467.364 7                                
  21993966.117 6  21993971.992 9                                 117446563.683 6
  91347357.387 9                                
  23325053.750 1  23325063.976 7                                 124642009.857 1
  96943697.514 7                                
  20998713.505 7  20998718.757 9                                 112171357.631 7
  87244414.563 9                                
  23386062.004 5  23386071.407 8                                 125143513.025 5
  97333879.901 8                                
  20726795.115 7  20726798.690 9                                 110641035.522 7
  86054153.743 9                                
  21393170.597 4                                                 114439063.258 4
                                                
 23  9 21 18 50 15.0000000  0 22E03E05E08E13E15E24G02G10G21G23G24G28
                                G32R06R07R08R09R15R16R21R22R23
  23287744.368 7                                                 122377921.903 7
                                                
  26307800.064 6                                                 138248413.861 6
                                                
  24573081.435 7                                                 129132414.556 7
                                                
  24650755.304 6                                                 129540594.933 6
                                                
  24441159.091 7                                                 128439155.662 7
                                                
  27273382.173 5                                                 143322598.801 5
                                                
  24042727.011 3                                                 126345344.692 3
  98450977.86245                                  24042734.60545
  20192163.683 8  20192170.922 9  20192165.169 9                 106110494.138 8
  82683573.252 9  79238520.101 9                
  23275754.964 5                                                 122315020.695 5
  95310363.91546                                  23275763.20446
  21363476.205 1  21363483.193 7  21363481.059 8                 112265779.496 1
  87479918.887 7  83834925.388 8                
  22328488.038 5  22328500.125 9  22328495.590 9                 117336973.196 5
  91431472.761 9  87621704.281 9                
  23866148.570 6  23866159.050 9  23866160.437 9                 125417405.913 6
  97727948.109 9  93655946.640 9                
  21169795.311 7  21169803.496 9  21169798.020 9                 111247988.850 7
  86686817.932 9  83074831.011 9                
  20520658.590 2                                                 109502154.756 2
                                                
  19633596.214 8  19633598.872 9                                 105100152.908 8
  81744784.437 9                                
  22462253.924 2  22462255.490 7                                 120284376.726 2
  93554552.60117                                
  21980463.323 6  21980468.551 9                                 117374458.681 6
  91291275.823 9                                
  23330600.840 3                                                 124671654.248 3
                                                
  20994607.560 7  20994612.523 9                                 112149424.197 7
  87227355.227 9                                
  23395964.070 5  23395972.551 8                                 125196495.084 5
  97375087.975 8                                
  20730965.084 7  20730968.462 9                                 110663293.893 7
  86071465.800 9                                
  21385811.755 5                                                 114399687.046 5
                                                
 23  9 21 18 50 30.0000000  0 22E03E05E08E13E15E24G02G10G21G23G24G28
                                G32R06R07R08R09R15R16R21R22R23
  23286530.711 7                                                 122371543.886 7
                                                
  26311631.584 6                                                 138268548.467 6
                                                
  24565350.546 7                                                 129091789.816 7
                                                
  24645470.151 6                                                 129512822.252 6
                                                
  24444261.806 7                                                 128455459.266 7
                                                
  27268699.439 5                                                 143297988.731 5
                                                
  24033075.607 4                                                 126294621.544 4
  98411453.34945                                  24033081.90945
  20188842.872 8  20188850.542 9  20188844.852 9                 106093045.865 8
  82669977.201 9  79225490.553 9                
  23268264.915 5                                                 122275657.597 5
  95279691.41546                                  23268272.82246
  21367057.696 1  21367064.211 7  21367062.602 8                 112284599.003 1
  87494583.388 7  83848978.877 8                
  22333524.687 5  22333536.313 9  22333531.953 9                 117363439.858 5
  91452096.069 9  87641468.297 9                
  23852355.120 6  23852366.028 9  23852366.301 9                 125344921.833 6
  97671467.095 9  93601819.014 9                
  21162370.425 7  21162379.071 9  21162373.346 9                 111208972.406 7
  86656415.513 9  83045695.362 9                
  20523635.657 2                                                 109518044.416 2
                                                
  19628210.170 8  19628213.373 9                                 105071322.205 8
  81722360.582 9                                
  22450990.145 1  22450991.246 7                                 120224063.049 1
  93507642.010 7                                
  21966971.469 6  21966977.163 9                                 117302413.227 6
  91235240.555 9                                
  23336168.024 2                                                 124701406.678 2
                                                
  20990535.451 7  20990540.304 9                                 112127670.933 7
  87210436.015 9                                
  23405864.610 5  23405871.116 9                                 125249465.846 5
  97416287.331 9                                
  20735160.857 7  20735163.843 9                                 110685691.752 7
  86088886.292 9                                
  21378482.234 4                                                 114360482.519 4
                                                
 23  9 21 18 50 45.0000000  0 22E03E05E08E13E15E24G02G10G21G23G24G28
                                G32R06R07R08R09R15R16R21R22R23
  23285321.606 7                                                 122365190.039 7
                                                
  26315459.957 6                                                 138288665.228 6
                                                
  24557623.015 7                                                 129051182.064 7
                                                
  24640200.173 6                                                 129485128.165 6
                                                
  24447375.221 7                                                 128471819.878 7
                                                
  27264031.044 5                                                 143273453.689 5
                                                
  24023434.922 2                                                 126243960.347 2
  98371977.09545                                  24023440.66245
  20185536.735 8  20185544.453 9  20185538.772 9                 106075672.412 8
  82656439.450 9  79212516.878 9                
  23260789.174 6                                                 122236371.816 6
  95249079.18746                                  23260796.95746
  21370649.333 1  21370657.245 7  21370654.752 7                 112303475.479 1
  87509292.199 7  83863074.816 7                
  22338576.412 5  22338587.303 9  22338582.887 9                 117389984.264 5
  91472779.986 9  87661290.382 9                
  23838561.571 6  23838572.812 9  23838573.385 9                 125272438.256 6
  97614986.471 9  93547691.790 9                
  21154955.019 7  21154963.665 9  21154958.296 9                 111170004.639 7
  86626051.018 9  83016596.073 9                
  20526620.016 2                                                 109533969.273 2
                                                
  19622834.580 8  19622837.761 9                                 105042546.087 8
  81699979.160 9                                
  22439727.234 1  22439729.393 7                                 120163750.336 1
  93460732.332 7                                
  21953490.441 6  21953496.224 9                                 117230423.743 6
  91179248.811 9                                
  23341756.821 1                                                 124731262.331 1
                                                
  20986495.951 7  20986500.513 9                                 112106093.399 7
  87193653.483 9                                
  23415759.878 6  23415766.981 9                                 125302420.597 6
  97457474.214 9                                
  20739382.102 7  20739385.504 9                                 110708224.422 7
  86106411.673 9                                
  21371184.754 4                                                 114321445.795 4
                                                
 23  9 21 18 51  0.0000000  0 22E03E05E08E13E15E24G02G10G21G23G24G28
                                G32R06R07R08R09R15R16R21R22R23
  23284116.659 7                                                 122358856.972 7
                                                
  26319284.144 6                                                 138308760.685 6
                                                
  24549898.195 7                                                 129010587.943 7
                                                
  24634944.131 6                                                 129457509.446 6
                                                
  24450498.792 7                                                 128488234.029 7
                                                
  27259376.024 5                                                 143248990.486 5
                                                
  24013804.763 1                                                 126193357.996 1
  98332546.78745                                  24013810.55845
  20182244.276 8  20182251.786 9  20182246.352 9                 106058370.587 8
  82642957.489 9  79199596.683 9                
  23253327.745 5                                                 122197160.185 5
  95218524.67046                                  23253335.29446
  21374251.286 1  21374257.992 7  21374255.878 7                
  87524042.703 7  83877210.699 7                
  22343641.756 5  22343652.637 9  22343648.011 9                 117416602.745 5
  91493521.620 9  87681167.750 9                
  23824767.855 6  23824779.140 9  23824779.443 9                 125199952.115 6
  97558503.847 9  93493562.655 9                
  21147548.477 7  21147557.033 9  21147551.706 9                 111131082.261 7
  86595721.906 9  82987530.684 9                
  20529610.099 2                                                 109549926.101 2
                                                
  19617469.142 8  19617471.476 9                                 105013821.257 8
  81677637.613 9                                
  22428464.629 1  22428466.162 8                                 120103435.625 1
  93413820.951 8                                
  21940018.896 6  21940024.995 9                                 117158487.447 6
  91123298.440 9                                
  23347362.908 2                                                 124761217.555 2
                                                
  20982488.675 7  20982493.869 9                                 112084688.503 7
  87177005.227 9                                
  23425651.887 6  23425659.786 9                                 125355355.447 6
  97498645.626 9                                
  20743627.293 7  20743631.130 9                                 110730887.999 7
  86124038.858 9                                
  21363918.338 5                                                 114282573.655 5
                                                
 23  9 21 18 51 15.0000000  0 22E03E05E08E13E15E24G02G10G21G23G24G28
                                G32R06R07R08R09R15R16R21R22R23
  23282914.983 7                                                 122352542.612 7
                                                
  26323103.631 6                                                 138328832.839 6
                                                
  24542175.650 7                                                 128970005.530 7
                                                
  24629702.336 6                                                 129429964.247 6
                                                
  24453632.025 7                                                 128504699.563 7
                                                
  27254733.528 5                                                 143224597.170 5
                                                
  24004185.332 1                                                 126142813.087 1
  98293161.08045                                  24004192.11145
  20178965.210 8  20178972.628 9  20178967.245 9                 106041138.441 8
  82629529.851 9  79186728.517 9                
  23245879.954 5                                                 122158020.834 5
  95188026.52446                                  23245887.46046
  21377862.866 1  21377870.221 7  21377868.042 7                 112341386.71311
  87538833.247 7  83891385.054 7                
  22348720.905 5  22348731.462 9  22348726.918 9                 117443292.951 5
  91514319.167 9  87701098.718 9                
  23810973.436 6  23810984.801 9  23810984.430 8                 125127461.750 6
  97502017.985 9  93439430.361 8                
  21140150.097 7  21140158.396 9  21140153.157 9                 111092203.304 7
  86565426.650 9  82958497.713 9                
  20532606.080 2                                                 109565912.933 2
                                                
  19612111.900 8  19612115.277 9                                 104985145.817 8
  81655334.512 9                                
  22417200.080 1  22417201.895 8                                 120043116.694 1
  93366906.132 8                                
  21926556.624 6  21926562.852 9                                 117086602.541 6
  91067388.072 9                                
  23352986.455 1                                                 124791269.755 1
                                                
  20978513.698 7  20978518.804 9                                 112063454.054 7
  87160489.537 9                                
  23435539.203 6  23435547.952 9                                 125408267.901 6
  97539799.589 9                                
  20747897.178 7  20747901.125 9                                 110753680.061 7
  86141765.986 9                                
  21356681.776 5                                                 114243864.438 5
                                                
 23  9 21 18 51 30.0000000  0 20E03E05E08E13E15E24G02G10G21G24G28G32
                                R06R07R08R09R16R21R22R23
  23281717.210 7                                                 122346248.071 7
                                                
  26326919.228 6                                                 138348882.787 6
                                                
  24534455.893 7                                                 128929435.967 7
                                                
  24624475.165 6                                                 129402493.839 6
                                                
  24456775.106 7                                                 128521217.469 7
                                                
  27250105.108 5                                                 143200275.065 5
                                                
  23994578.802 1                                                 126092326.737 1
  98253821.22244                                  23994585.62744
  20175699.678 8  20175706.855 9  20175701.738 9                 106023977.508 8
  82616157.696 9  79173913.538 9                
  23238446.040 6                                                 122118955.186 6
  95157585.81346                                  23238453.01246
  22353813.606 6  22353824.508 9  22353820.005 9                 117470055.767 6
  91535173.252 9  87721083.889 9                
  23797178.104 6  23797189.382 9  23797189.837 8                 125054968.636 6
  97445529.937 9  93385296.007 8                
  21132759.946 7  21132768.575 9  21132763.248 9                 111053369.028 7
  86535166.188 9  82929498.120 9                
  20535607.608 2                                                 109581930.706 2
                                                
  19606764.484 8  19606767.437 9                                 104956520.811 8
  81633070.606 9                                
  22405935.665 1  22405937.817 8                                 119982794.88111
  93319989.234 8                                
  21913105.062 6  21913110.997 9                                 117014771.284 6
  91011519.396 9                                
  20974570.516 6  20974576.360 9                                 112042391.616 6
  87144107.654 9                                
  23445423.541 6  23445432.043 9                                 125461158.525 6
  97580936.557 9                                
  20752190.853 7  20752194.765 9                                 110776601.323 7
  86159593.622 9                                
  21349475.836 5                                                 114205319.481 5
                                                
 23  9 21 18 51 45.0000000  0 20E03E05E08E13E15E24G02G10G21G24G28G32
                                R06R07R08R09R16R21R22R23
  23280524.355 7                                                 122339979.327 7
                                                
  26330731.113 6                                                 138368916.514 6
                                                
  24526739.407 7                                                 128888885.354 7
                                                
  24619263.084 6                                                 129375104.414 6
                                                
  24459929.947 7                                                 128537793.647 7
                                                
  27245491.432 5                                                 143176030.284 5
                                                
  23984983.962 1                                                 126041905.346 1
  98214531.65745                                  23984990.67545
  20172448.778 8  20172455.963 9  20172450.805 9                 106006893.993 8
  82602845.870 9  79161156.362 9                
  23231027.265 5                                                 122079969.467 5
  95127207.34746                                  23231033.99946
  22358921.348 5  22358932.438 9  22358927.771 9                 117496896.886 5
  91556088.380 9  87741127.524 9                
  23783383.947 5  23783395.480 9  23783395.444 8                 124982479.112 5
  97389044.742 9  93331164.365 8                
  21125379.600 7  21125388.244 9  21125383.223 9                 111014585.461 7
  86504945.251 9  82900536.398 9                
  20538616.490 2                                                 109597985.553 2
                                                
  19601427.846 8  19601431.213 9                                 104927952.697 8
  81610850.995 9                                
  22394670.533 1  22394674.165 8                                 119922476.133 1
  93273074.896 8                                
  21899664.768 6  21899670.139 9                                 116942999.945 6
  90955697.370 9                                
  20970661.295 6  20970666.634 9                                 112021507.427 6
  87127864.374 9                                
  23455304.874 6  23455313.678 9                                 125514032.980 6
  97622060.997 9                                
  20756510.728 7  20756514.150 9                                 110799657.478 7
  86177526.133 9                                
  21342303.241 6                                                 114166945.414 6
                                                
 23  9 21 18 52  0.0000000  0 19E03E05E08E13E15E24G02G10G21G24G28G32
                                R06R07R09R16R21R22R23
  23279335.972 7                                                 122333733.224 7
                                                
  26334539.669 6                                                 138388930.856 6
                                                
  24519025.628 7                                                 128848350.606 7
                                                
  24614066.201 6                                                 129347793.012 6
                                                
  24463094.364 7                                                 128554424.860 7
                                                
  27240892.100 5                                                 143151859.852 5
                                                
  23975401.956 1                                                 125991546.268 1
  98175290.94954                                  23975407.28744
  20169212.068 7  20169219.265 9  20169214.089 9                 105989884.762 7
  82589591.941 9  79148454.671 9                
  23223623.123 5                                                 122041060.642 5
  95096888.77946                                  23223630.37246
  22364043.437 5  22364054.525 9  22364049.842 9                 117523812.864 5
  91577061.798 9  87761227.047 9                
  23769589.539 5  23769600.599 9  23769601.608 9                 124909990.446 5
  97332560.177 9  93277033.346 9                
  21118008.634 7  21118017.247 9  21118011.830 9                 110975849.623 7
  86474761.484 9  82871610.298 9                
  20541631.459 1                                                 109614074.130 1
                                                
  19596101.096 8  19596103.990 9                                 104899438.147 8
  81588673.025 9                                
  21886234.586 6  21886240.557 9                                 116871286.110 6
  90899920.000 9                                
  20966784.621 7  20966789.695 9                                 112000798.430 7
  87111757.380 9                                
  23465181.746 6  23465190.690 9                                 125566887.790 6
  97663170.092 9                                
  20760854.413 7  20760858.116 9                                 110822844.949 7
  86195560.798 9                                
  21335160.634 6                                                 114128739.206 6
                                                
 23  9 21 18 52 15.0000000  0 19E03E05E08E13E15E24G02G10G21G24G28G32
                                R06R07R08R09R16R22R23
  23278150.915 7                                                 122327505.299 7
                                                
  26338343.672 6                                                 138408921.396 6
                                                
  24511314.520 7                                                 128807827.351 7
                                                
  24608883.012 6                                                 129320555.332 6
                                                
  24466268.755 7                                                 128571106.563 7
                                                
  27236306.224 5                                                 143127759.515 5
                                                
  23965828.816 1                                                 125941245.277 1
  98136095.43545                                  23965835.68645
  20165988.873 8  20165996.021 9  20165990.510 9                 105972945.565 8
  82576392.559 9  79135805.268 9                
  23216233.197 6                                                 122002224.595 6
  95066626.95646                                  23216240.28246
  22369178.727 5  22369189.657 9  22369185.094 9                 117550798.916 5
  91598089.849 9  87781378.911 9                
  23755794.995 6  23755805.287 9  23755807.011 9                 124837498.521 6
  97276073.112 9  93222899.927 9                
  21110645.684 7  21110654.288 9  21110648.457 9                 110937157.103 7
  86444611.493 9  82842716.556 9                
  20544652.034 1                                                 109630192.120 1
                                                
  19590783.828 8  19590786.316 9                                 104870972.725 8
  81566533.255 9                                
                  22372145.352 8                                
  93179243.349 8                                
  21872814.974 6  21872821.261 9                                 116799625.883 6
  90844184.344 9                                
  20962939.557 7  20962944.811 9                                 111980260.246 7
  87095783.237 9                                
  20765221.758 7  20765225.299 9                                 110846158.842 7
  86213693.803 9                                
  21328048.626 6                                                 114090696.683 6
                                                
 23  9 21 18 52 30.0000000  0 20E03E05E08E13E15E24G02G10G21G23G24G28
                                G32R06R07R08R09R16R22R23
  23276969.516 7                                                 122321298.153 7
                                                
  26342143.937 6                                                 138428890.695 6
                                                
  24503605.777 7                                                 128767318.248 7
                                                
  24603714.479 6                                                 129293394.179 6
                                                
  24469453.439 7                                                 128587841.204 7
                                                
  27231733.859 5                                                 143103731.984 5
                                                
  23956268.821 1                                                 125891005.029 1
  98096947.22155                                  23956275.28445
  20162779.181 8  20162786.477 9  20162780.713 9                 105956079.139 8
  82563249.884 9  79123210.195 9                
  23208857.227 6                                                 121963464.186 6
  95036424.06046                                  23208864.38746
  21396079.362 1                  21396091.301 7                 112437087.13011
                  83962867.51417                
  22374327.797 5  22374338.519 9  22374334.508 9                 117577857.420 5
  91619174.313 9  87801584.878 9                
  23741999.671 6  23742010.580 9  23742011.821 9                 124765006.355 6
  97219585.806 9  93168766.291 9                
  21103291.458 7  21103300.355 9  21103294.357 9                 110898510.627 7
  86414497.375 9  82813857.183 9                
  20547678.440 2                                                 109646341.895 2
                                                
  19585475.610 8  19585478.218 9                                 104842559.174 8
  81544433.838 9                                
  22360878.445 1  22360880.893 8                                 119741453.60011
  93132324.833 8                                
  21859406.031 6  21859412.048 9                                 116728022.583 6
  90788492.969 9                                
  20959127.242 7  20959131.579 9                                 111959895.585 7
  87079944.047 9                                
  20769613.380 7  20769616.828 9                                 110869601.413 7
  86231926.848 9                                
  21320968.126 6                                                 114052821.117 6
                                                
 23  9 21 18 52 45.0000000  0 20E03E05E08E13E15E24G02G10G21G23G24G28
                                G32R06R07R08R09R16R22R23
  23275794.090 7                                                 122315120.468 7
                                                
  26345941.812 6                                                 138448847.472 6
                                                
  24495901.284 7                                                 128726832.056 7
                                                
  24598562.341 6                                                 129266318.400 6
                                                
  24472649.826 7                                                 128604637.387 7
                                                
  27227177.366 5                                                 143079786.098 5
                                                
  23946721.686 1                                                 125840834.825 1
  98057853.59245                                  23946728.35445
  20159585.091 8  20159592.552 9  20159586.655 9                 105939294.617 8
  82550171.008 9  79110676.299 9                
  23201497.498 5                                                 121924788.306 5
  95006287.01746                                  23201504.23146
  21399754.525 1                  21399761.507 7                 112456401.264 1
                  83977290.331 7                
  22379492.110 5  22379503.051 9  22379498.858 9                 117604996.726 5
  91640321.792 9  87821851.201 9                
  23728206.278 6  23728217.057 9  23728218.888 9                 124692522.942 6
  97163105.364 9  93114639.217 9                
  21095947.699 7  21095956.498 9  21095950.659 9                 110859918.956 7
  86384425.956 9  82785038.750 9                
  20550711.853 2                                                 109662532.434 2
                                                
  19580179.255 8  19580181.570 9                                 104814206.660 8
  81522381.898 9                                
  22349613.141 1  22349617.249 8                                 119681137.610 1
  93085412.416 8                                
  21846009.526 6  21846015.395 9                                 116656485.449 6
  90732853.075 9                                
  20955349.063 7  20955354.262 9                                 111939713.441 7
  87064246.864 9                                
  20774030.943 7  20774034.021 9                                 110893181.075 7
  86250266.576 9                                
  21313920.719 6                                                 114015121.363 6
                                                
 23  9 21 18 53  0.0000000  0 20E03E05E08E13E15E24G02G10G21G23G24G28
                                G32R06R07R08R09R16R22R23
  23274624.742 7                                                 122308975.133 7
                                                
  26349737.724 6                                                 138468794.590 6
                                                
  24488202.032 7                                                 128686371.762 7
                                                
  24593426.953 6                                                 129239331.098 6
                                                
  24475858.074 6                                                 128621497.954 6
                                                
  27222636.825 5                                                 143055924.939 5
                                                
  23937188.242 3                                                 125790737.843 3
  98018817.06245                                  23937194.75845
  20156407.194 8  20156414.505 9  20156409.030 9                 105922594.697 8
  82537158.107 9  79098205.576 9                
  23194153.994 5                                                 121886200.229 5
  94976218.39446                                  23194161.08046
  21403442.721 1                  21403450.822 8                 112475780.322 1
                  83991761.619 8                
  22384672.328 5  22384683.393 9  22384679.205 9                 117632219.528 5
  91661534.300 9  87842179.873 9                
  23714415.485 6  23714426.415 9  23714427.708 9                 124620051.587 6
  97106634.317 9  93060521.168 9                
  21088614.689 7  21088623.774 9  21088617.796 9                 110821385.081 7
  86354399.583 9  82756263.479 9                
  20553754.596 1                                                 109678766.594 1
                                                
  19574894.453 8  19574896.960 9                                 104785917.871 8
  81500379.525 9                                
  22338350.467 1  22338354.471 8                                 119620832.193 1
  93038508.191 8                                
  21832625.641 6  21832631.357 9                                 116585018.211 6
  90677267.523 9                                
  20951605.901 7  20951610.914 9                                 111919717.056 7
  87048694.127 9                                
  20778474.137 7  20778477.639 9                                 110916900.442 7
  86268714.949 9                                
  21306906.678 5                                                 113977600.766 5
                                                
 23  9 21 18 53 15.0000000  0 20E03E05E08E13E15E24G02G10G21G23G24G28
                                G32R06R07R08R09R16R22R23
  23273460.315 7                                                 122302854.712 7
                                                
  26353530.335 6                                                 138488724.647 6
                                                
  24480506.216 7                                                 128645930.020 7
                                                
  24588306.923 7                                                 129212424.996 7
                                                
  24479077.284 6                                                 128638415.303 6
                                                
  27218110.452 5                                                 143032141.237 5
                                                
  23927667.632 3                                                 125740706.902 3
  97979831.98445                                  23927675.16545
  20153243.925 8  20153251.022 9  20153245.941 9                 105905972.345 8
  82524205.615 9  79085792.781 9                
  23186826.612 5                                                 121847692.728 5
  94946212.58546                                  23186832.62846
  21407140.826 1  21407147.594 8  21407148.085 8                 112495216.74711
  87658718.52418  84006275.871 8                
  22389867.005 5  22389878.058 9  22389874.339 9                 117659518.026 5
  91682805.808 9  87862565.072 9                
  23700625.526 6  23700636.147 9  23700637.604 9                 124547585.235 6
  97050167.139 9  93006406.785 9                
  21081291.548 7  21081300.562 9  21081294.255 9                 110782901.676 7
  86324412.542 9  82727525.895 9                
  20556803.931 1                                                 109695036.890 1
                                                
  19569620.923 8  19569623.275 9                                 104757685.741 8
  81478421.177 9                                
  22327091.612 1  22327093.835 8                                 119560530.157 1
  92991606.771 8                                
  21819254.431 6  21819259.673 9                                 116513613.858 6
  90621730.884 9                                
  20947895.719 7  20947900.804 9                                 111899898.807 7
  87033279.940 9                                
  20782942.771 7  20782946.227 9                                 110940751.477 7
  86287265.693 9                                
  21299924.192 5                                                 113940252.182 5
                                                
 23  9 21 18 53 30.0000000  0 20E03E05E08E13E15E24G02G10G21G23G24G28
                                G32R06R07R08R09R16R22R23
  23272298.836 7                                                 122296751.473 7
                                                
  26357318.228 6                                                 138508629.913 6
                                                
  24472812.486 7                                                 128605499.152 7
                                                
  24583200.742 6                                                 129185592.574 6
                                                
  24482306.019 7                                                 128655381.681 7
                                                
  27213597.923 5                                                 143008427.406 5
                                                
  23918158.163 4                                                 125690734.756 4
  97940892.71545                                  23918165.44645
  20150094.405 8  20150101.195 9  20150096.037 9                 105889420.229 8
  82511307.854 9  79073432.431 9                
  23179512.428 5                                                 121809258.363 5
  94916263.74946                                  23179518.53546
  21410848.867 1  21410855.845 8  21410855.886 8                 112514703.001 1
  87673902.585 8  84020827.273 8                
  22395074.846 5  22395085.262 9  22395081.958 9                 117686884.270 5
  91704130.103 9  87883000.856 9                
  23686835.477 5  23686845.536 9  23686847.463 9                 124475116.518 5
  96993698.142 9  92952290.696 9                
  21073976.801 7  21073985.783 9  21073979.333 9                 110744461.149 7
  86294458.911 9  82698820.323 9                
  20559858.481 1                                                 109711335.341 1
                                                
  19564355.655 8  19564357.986 9                                 104729502.316 8
  81456500.744 9                                
  22315829.140 1  22315832.231 8                                 119500223.767 1
  92944701.902 8                                
  21805892.724 6  21805898.083 9                                 116442265.132 6
  90566237.525 9                                
  20944217.525 7  20944222.819 9                                 111880251.347 7
  87017998.576 9                                
  20787433.886 7  20787437.175 9                                 110964726.064 7
  86305912.550 9                                
  21292973.089 5                                                 113903068.010 5
                                                
 23  9 21 18 53 45.0000000  0 20E03E05E08E13E15E24G02G10G21G23G24G28
                                G32R06R07R08R09R16R22R23
  23271141.325 7                                                 122290668.424 7
                                                
  26361101.927 6                                                 138528513.425 6
                                                
  24465121.084 7                                                 128565082.247 7
                                                
  24578109.516 7                                                 129158836.971 7
                                                
  24485544.484 6                                                 128672399.929 6
                                                
  27209099.111 5                                                 142984786.606 5
                                                
  23908660.511 4                                                 125640824.631 4
  97902001.69945                                  23908667.30845
  20146958.534 8  20146965.224 9  20146960.108 9                 105872941.239 8
  82498467.091 9  79061126.679 9                
  23172213.530 5                                                 121770900.175 5
  94886374.24346                                  23172220.18246
  21414566.305 1  21414574.727 7  21414572.683 8                 112534241.925 1
  87689127.841 7  84035418.089 8                
  22400295.702 5  22400306.689 9  22400302.971 9                 117714320.995 5
  91725509.307 9  87903489.231 9                
  23673045.420 5  23673055.348 9  23673056.853 9                 124402648.784 5
  96937229.911 9  92898175.345 9                
  21066670.765 7  21066679.474 9  21066672.941 9                 110706066.563 7
  86264541.086 9  82670149.056 9                
  20562918.485 1                                                 109727665.025 1
                                                
  19559100.224 8  19559103.375 9                                 104701370.711 8
  81434620.605 9                                
  22304564.086 1  22304570.219 8                                 119439916.273 1
  92897796.057 8                                
  21792542.297 6  21792548.232 9                                 116370975.766 6
  90510790.359 9                                
  20940571.952 7  20940577.536 9                                 111860777.353 7
  87002852.171 9                                
  20791948.730 7  20791951.878 9                                 110988826.856 7
  86324657.574 9                                
  21286053.171 6                                                 113866051.700 6
                                                
 23  9 21 18 54  0.0000000  0 20E03E05E08E13E15E24G02G10G21G23G24G28
                                G32R06R07R08R09R16R22R23
  23269987.906 7                                                 122284608.147 7
                                                
  26364882.113 6                                                 138548377.743 6
                                                
  24457433.079 7                                                 128524681.998 7
                                                
  24573033.325 6                                                 129132160.999 6
                                                
  24488793.162 6                                                 128689472.547 6
                                                
  27204614.764 5                                                 142961221.572 5
                                                
  23899175.948 3                                                 125590979.505 3
  97863161.43645                                  23899181.06445
  20143836.994 8  20143843.695 9  20143838.709 9                 105856538.300 8
  82485685.590 9  79048877.730 9                
  23164929.279 5                                                 121732621.182 5
  94856546.48846                                  23164935.64246
  21418295.665 1  21418303.625 8  21418301.417 8                 112553836.231 1
  87704396.099 8  84050050.196 8                
  22405530.714 5  22405541.759 9  22405537.888 9                 117741830.474 5
  91746945.214 9  87924031.958 9                
  23659256.135 5  23659265.824 9  23659267.194 9                 124330185.032 5
  96880764.789 9  92844062.955 9                
  21059373.426 7  21059382.134 9  21059376.135 9                 110667720.637 7
  86234661.170 9  82641514.117 9                
  20565985.090 1                                                 109744028.684 1
                                                
  19553855.627 8  19553857.873 9                                 104673293.965 8
  81412783.143 9                                
  22293303.950 1  22293308.633 8                                 119379610.183 1
  92850891.264 8                                
  21779203.651 6  21779208.908 9                                 116299749.184 6
  90455391.979 9                                
  20936959.540 7  20936964.802 9                                 111841480.033 7
  86987843.141 9                                
  20796487.695 7  20796490.890 9                                 111013055.992 7
  86343502.430 9                                
  21279165.307 6                                                 113829206.187 6
                                                
 23  9 21 18 54 15.0000000  0 19E03E05E08E13E15E24G02G10G21G24G28G32
                                R06R07R08R09R16R22R23
  23268840.790 7                                                 122278577.591 7
                                                
  26368659.223 6                                                 138568229.833 6
                                                
  24449749.960 7                                                 128484305.415 7
                                                
  24567973.118 6                                                 129105571.771 6
                                                
  24492053.813 6                                                 128706606.397 6
                                                
  27200145.900 5                                                 142937739.425 5
                                                
  23889704.105 4                                                 125541206.646 4
  97824377.36145                                  23889709.47245
  20140731.935 7  20140738.642 9  20140733.290 9                 105840218.599 7
  82472968.933 9  79036690.942 9                
  23157660.792 5                                                 121694428.596 5
  94826786.08046                                  23157667.62046
  22410780.700 5  22410792.040 9  22410787.700 9                 117769419.333 5
  91768442.989 9  87944633.989 9                
  23645468.315 5  23645478.614 9  23645479.424 9                 124257732.624 5
  96824308.469 9  92789959.022 9                
  21052087.038 7  21052095.851 9  21052089.957 9                 110629430.446 7
  86204824.646 9  82612920.790 9                
  20569059.011 1                                                 109760433.218 1
                                                
  19548622.233 8  19548624.777 9                                 104645279.031 8
  81390993.753 9                                
  22282044.910 1  22282048.733 8                                 119319312.80111
  92803993.332 8                                
  21765878.193 6  21765884.739 9                                 116228592.900 6
  90400048.301 9                                
  20933381.410 7  20933386.558 9                                 111822366.475 7
  86972977.019 9                                
  20801051.992 7  20801055.421 9                                 111037420.356 7
  86362452.450 9                                
  21272311.237 6                                                 113792538.816 6
                                                
 23  9 21 18 54 30.0000000  0 19E03E05E08E13E15E24G02G10G21G24G28G32
                                R06R07R08R09R16R22R23
  23267699.050 7                                                 122272578.567 7
                                                
  26372435.199 6                                                 138588071.527 6
                                                
  24442071.214 7                                                 128443954.399 7
                                                
  24562930.675 7                                                 129079071.297 7
                                                
  24495326.472 6                                                 128723803.190 6
                                                
  27195693.948 5                                                 142914342.163 5
                                                
  23880246.309 3                                                 125491508.264 3
  97785651.35445                                  23880252.30345
  20137642.329 8  20137649.141 9  20137643.864 9                 105823984.005 8
  82460318.585 9  79024567.708 9                
  23150410.199 5                                                 121656324.417 5
  94797094.50746                                  23150416.33046
  22416046.243 4  22416057.263 9  22416053.348 9                 117797089.213 4
  91790003.868 9  87965296.479 9                
  23631683.358 5  23631693.714 9  23631694.562 9                 124185293.665 5
  96767862.662 9  92735865.151 9                
  21044811.548 7  21044820.374 9  21044814.293 9                 110591197.820 7
  86175033.005 9  82584370.475 9                
  20572141.113 1                                                 109776880.531 1
                                                
  19543400.684 8  19543402.969 9                                 104617327.835 8
  81369253.933 9                                
  22270786.509 1  22270789.651 8                                 119259026.29111
  92757104.046 8                                
  21752566.608 6  21752572.410 9                                 116157509.488 6
  90344761.291 9                                
  20929838.348 7  20929842.992 9                                 111803438.651 7
  86958255.394 9                                
  20805641.924 7  20805644.389 9                                 111061921.140 7
  86381508.604 9                                
  21265489.941 6                                                 113756051.533 6
                                                
 23  9 21 18 54 45.0000000  0 19E03E05E08E13E15E24G02G10G21G24G28G32
                                R06R07R08R09R16R22R23
  23566354.607 7                                                 123842024.318 7
                                                
  26675999.963 6                                                 140183314.353 6
                                                
  24734189.443 7                                                 129979044.538 7
                                                
  24857695.903 6                                                 130628074.338 6
                                                
  24798401.566 6                                                 130316474.499 6
                                                
  27491048.869 5                                                 144466444.312 5
                                                
  24170594.966 4                                                 127017300.835 4
  98974580.68345                                  24170601.12845
  20434360.461 7  20434367.345 9  20434362.301 9                 107383248.642 7
  83675329.996 9  80188953.636 9                
  23442967.417 6                                                 123193724.287 6
  95995068.44146                                  23442973.66046
  22721118.023 5  22721129.245 9  22721125.099 9                 119400250.715 5
  93039220.591 9  89162462.487 9                
  23917693.421 6  23917703.886 9  23917704.516 9                 125688286.239 6
  97939025.836 9  93858229.862 9                
  21337338.991 7  21337347.607 9  21337341.327 9                 112128438.307 7
  87372882.773 9  83732309.819 9                
  20875022.039 1                                                 111393112.188 1
                                                
  19837982.578 8  19837985.202 9                                 106194247.613 8
  82595747.103 9                                
  22559322.192 1  22559325.419 8                                 120804122.735 1
  93958845.687 8                                
  22039061.169 6  22039066.452 9                                 117687371.790 6
  91534654.276 9                                
  21226120.954 7  21226126.249 9                                 113386127.986 7
  88189236.033 9                                
  21110047.970 7  21110051.689 9                                 112686861.621 7
  87645351.121 9                                
  21558494.403 6                                                 115323427.618 6
                                                
 23  9 21 18 55  0.0000000  0 20E03E05E08E13E15E24G02G10G21G23G24G28
                                G32R06R07R08R09R16R22R23
  23565222.248 7                                                 123836074.636 7
                                                
  26679769.248 6                                                 140203121.543 6
                                                
  24726517.773 7                                                 129938731.160 7
                                                
  24852684.488 7                                                 130601738.148 7
                                                
  24801695.565 7                                                 130333783.144 7
                                                
  27486626.574 5                                                 144443203.476 5
                                                
  24161163.580 3                                                 126967738.814 3
  98935960.94545                                  24161169.61445
  20431301.072 8  20431308.093 9  20431302.932 9                 107367171.034 8
  83662801.976 9  80176947.617 9                
  23435747.335 6                                                 123155783.897 6
  95965504.54146                                  23435754.17346
  21733121.341 1                  21733125.873 8                 114208239.49211
                  85285484.998 8                
  22726411.771 5  22726422.550 9  22726418.273 9                 119428067.909 5
  93060896.269 9  89183235.021 9                
  23903911.275 6  23903921.918 9  23903922.810 9                 125615861.722 6
  97882591.234 9  93804146.750 9                
  21330082.730 7  21330091.620 9  21330085.767 9                 112090307.504 7
  87343170.463 9  83703835.541 9                
  20878118.249 1                                                 111409630.987 1
                                                
  19832782.361 8  19832784.683 9                                 106166410.571 8
  82574096.082 9                                
  22548065.035 3  22548067.465 7                                 120743844.223 3
  93911962.367 7                                
  22025774.029 6  22025779.882 9                                 117616421.789 6
  91479471.007 9                                
  21222644.871 7  21222649.414 9                                 113367558.085 7
  88174792.767 9                                
  21114686.223 7  21114688.921 9                                 112711620.304 7
  87664607.821 9                                
  21551738.569 6                                                 115287288.215 6
                                                
 23  9 21 18 55 15.0000000  0 19E03E05E08E13E15E24G02G10G21G24G28G32
                                R06R07R08R09R16R22R23
  23564095.751 7                                                 123830154.688 7
                                                
  26683535.842 6                                                 140222916.523 6
                                                
  24718850.977 7                                                 129898441.748 7
                                                
  24847689.231 6                                                 130575489.457 6
                                                
  24805000.688 6                                                 130351152.627 6
                                                
  27482219.608 5                                                 144420046.146 5
                                                
  24151746.670 3                                                 126918250.154 3
  98897398.38245                                  24151751.65745
  20428257.485 8  20428264.550 9  20428259.298 9                 107351177.410 8
  83650339.431 9  80165004.325 9                
  23428544.496 5                                                 123117930.958 5
  95936008.77746                                  23428551.31946
  22731719.819 5  22731730.379 9  22731727.136 9                 119455963.446 5
  93082633.020 9  89204066.056 9                
  23890131.820 5  23890142.432 9  23890142.735 9                 125543449.952 5
  97826166.639 9  93750073.199 9                
  21322837.194 7  21322846.013 9  21322840.071 9                 112052232.818 7
  87313501.872 9  83675403.129 9                
  20881221.289 2                                                 111426190.616 2
                                                
  19827593.365 8  19827596.244 9                                 106138635.476 8
  82552493.238 9                                
  22536809.675 2  22536811.884 7                                 120683575.170 2
  93865086.588 7                                
  22012500.993 6  22012506.134 9                                 117545544.477 6
  91424344.301 9                                
  21219202.352 7  21219207.460 9                                 113349172.354 7
  88160492.732 9                                
  21119349.232 7  21119352.455 9                                 112736512.556 7
  87683968.466 9                                
  21545016.207 7                                                 115251328.234 7
                                                
 23  9 21 18 55 30.0000000  0 19E03E05E08E13E15E24G02G10G21G24G28G32
                                R06R07R08R09R16R22R23
  23562975.012 7                                                 123824265.331 7
                                                
  26687300.932 6                                                 140242700.236 6
                                                
  24711189.032 7                                                 129858177.303 7
                                                
  24842711.291 6                                                 130549329.259 6
                                                
  24808317.491 7                                                 130368583.696 7
                                                
  27477829.082 4                                                 144396973.367 4
                                                
  24142343.255 3                                                 126868836.392 3
  98858894.14645                                  24142349.24045
  20425230.212 8  20425236.933 9  20425232.036 9                 107335268.900 8
  83637943.188 9  80153124.579 9                
  23421357.736 6                                                 123080166.253 6
  95906581.73647                                  23421365.56847
  22737043.203 5  22737053.733 9  22737050.640 9                 119483937.896 5
  93104431.232 9  89224956.016 9                
  23876355.122 5  23876365.460 9  23876366.005 9                 125471052.298 5
  97769752.977 9  93696010.136 9                
  21315602.897 7  21315611.415 9  21315605.310 9                 112014215.185 7
  87283877.785 9  83647013.386 9                
  20884332.283 2                                                 111442792.058 2
                                                
  19822417.012 8  19822419.098 9                                 106110924.042 8
  82530939.887 9                                
  22525558.053 1  22525558.857 7                                 120623316.715 1
  93818218.847 7                                
  21999241.925 6  21999247.518 9                                 117474741.539 6
  91369275.380 9                                
  21215795.717 7  21215800.289 9                                 113330971.966 7
  88146336.888 9                                
  21124037.349 7  21124040.976 9                                 112761538.789 7
  87703433.276 9                                
  21538327.564 7                                                 115215548.837 7
                                                
 23  9 21 18 55 45.0000000  0 19E03E05E08E13E15E24G02G10G21G24G28G32
                                R06R07R08R09R16R22R23
  23561859.292 7                                                 123818402.511 7
                                                
  26691062.551 5                                                 140262468.580 5
                                                
  24703530.854 7                                                 129817933.797 7
                                                
  24837748.957 6                                                 130523253.704 6
                                                
  24811645.892 6                                                 130386072.179 6
                                                
  27473453.677 5                                                 144373981.239 5
                                                
  24132953.645 2                                                 126819493.617 2
  98820445.33745                                  24132959.89045
  20422218.274 8  20422225.009 9  20422219.829 9                 107319441.350 8
  83625610.022 9  80141305.317 9                
  23414187.754 6                                                 123042486.265 6
  95877220.76147                                  23414194.93547
  22742380.695 5  22742391.571 9  22742388.182 9                 119511986.895 5
  93126287.571 9  89245901.644 9                
  23862579.712 5  23862590.502 9  23862591.312 9                 125398664.989 5
  97713347.436 9  93641954.820 9                
  21308378.514 7  21308387.240 9  21308380.830 9                 111976250.672 7
  87254295.069 9  83618663.281 9                
  20887450.950 1                                                 111459431.154 1
                                                
  19817251.213 8  19817253.310 9                                 106083271.664 8
  82509432.491 9                                
  22514305.956 1  22514306.106 7                                 120563064.38011
  93771356.121 7                                
  21985996.020 5  21986001.611 9                                 117404009.316 5
  91314261.514 9                                
  21212422.447 7  21212427.242 9                                 113312952.938 7
  88132322.104 9                                
  21128749.913 7  21128753.173 9                                 112786694.446 7
  87722998.751 9                                
  21531671.876 6                                                 115179946.234 6
                                                
 23  9 21 18 56  0.0000000  0 19E03E05E08E13E15E24G02G10G21G24G28G32
                                R06R07R08R09R16R22R23
  23560749.743 7                                                 123812570.850 7
                                                
  26694822.341 6                                                 140282226.203 6
                                                
  24695877.797 7                                                 129777715.970 7
                                                
  24832804.047 7                                                 130497267.572 7
                                                
  24814985.411 6                                                 130403622.661 6
                                                
  27469094.822 5                                                 144351074.481 5
                                                
  24123578.810 1                                                 126770226.846 1
  98782055.68545                                  24123584.71445
  20419222.839 8  20419229.473 9  20419224.306 9                 107303699.778 8
  83613343.867 9  80129550.242 9                
  23407034.293 6                                                 123004895.968 6
  95847929.63146                                  23407041.17246
  22747732.870 5  22747744.150 9  22747740.574 9                 119540114.817 5
  93148205.360 9  89266906.195 9                
  23848808.008 5  23848818.286 9  23848819.395 9                 125326293.002 5
  97656953.826 9  93587910.983 9                
  21301164.892 7  21301173.788 9  21301167.740 9                 111938344.063 7
  87224757.445 9  83590356.403 9                
  20890577.304 1                                                 111476112.519 1
                                                
  19812097.716 8  19812099.673 9                                 106055683.585 8
  82487975.104 9                                
  22503056.818 1  22503057.368 7                                 120502823.54011
  93724502.142 7                                
  21972764.406 5  21972770.289 9                                 117333353.314 5
  91259306.960 9                                
  21209084.211 7  21209089.426 9                                 113295119.974 7
  88118452.014 9                                
  21133487.931 7  21133490.807 9                                 112811983.932 7
  87742668.312 9                                
  21525050.995 7                                                 115144525.596 7
                                                
 23  9 21 18 56 15.0000000  0 19E03E05E08E13E15E24G02G10G21G24G28G32
                                R06R07R08R09R16R22R23
  23559645.908 7                                                 123806769.253 7
                                                
  26698579.301 6                                                 140301972.038 6
                                                
  24688229.179 7                                                 129737522.785 7
                                                
  24827875.556 6                                                 130471369.983 6
                                                
  24818336.838 7                                                 130421233.870 7
                                                
  27464752.097 5                                                 144328252.197 5
                                                
  24114215.680 1                                                
                                                  24114223.45045
  20416243.433 7  20416249.921 9  20416245.057 9                 107288043.226 7
  83601143.963 9  80117858.660 9                
  23399898.240 6                                                 122967394.319 6
  95818707.60847                                  23399904.61347
  22753100.632 5  22753111.491 9  22753108.098 9                 119568320.254 5
  93170183.564 9  89287968.653 9                
  23835038.604 5  23835049.064 9  23835049.804 9                 125253935.733 5
  97600571.673 9  93533878.113 9                
  21293962.122 7  21293970.983 9  21293965.225 9                 111900494.276 7
  87195264.122 9  83562091.972 9                
  20893710.888 2                                                 111492835.255 2
                                                
  19806955.487 8  19806958.112 9                                 106028158.380 8
  82466566.623 9                                
  22491808.241 1  22491810.859 7                                 120442592.982 1
  93677656.207 7                                
  21959547.274 6  21959552.680 9                                 117262772.982 6
  91204411.209 9                                
  21205780.175 7  21205785.419 9                                 113277472.283 7
  88104726.023 9                                
  21138250.222 7  21138253.468 9                                 112837405.612 7
  87762440.682 9                                
  21518462.536 7                                                 115109285.881 7
                                                
 23  9 21 18 56 30.0000000  0 18E03E05E08E13E15E24G10G21G24G28G32R06
                                R07R08R09R16R22R23
  23558546.538 7                                                 123800990.875 7
                                                
  26702333.438 6                                                 140321699.217 6
                                                
  24680584.124 7                                                 129697347.506 7
                                                
  24822963.228 6                                                 130445554.215 6
                                                
  24821698.315 6                                                 130438898.881 6
                                                
  27460424.380 5                                                 144305507.713 5
                                                
  20413279.114 7  20413285.771 9  20413280.779 9                 107272465.090 7
  83589005.145 9  80106225.617 9                
  23392777.191 6                                                 122929974.760 6
  95789549.54647                                  23392784.44047
  22758481.311 5  22758492.330 9  22758488.831 9                 119596596.118 5
  93192216.656 9  89309083.683 9                
  23821271.103 5  23821281.563 9  23821282.119 9                 125181586.657 5
  97544195.867 9  93479851.342 9                
  21286769.040 7  21286778.124 9  21286772.077 9                 111862694.580 7
  87165809.833 9  83533864.942 9                
  20896851.345 2                                                 111509592.169 2
                                                
  19801823.993 8  19801826.509 9                                 106000689.425 8
  82445201.882 9                                
  22480561.205 2  22480564.276 7                                 120382365.827 2
  93630812.800 7                                
  21946341.964 5  21946347.883 9                                 117192261.870 5
  91149569.317 9                                
  21202509.891 7  21202514.811 9                                 113260002.806 7
  88091138.667 9                                
  21143035.783 7  21143038.848 9                                 112862952.137 7
  87782310.193 9                                
  21511907.842 6                                                 115074220.638 6
                                                
 23  9 21 18 56 45.0000000  0 18E03E05E08E13E15E24G10G21G24G28G32R06
                                R07R08R09R16R22R23
  23557450.930 7                                                 123795234.565 7
                                                
  26706083.830 6                                                 140341406.592 6
                                                
  24672942.150 7                                                 129657188.992 7
                                                
  24818066.101 7                                                 130419819.307 7
                                                
  24825069.923 6                                                 130456616.434 6
                                                
  27456110.481 5                                                 144282839.955 5
                                                
  20410329.010 7  20410336.131 9  20410330.900 9                 107256964.283 7
  83576926.573 9  80094650.332 9                
  23385672.059 6                                                 122892636.262 6
  95760454.64647                                  23385678.94247
  22763875.082 5  22763886.301 9  22763882.330 9                 119624940.907 5
  93214303.489 9  89330250.189 9                
  23807504.798 6  23807514.482 9  23807515.973 9                 125109244.976 6
  97487825.844 9  93425830.092 9                
  21279585.355 7  21279594.267 9  21279588.315 9                 111824943.937 7
  87136393.745 9  83505674.534 9                
  20899997.131 1                                                 111526382.065 1
                                                
  19796703.127 8  19796705.524 9                                 105973275.645 8
  82423880.050 9                                
  22469314.515 2  22469318.155 8                                 120322141.313 2
  93583971.734 8                                
  21933150.906 6  21933156.122 9                                 117121819.605 6
  91094780.950 9                                
  21199272.853 7  21199278.167 9                                 113242710.583 7
  88077689.146 9                                
  21147844.484 7  21147848.069 9                                 112888622.101 7
  87802275.676 9                                
  21505384.821 6                                                 115039328.882 6
                                                
 23  9 21 18 57  0.0000000  0 19E03E05E08E13E15E24G02G10G21G24G28G32
                                R06R07R08R09R16R22R23
  23556359.811 7                                                 123789500.369 7
                                                
  26709830.839 6                                                 140361094.260 6
                                                
  24665303.548 7                                                 129617047.415 7
                                                
  24813184.315 7                                                 130394165.475 7
                                                
  24828451.327 7                                                 130474386.487 7
                                                
  27451811.470 5                                                 144260249.154 5
                                                
  24086208.661 1                                                 126573864.76311
  98629045.83856                                  24086220.45146
  20407394.589 7  20407401.495 9  20407395.731 9                 107241541.247 7
  83564908.611 9  80083133.139 9                
  23378582.207 6                                                 122855379.206 6
  95731423.18746                                  23378588.39746
  22769282.212 5  22769293.100 9  22769289.367 9                 119653354.456 5
  93236443.877 9  89351468.071 9                
  23793740.127 6  23793749.977 9  23793750.824 9                 125036911.103 6
  97431461.889 9  93371814.682 9                
  21272410.861 7  21272419.795 9  21272413.685 9                 111787242.496 7
  87107015.995 9  83477520.879 9                
  20903150.439 1                                                 111543205.176 1
                                                
  19791592.225 8  19791594.356 9                                 105945917.340 8
  82402601.366 9                                
  22458068.780 2  22458070.792 8                                 120261919.408 2
  93537132.396 8                                
  21919971.929 5  21919977.355 9                                 117051446.690 5
  91040046.524 9                                
  21196069.056 7  21196074.250 9                                 113225595.641 7
  88064377.542 9                                
  21152676.618 7  21152679.677 9                                 112914414.985 7
  87822336.765 9                                
  21498894.758 6                                                 115004611.089 6
                                                
 23  9 21 18 57 15.0000000  0 19E03E05E08E13E15E24G02G10G21G24G28G32
                                R06R07R08R09R16R22R23
  23555272.825 7                                                 123783788.795 7
                                                
  26713573.672 6                                                 140380762.690 6
                                                
  24657668.189 7                                                 129576923.372 7
                                                
  24808318.238 7                                                 130368593.407 7
                                                
  24831842.785 6                                                 130492209.414 6
                                                
  27447527.309 5                                                 144237735.943 5
                                                
  24076901.129 1                                                 126524947.563 1
  98590928.60146                                  24076910.86446
  20404474.402 7  20404481.083 9  20404475.645 9                 107226196.263 7
  83552951.483 9  80071674.217 9                
  23371508.371 6                                                 122818204.304 6
  95702455.75147                                  23371513.91047
  22774702.381 5  22774712.898 9  22774709.158 9                 119681836.939 5
  93258638.001 9  89372737.414 9                
  23779976.672 6  23779986.737 8  23779987.965 9                 124964585.958 6
  97375104.743 8  93317805.777 9                
  21265246.195 7  21265255.014 9  21265248.826 9                 111749590.857 7
  87077677.064 9  83449404.402 9                
  20906309.082 2                                                 111560061.883 2
                                                
  19786491.868 8  19786493.980 9                                 105918614.938 8
  82381366.184 9                                
  22446822.524 1  22446822.701 6                                 120201700.823 1
  93490295.850 6                                
  21906806.433 6  21906811.863 9                                 116981144.343 6
  90985366.970 9                                
  21192898.555 7  21192903.744 9                                 113208658.767 7
  88051204.432 9                                
  21157531.679 7  21157534.578 9                                 112940331.004 7
  87842493.621 9                                
  21492437.600 6                                                 114970067.976 6
                                                
 23  9 21 18 57 30.0000000  0 20E03E05E08E13E15E24G02G10G21G23G24G28
                                G32R06R07R08R09R16R22R23
  23554190.222 7                                                 123778099.509 7
                                                
  26717312.929 6                                                 140400411.594 6
                                                
  24650036.173 7                                                 129536816.571 7
                                                
  24803467.810 7                                                 130343102.924 7
                                                
  24835244.247 7                                                 130510084.795 7
                                                
  27443257.260 5                                                 144215300.174 5
                                                
  24067606.132 1                                                 126476099.523 1
  98552865.17846                                  24067614.95746
  20401569.060 7  20401575.777 9  20401570.450 9                 107210929.450 7
  83541055.287 9  80060273.670 9                
  23364449.637 6                                                 122781111.515 6
  95673552.28947                                  23364455.60047
  21771495.196 1  21771501.307 7  21771498.157 8                 114410091.86811
  89150668.79617  85436036.19318                
  22780135.520 4  22780146.119 9  22780142.064 9                 119710387.787 4
  93280885.398 9  89394057.798 9                
  23766215.289 6  23766224.885 8  23766226.344 9                 124892269.522 6
  97318754.403 8  93263803.414 9                
  21258091.221 7  21258099.590 9  21258093.351 9                 111711988.794 7
  87048376.765 9  83421324.933 9                
  20909474.547 2                                                 111576951.951 2
                                                
  19781402.365 8  19781403.667 9                                 105891368.466 8
  82360174.460 9                                
  22435577.608 2                                                 120141485.562 2
                                                
  21893654.412 6  21893659.746 9                                 116910912.699 6
  90930742.448 9                                
  21189760.842 7  21189766.146 9                                 113191899.799 7
  88038169.699 9                                
  21162409.713 7  21162412.088 9                                 112966369.325 7
  87862745.609 9                                
  21486012.494 6                                                 114935699.369 6
                                                
 23  9 21 18 57 45.0000000  0 20E03E05E08E13E15E24G02G10G21G23G24G28
                                G32R06R07R08R09R16R22R23
  23553112.372 7                                                 123772435.454 7
                                                
  26721048.543 6                                                 140420043.936 6
                                                
  24642408.210 7                                                 129496730.083 7
                                                
  24798632.925 7                                                 130317697.154 7
                                                
  24838656.693 7                                                 130528015.429 7
                                                
  27439003.722 5                                                 144192944.930 5
                                                
  24058326.945 3                                                 126427324.049 3
  98514858.33046                                  24058332.64146
  20398679.568 7  20398685.920 9  20398680.588 9                 107195744.080 7
  83529222.540 9  80048933.935 9                
  23357407.343 6                                                 122744104.052 6
  95644715.33747                                  23357413.76747
  21775390.991 1  21775396.534 7  21775394.860 8                 114430568.390 1
  89166624.476 7  85451326.987 8                
  22785581.920 5  22785593.099 9  22785588.932 9                 119739009.673 5
  93303188.109 9  89415431.218 9                
  23752456.292 5  23752465.989 9  23752467.409 9                 124819965.176 5
  97262413.448 9  93209810.032 9                
  21250945.329 7  21250954.205 9  21250948.095 9                 111674439.340 7
  87019117.479 9  83393284.771 9                
  20912646.518 2                                                 111593878.283 2
                                                
  19776323.076 8  19776325.069 9                                 105864180.767 8
  82339028.485 9                                
  22424334.261 2  22424337.733 8                                 120081276.355 2
  93396633.51018                                
  21880516.031 6  21880521.577 9                                 116840755.731 6
  90876175.982 9                                
  21186657.510 7  21186662.980 9                                 113175321.646 7
  88025275.589 9                                
  21167310.464 7  21167314.196 9                                 112992532.531 7
  87883094.766 9                                
  21479620.456 5                                                 114901508.784 5
                                                
 23  9 21 18 58  0.0000000  0 20E03E05E08E13E15E24G02G10G21G23G24G28
                                G32R06R07R08R09R16R22R23
  23552041.961 7                                                 123766810.242 7
                                                
  26724784.169 6                                                 140439673.304 6
                                                
  24634786.443 7                                                 129456677.550 7
                                                
  24793817.157 6                                                 130292389.878 6
                                                
  24842081.674 7                                                 130546014.852 7
                                                
  27434767.679 5                                                 144170683.921 5
                                                
  24049058.884 2                                                 126378634.799 2
  98476918.75946                                  24049067.24646
  20395807.933 8  20395814.387 9  20395809.163 9                 107180653.742 8
  83517463.837 9  80037665.174 9                
  23350384.233 6                                                 122707195.719 6
  95615955.64047                                  23350391.05147
  21779299.649 1  21779304.890 7  21779304.316 8                 114451115.875 1
  89182635.449 7  85466670.893 8                
  22791043.952 5  22791055.682 9  22791051.869 9                 119767715.840 5
  93325556.507 9  89436867.580 9                
  23738702.152 6  23738712.251 9  23738712.782 9                 124747686.888 6
  97206092.848 9  93155836.126 9                
  21243812.793 7  21243821.065 9  21243815.309 9                 111636956.215 7
  86989909.841 9  83365294.126 9                
  20915827.693 2                                                 111610854.600 2
                                                
  19771257.892 8  19771259.927 9                                 105837065.980 8
  82317939.220 9                                
  22413092.467 1  22413099.440 8                                 120021087.685 1
  93349820.070 8                                
  21867394.583 6  21867399.804 9                                 116770687.556 6
  90821678.625 9                                
  21183590.589 7  21183596.232 9                                 113158938.245 7
  88012532.919 9                                
  21172237.979 7  21172240.955 9                                 113018834.065 7
  87903551.454 9                                
  21473265.004 6                                                 114867510.232 6
                                                
 23  9 21 18 58 15.0000000  0 20E03E05E08E13E15E24G02G10G21G23G24G28
                                G32R06R07R08R09R16R22R23
  23550979.529 7                                                 123761226.343 7
                                                
  26728519.531 6                                                 140459302.233 6
                                                
  24627171.405 7                                                 129416661.566 7
                                                
  24789020.757 6                                                 130267183.726 6
                                                
  24845520.657 7                                                 130564085.433 7
                                                
  27430550.309 5                                                 144148519.807 5
                                                
  24039809.343 2                                                 126330034.787 2
  98439048.66546                                  24039819.16246
  20392954.699 7  20392961.551 9  20392956.114 9                 107165661.127 7
  83505781.279 9  80026469.378 9                
  23343380.065 6                                                 122670389.306 6
  95587275.31047                                  23343386.85747
  21783224.178 1  21783232.752 7  21783228.293 8                 114471736.830 1
  89198703.583 7  85482069.604 8                
  22796523.789 5  22796534.711 9  22796530.976 9                 119796508.555 5
  93347992.344 9  89458368.586 9                
  23724953.431 6  23724963.441 9  23724964.007 9                 124675437.529 6
  97149794.763 9  93101883.808 9                
  21236693.327 7  21236701.527 9  21236695.635 9                 111599541.979 7
  86960755.913 9  83337354.934 9                
  20919018.367 2                                                 111627883.480 2
                                                
  19766206.869 8  19766208.308 9                                 105810026.580 8
  82296908.566 9                                
  22401860.585 3  22401863.217 8                                 119960922.018 3
  93303024.497 8                                
  21854290.013 6  21854295.623 9                                 116700711.381 6
  90767252.837 9                                
  21180560.542 7  21180565.588 9                                 113142752.277 7
  87999943.850 9                                
  21177191.364 7  21177194.791 9                                 113045276.115 7
  87924117.482 9                                
  21466945.699 7                                                 114833706.416 7
                                                
 23  9 21 18 58 30.0000000  0 20E03E05E08E13E15E24G02G10G21G23G24G28
                                G32R06R07R08R09R16R22R23
  23549922.817 7                                                 123755673.161 7
                                                
  26732252.686 6                                                 140478920.097 6
                                                
  24619561.266 7                                                 129376671.578 7
                                                
  24784241.368 6                                                 130242068.277 6
                                                
  24848970.727 7                                                 130582216.453 7
                                                
  27426348.893 5                                                 144126442.120 5
                                                
  24030579.218 3                                                 126281513.811 3
  98401240.11646                                  24030585.91346
  20390118.472 7  20390125.173 9  20390119.865 9                 107150755.668 7
  83494166.626 9  80015338.685 9                
  23336393.026 6                                                 122633674.303 6
  95558666.25547                                  23336400.12447
  21787159.538 1                  21787166.295 8                 114492420.610 1
                  85497515.231 8                
  22802017.265 5  22802028.403 9  22802024.703 9                 119825376.926 5
  93370487.133 9  89479926.079 9                
  23711208.457 6  23711218.568 9  23711219.051 9                 124603206.877 6
  97093511.259 9  93047945.434 9                
  21229584.080 7  21229592.829 9  21229587.273 9                 111562186.121 7
  86931647.466 9  83309459.337 9                
  20922218.347 3                                                 111644954.271 3
                                                
  19761167.940 8  19761169.592 9                                 105783052.047 8
  82275928.383 9                                
  22390624.600 3  22390630.810 8                                 119900768.427 3
  93256238.468 8                                
  21841201.072 6  21841206.410 9                                 116630817.212 6
  90712890.771 9                                
  21177565.535 7  21177570.952 9                                 113126753.156 7
  87987500.135 9                                
  21182168.928 7  21182172.456 9                                 113071847.316 7
  87944783.907 9                                
  21460661.099 6                                                 114800087.041 6
                                                
 23  9 21 18 58 45.0000000  0 19E03E05E08E13E15E24G02G10G21G24G28G32
                                R06R07R08R09R16R22R23
  23548870.667 7                                                 123750143.910 7
                                                
  26735982.503 6                                                 140498520.088 6
                                                
  24611955.107 7                                                 129336700.857 7
                                                
  24779478.152 7                                                 130217036.913 7
                                                
  24852431.245 6                                                 130600401.026 6
                                                
  27422162.945 5                                                 144104444.199 5
                                                
  24021359.233 3                                                 126233065.211 3
  98363487.98646                                  24021366.44146
  20387297.452 7  20387303.895 9  20387298.819 9                 107135930.943 7
  83482614.892 9  80004268.266 9                
  23329422.532 6                                                 122597044.229 6
  95530123.36147                                  23329429.75247
  22807523.544 5  22807534.694 9  22807531.022 9                 119854313.810 5
  93393035.338 9  89501534.764 9                
  23697465.426 6  23697475.382 9  23697476.339 9                 124530988.443 6
  97037237.258 9  92994016.202 9                
  21222485.933 7  21222493.664 9  21222488.672 9                 111524881.985 7
  86902579.296 9  83281602.350 9                
  20925423.285 3                                                 111662059.894 3
                                                
  19756139.548 8  19756141.018 9                                 105756135.339 8
  82254993.153 9                                
  22379393.122 3  22379397.735 8                                 119840620.732 3
  93209456.981 8                                
  21828126.114 6  21828131.258 9                                 116560998.666 6
  90658587.528 9                                
  21174604.026 7  21174609.053 9                                 113110933.930 7
  87975196.298 9                                
  21187169.794 7  21187172.389 9                                 113098540.400 7
  87965545.148 9                                
  21454409.260 7                                                 114766645.176 7
                                                
 23  9 21 18 59  0.0000000  0 19E03E05E08E13E15E24G02G10G21G24G28G32
                                R06R07R08R09R16R22R23
  23547823.283 7                                                 123744640.612 7
                                                
  26739709.210 6                                                 140518104.313 6
                                                
  24604353.266 7                                                 129296751.562 7
                                                
  24774731.015 7                                                 130192091.771 7
                                                
  24855902.363 6                                                 130618641.053 6
                                                
  27417992.324 5                                                 144082528.302 5
                                                
  24012155.275 4                                                 126184691.315 4
  98325794.08746                                  24012161.15146
  20384491.959 7  20384498.707 9  20384493.608 9                 107121189.129 7
  83471127.763 9  79993259.769 9                
  23322468.449 5                                                 122560501.344 5
  95501648.41847                                  23322475.79447
  22813043.675 5  22813054.755 9  22813051.108 9                 119883321.019 5
  93415638.329 9  89523195.969 9                
  23683725.389 6  23683735.526 9  23683736.320 9                 124458784.680 6
  96980974.687 9  92940097.938 9                
  21215397.558 7  21215405.410 9  21215400.030 9                 111487631.671 7
  86873553.089 9  83253785.579 9                
  20928635.853 2                                                 111679202.521 2
                                                
  19751122.457 8  19751124.285 9                                 105729278.751 8
  82234104.725 9                                
  22368163.163 4  22368166.812 8                                 119780480.668 4
  93162681.460 8                                
  21815066.565 6  21815071.263 9                                 116491258.358 6
  90604345.131 9                                
  21171677.035 7  21171681.688 9                                 113095296.929 7
  87963034.187 9                                
  21192193.604 7  21192196.413 9                                 113125357.255 7
  87986402.649 9                                
  21448191.442 7                                                 114733383.496 7
                                                
 23  9 21 18 59 15.0000000  0 19E03E05E08E13E15E24G02G10G21G24G28G32
                                R06R07R08R09R16R22R23
  23546780.720 7                                                 123739161.946 7
                                                
  26743432.262 6                                                 140537671.423 6
                                                
  24596754.826 7                                                 129256822.393 7
                                                
  24770000.565 7                                                 130167231.773 7
                                                
  24859383.766 7                                                 130636935.089 7
                                                
  27413837.021 5                                                 144060693.103 5
                                                
  24002963.374 4                                                 126136391.240 4
  98288157.72146                                  24002969.53746
  20381702.032 7  20381709.038 9  20381703.879 9                 107106529.195 7
  83459704.440 9  79982312.426 9                
  23315531.268 4                                                 122524044.407 4
  95473240.45847                                  23315538.17147
  22818576.311 5  22818587.637 9  22818584.193 9                 119912396.940 5
  93438294.843 9  89544908.462 9                
  23669988.110 5  23669997.856 9  23669998.540 9                 124386594.625 5
  96924722.792 9  92886189.902 9                
  21208318.708 7  21208326.940 9  21208321.434 9                 111450433.951 7
  86844567.874 9  83226008.074 9                
  20931855.523 2                                                 111696380.713 2
                                                
  19746116.332 8  19746118.410 9                                 105702481.200 8
  82213262.152 9                                
  22356933.304 4  22356937.083 8                                 119720347.044 4
  93115910.978 8                                
  21802020.623 6  21802025.742 9                                 116421595.379 6
  90550162.877 9                                
  21168783.294 7  21168788.810 9                                 113079840.628 7
  87951012.637 9                                
  21197239.756 7  21197243.581 9                                 113152295.917 7
  88007354.879 9                                
  21442007.039 7                                                 114700300.652 7
                                                
 23  9 21 18 59 30.0000000  0 19E03E05E08E13E15E24G02G10G21G24G28G32
                                R06R07R08R09R16R22R23
  23545743.384 7                                                 123733710.748 7
                                                
  26747153.129 6                                                 140557224.258 6
                                                
  24589160.732 7                                                 129216916.269 7
                                                
  24765286.324 7                                                 130142459.834 7
                                                
  24862875.693 7                                                 130655285.860 7
                                                
  27409697.757 5                                                 144038941.617 5
                                                
  23993788.024 5                                                 126088168.130 5
  98250581.25346                                  23993793.00346
  20378928.615 7  20378935.427 9  20378930.402 9                 107091953.925 7
  83448347.093 9  79971428.309 9                
  23308610.631 3                                                 122487676.666 3
  95444901.99447                                  23308617.38647
  22824123.099 5  22824134.101 9  22824130.441 9                 119941544.075 5
  93461006.846 9  89566674.140 9                
  23656254.163 5  23656263.770 9  23656264.410 9                 124314421.506 5
  96868484.070 9  92832294.503 9                
  21201250.676 7  21201258.819 9  21201253.709 9                 111413291.723 7
  86815625.902 9  83198272.009 9                
  20935081.679 2                                                 111713597.350 2
                                                
  19741121.761 8  19741123.595 9                                 105675745.579 8
  82192467.808 9                                
  22345705.335 4  22345709.646 8                                 119660223.576 4
  93069148.286 8                                
  21788989.769 6  21788995.194 9                                 116352013.643 6
  90496043.849 9                                
  21165924.593 7  21165929.500 9                                 113064568.163 7
  87939134.056 9                                
  21202309.926 7  21202313.020 9                                 113179358.788 7
  88028403.726 9                                
  21435856.173 7                                                 114667399.879 7
                                                
 23  9 21 18 59 45.0000000  0 19E03E05E08E13E15E24G02G10G21G24G28G32
                                R06R07R08R09R16R22R23
  23544711.359 7                                                 123728286.766 7
                                                
  26750871.168 6                                                 140576762.602 6
                                                
  24581571.276 7                                                 129177033.036 7
                                                
  24760589.351 6                                                 130117775.921 6
                                                
  24866378.576 7                                                 130673693.022 7
                                                
  27405574.593 5                                                 144017273.750 5
                                                
  23984625.278 4                                                 126040022.007 4
  98213064.86046                                  23984632.07846
  20376171.279 7  20376178.202 9  20376172.976 9                 107077463.537 7
  83437055.854 9  79960607.545 9                
  23301707.079 5                                                 122451397.970 5
  95416632.87347                                  23301713.43447
  22829683.075 5  22829693.650 9  22829690.476 9                 119970761.944 5
  93483773.998 9  89588492.639 9                
  23642522.831 5  23642532.767 9  23642533.540 9                 124242265.374 5
  96812258.644 9  92778411.833 9                
  21194193.526 7  21194201.519 9  21194196.400 9                 111376204.876 7
  86786727.056 9  83170577.303 9                
  20938314.924 2                                                 111730852.317 2
                                                
  19736139.394 8  19736140.790 9                                 105649071.739 8
  82171721.482 9                                
  22334480.180 4  22334485.237 9                                 119600109.449 4
  93022392.871 9                                
  21775974.617 7  21775979.504 9                                 116282513.162 7
  90441987.992 9                                
  21163099.562 7  21163104.730 9                                 113049479.398 7
  87927398.363 9                                
  21207402.798 7  21207405.518 9                                 113206545.257 7
  88049548.730 9                                
  21429739.867 7                                                 114634681.436 7
                                                
 23  9 21 19  0  0.0000000  0 19E03E05E08E13E15E24G02G10G21G24G28G32
                                R06R07R08R09R16R22R23
  23543685.518 7                                                 123722895.688 7
                                                
  26754587.716 6                                                 140596292.126 6
                                                
  24573987.443 7                                                 129137178.455 7
                                                
  24755910.064 6                                                 130093185.855 6
                                                
  24869893.569 6                                                 130692162.134 6
                                                
  27401468.109 5                                                 143995695.349 5
                                                
  23975478.733 5                                                 125991958.972 5
  98175613.18346                                  23975486.38646
  20373431.415 7  20373437.930 9  20373432.410 9                 107063063.646 7
  83425835.188 9  79949854.388 9                
  23294821.077 5                                                 122415214.289 5
  95388437.81847                                  23294827.53947
  22835257.480 5  22835268.083 9  22835265.032 9                 120000055.929 5
  93506600.434 9  89610367.964 9                
  23628796.545 6  23628805.966 9  23628807.011 9                 124170132.395 6
  96756051.222 9  92724546.412 9                
  21187147.951 8  21187155.499 9  21187150.644 9                 111339179.188 8
  86757875.868 9  83142928.244 9                
  20941557.028 3                                                 111748151.178 3
                                                
  19731169.029 8  19731170.689 9                                 105622465.655 8
  82151027.887 9                                
  22323257.048 4  22323259.389 8                                 119540010.589 4
  92975649.291 8                                
  21762976.006 6  21762981.695 9                                 116213100.513 6
  90388000.427 9                                
  21160310.764 7  21160315.174 9                                 113034580.139 7
  87915810.050 9                                
  21212519.874 7  21212523.182 9                                 113233860.806 7
  88070794.102 9                                
  21423658.700 6                                                 114602151.335 6
                                                
 23  9 21 19  0 15.0000000  0 20E03E05E08E13E15E24G02G10G21G23G24G28
                                G32R06R07R08R09R16R22R23
  23542665.813 7                                                 123717537.433 7
                                                
  26758302.707 5                                                 140615812.769 5
                                                
  24566408.644 7                                                 129097352.543 7
                                                
  24751248.671 6                                                 130068689.786 6
                                                
  24873419.385 7                                                 130710693.008 7
                                                
  27397379.765 6                                                 143974206.481 6
                                                
  23966349.264 4                                                 125943979.183 4
  98138226.38946                                  23966355.79746
  20370708.269 7  20370715.002 9  20370709.199 9                 107048754.524 7
  83414685.220 9  79939168.993 9                
  23287953.946 5                                                 122379125.834 5
  95360316.97946                                  23287960.22946
  21815022.235 2  21815028.502 7  21815028.459 8                 114638778.40912
  89328917.63817  85606851.09118                
  22840846.341 5  22840857.093 9  22840853.862 9                 120029425.672 5
  93529485.921 9  89632299.854 9                
  23615074.012 5  23615083.970 9  23615084.576 9                 124098022.870 5
  96699862.039 9  92670698.470 9                
  21180113.441 8  21180121.204 9  21180116.490 9                 111302214.679 8
  86729072.373 9  83115324.896 9                
  20944807.180 3                                                 111765493.988 3
                                                
  19726211.268 8  19726213.039 9                                 105595927.292 8
  82130386.943 9                                
  22312036.152 3  22312039.020 8                                 119479927.508 3
  92928918.087 8                                
  21749993.563 6  21749999.120 9                                 116143776.117 6
  90334081.557 9                                
  21157556.643 7  21157561.800 9                                 113019870.371 7
  87904369.139 9                                
  21217661.235 7  21217664.992 9                                 113261304.826 7
  88092139.333 9                                
  21417613.141 6                                                 114569809.451 6
                                                
 23  9 21 19  0 30.0000000  0 20E03E05E08E13E15E24G02G10G21G23G24G28
                                G32R06R07R08R09R16R22R23
  23541652.982 7                                                 123712214.966 7
                                                
  26762016.045 6                                                 140635327.518 6
                                                
  24558836.188 7                                                 129057558.274 7
                                                
  24746605.739 6                                                 130044290.767 6
                                                
  24876958.123 6                                                 130729288.461 6
                                                
  27393308.137 6                                                 143952810.174 6
                                                
  23957235.087 4                                                 125896085.995 4
  98100907.07046                                  23957241.96846
  20368002.721 7  20368009.952 9  20368003.904 9                 107034538.953 7
  83403608.142 9  79928553.448 9                
  23281105.349 5                                                 122343135.802 5
  95332272.78147                                  23281111.31547
  21819050.917 1  21819058.484 8  21819057.255 8                 114659949.025 1
  89345414.204 8  85622660.306 8                
  22846449.996 5  22846460.981 9  22846457.784 9                 120058873.815 5
  93552432.487 9  89654290.297 9                
  23601357.042 5  23601366.782 9  23601367.756 9                 124025940.033 5
  96643693.695 9  92616870.477 9                
  21173091.394 7  21173099.278 9  21173094.817 9                 111265314.356 7
  86700318.886 9  83087769.484 9                
  20948066.332 2                                                 111782883.692 2
                                                
  19721266.874 8  19721268.417 9                                 105569459.811 8
  82109801.120 9                                
  22300820.263 2  22300822.159 8                                 119419863.251 2
  92882201.462 8                                
  21737028.528 6  21737034.067 9                                 116074543.595 6
  90280234.124 9                                
  21154839.148 7  21154844.188 9                                 113005353.208 7
  87893078.014 9                                
  21222826.754 7  21222830.210 9                                 113288879.797 7
  88113586.519 9                                
  21411602.431 6                                                 114537659.383 6
                                                
 23  9 21 19  0 45.0000000  0 20E03E05E08E13E15E24G02G10G21G23G24G28
                                G32R06R07R08R09R16R22R23
  23540645.985 7                                                 123706923.616 7
                                                
  26765727.346 6                                                 140654831.768 6
                                                
  24551268.410 7                                                 129017791.100 7
                                                
  24741980.327 7                                                 130019984.307 7
                                                
  24880508.283 6                                                 130747943.774 6
                                                
  27389253.029 6                                                 143931501.961 6
                                                
  23948136.731 4                                                 125848275.084 4
  98063651.80647                                  23948144.29847
  20365314.525 7  20365321.735 9  20365315.583 9                 107020412.796 7
  83392600.755 9  79918004.696 9                
  23274274.585 4                                                 122307239.689 4
  95304301.80047                                  23274280.71147
  21823092.148 2  21823099.577 8  21823098.340 8                 114681182.677 2
  89361959.885 8  85638516.583 8                
  22852067.671 5  22852079.336 9  22852075.438 9                 120088395.433 5
  93575436.314 9  89676335.607 9                
  23587644.539 5  23587653.887 9  23587655.327 9                 123953879.687 5
  96587542.835 9  92563059.255 9                
  21166080.987 7  21166088.879 9  21166084.123 9                 111228473.720 7
  86671611.898 9  83060258.629 9                
  20951332.823 3                                                 111800315.568 3
                                                
  19716334.807 8  19716336.666 9                                 105543058.238 8
  82089266.548 9                                
  22289606.589 1  22289610.177 8                                 119359812.696 1
  92835495.590 8                                
  21724080.264 6  21724085.067 9                                 116005399.005 6
  90226455.059 9                                
  21152156.873 7  21152161.971 9                                 112991023.934 7
  87881933.033 9                                
  21228016.457 7  21228019.373 9                                 113316580.616 7
  88135131.596 9                                
  21405627.114 6                                                 114505696.512 6
                                                
 23  9 21 19  1  0.0000000  0 20E03E05E08E13E15E24G02G10G21G23G24G28
                                G32R06R07R08R09R16R22R23
  23539644.391 7                                                 123701659.998 7
                                                
  26769436.062 6                                                 140674322.063 6
                                                
  24543705.466 7                                                 128978047.727 7
                                                
  24737371.994 7                                                 129995767.190 7
                                                
  24884068.820 7                                                 130766655.389 7
                                                
  27385214.244 5                                                 143910278.536 5
                                                
  23939054.016 5                                                 125800543.244 5
  98026458.20247                                  23939061.34147
  20362643.212 7  20362650.315 9  20362643.942 9                 107006372.692 7
  83381660.395 9  79907520.207 9                
  23267460.613 5                                                 122271434.368 5
  95276401.56547                                  23267467.87647
  21827144.464 2  21827151.388 8  21827150.746 8                 114702475.895 2
  89378551.981 8  85654417.316 8                
  22857699.090 5  22857710.686 9  22857706.505 9                 120117986.849 5
  93598494.535 9  89698433.063 9                
  23573935.293 5  23573945.210 9  23573946.699 9                 123881838.715 5
  96531407.103 9  92509262.550 9                
  21159081.318 7  21159088.870 9  21159084.248 9                 111191689.433 7
  86642948.802 9  83032789.860 9                
  20954606.614 2                                                 111817786.269 2
                                                
  19711414.698 8  19711416.092 9                                 105516719.885 8
  82068781.173 9                                
  22278394.961 1  22278397.293 8                                 119299773.135 1
  92788798.196 8                                
  21711146.884 6  21711152.439 9                                 115936339.479 6
  90172742.169 9                                
  21149508.817 7  21149513.631 9                                 112976879.076 7
  87870931.469 9                                
  21233228.263 7  21233231.630 9                                 113344403.468 7
  88156771.520 9                                
  21399686.560 7                                                 114473917.468 7
                                                
 23  9 21 19  1 15.0000000  0 20E03E05E08E13E15E24G02G10G21G23G24G28
                                G32R06R07R08R09R16R22R23
  23538648.900 7                                                 123696428.040 7
                                                
  26773143.379 6                                                 140693802.385 6
                                                
  24536148.214 7                                                 128938332.125 7
                                                
  24732781.313 7                                                 129971643.452 7
                                                
  24887640.719 7                                                 130785427.118 7
                                                
  27381192.310 5                                                 143889143.988 5
                                                
  23929987.582 4                                                 125752894.834 4
  97989329.60746                                  23929994.22246
  20359988.508 7  20359995.776 9  20359989.692 9                 106992422.831 7
  83370790.375 9  79897103.102 9                
  23260665.161 6                                                 122235723.982 6
  95248575.30747                                  23260672.74847
  21831208.040 1  21831215.808 8  21831214.887 8                 114723832.593 1
  89395193.565 8  85670365.450 8                
  22863344.273 5  22863355.527 9  22863351.787 9                 120147651.709 5
  93621609.982 9  89720585.352 9                
  23560230.796 5  23560240.899 9  23560241.594 9                 123809821.466 5
  96475289.885 9  92455483.563 9                
  21152092.649 7  21152100.705 9  21152096.248 9                 111154965.532 7
  86614332.794 9  83005366.190 9                
  20957888.867 3                                                 111835299.622 3
                                                
  19706506.631 8  19706508.888 9                                 105490448.204 8
  82048347.661 9                                
  22267185.193 2  22267187.998 8                                 119239748.266 2
  92742112.234 8                                
  21698231.130 6  21698236.873 9                                 115867369.493 6
  90119098.910 9                                
  21146896.307 7  21146901.390 9                                 112962922.935 7
  87860076.702 9                                
  21238464.420 7  21238467.725 9                                 113372352.011 7
  88178509.211 9                                
  21393781.173 7                                                 114442326.626 7
                                                
 23  9 21 19  1 30.0000000  0 20E03E05E08E13E15E24G02G10G21G23G24G28
                                G32R06R07R08R09R16R22R23
  23537659.484 7                                                 123691229.242 7
                                                
  26776848.644 6                                                 140713274.255 6
                                                
  24528595.984 7                                                 128898645.878 7
                                                
  24728208.829 7                                                 129947614.801 7
                                                
  24891225.079 7                                                 130804260.384 7
                                                
  27377187.597 5                                                 143868099.944 5
                                                
  23920935.804 5                                                 125705331.646 5
  97952267.41446                                  23920942.75646
  20357351.236 7  20357358.648 9  20357352.956 9                 106978564.939 7
  83359992.030 9  79886754.666 9                
  23253888.202 6                                                 122200110.208 6
  95220824.36047                                  23253895.51947
  21835284.687 1  21835291.256 7  21835292.325 8                 114745254.165 1
  89411885.750 7  85686362.053 8                
  22869003.400 5  22869014.655 9  22869010.969 9                 120177391.235 5
  93644783.582 9  89742793.379 9                
  23546531.271 5  23546541.829 9  23546542.226 9                 123737829.811 5
  96419192.631 9  92401723.688 9                
  21145116.199 7  21145123.919 9  21145119.632 9                 111118303.591 7
  86585765.079 9  82977988.789 9                
  20961179.096 2                                                 111852857.085 2
                                                
  19701611.650 8  19701613.424 9                                 105464245.279 8
  82027967.616 9                                
  22255978.665 1  22255981.737 8                                 119179740.119 1
  92695439.432 8                                
  21685332.654 6  21685337.647 9                                 115798491.226 6
  90065526.956 9                                
  21144319.430 7  21144324.201 9                                 112949156.969 7
  87849369.846 9                                
  21243723.382 7  21243727.749 9                                 113400427.213 7
  88200345.441 9                                
  21387911.436 7                                                 114410925.900 7
                                                
 23  9 21 19  1 45.0000000  0 19E03E05E08E13E15E24G02G10G21G23G24G28
                                G32R06R07R09R16R22R23
  23536676.035 7                                                 123686060.727 7
                                                
  26780552.205 6                                                 140732734.793 6
                                                
  24521049.139 7                                                 128858986.197 7
                                                
  24723653.710 7                                                 129923678.520 7
                                                
  24894819.931 7                                                 130823152.158 7
                                                
  27373199.892 5                                                 143847143.630 5
                                                
  23911900.506 4                                                 125657851.165 4
  97915269.67146                                  23911907.45146
  20354731.056 7  20354738.740 9  20354732.789 9                 106964796.127 7
  83349263.080 9  79876472.751 9                
  23247129.040 6                                                 122164590.448 6
  95193146.63047                                  23247136.15547
  21839372.381 1  21839381.345 7  21839380.591 8                 114766737.728 1
  89428626.269 7  85702404.981 8                
  22874676.265 5  22874687.207 9  22874683.846 9                 120207202.262 5
  93668012.916 9  89765054.814 9                
  23532836.400 5  23532846.038 9  23532846.478 9                 123665861.304 5
  96363113.341 9  92347981.056 9                
  21138150.960 7  21138159.071 9  21138154.195 9                 111081700.846 7
  86557243.462 9  82950655.592 9                
  20964476.627 2                                                 111870455.927 2
                                                
  19696729.466 8  19696730.581 9                                 105438108.145 8
  82007638.718 9                                
  21672450.306 6  21672455.989 9                                 115729702.371 6
  90012024.625 9                                
  21141777.263 7  21141782.784 9                                 112935578.297 7
  87838808.685 9                                
  21249006.265 7  21249010.314 9                                 113428625.678 7
  88222277.532 9                                
  21382076.648 7                                                 114379712.507 7
                                                
 23  9 21 19  2  0.0000000  0 20E03E05E08E13E15E24G02G10G21G23G24G28
                                G32R06R07R08R09R16R22R23
  23535698.826 7                                                 123680925.541 7
                                                
  26784254.010 6                                                 140752187.047 6
                                                
  24513507.910 7                                                 128819356.199 7
                                                
  24719116.669 7                                                 129899837.766 7
                                                
  24898426.728 7                                                 130842105.389 7
                                                
  27369229.444 6                                                 143826278.295 6
                                                
  23902881.969 3                                                 125610456.545 3
  97878338.85746                                  23902888.52246
  20352128.490 7  20352135.953 9  20352129.894 9                 106951119.717 7
  83338606.126 9  79866259.843 9                
  23240387.988 6                                                 122129167.991 6
  95165544.73647                                  23240395.56147
  21843472.857 1                  21843477.679 8                 114788286.447 1
                  85718496.479 8                
  22880363.432 5  22880374.179 9  22880371.013 9                 120237087.499 5
  93691300.085 9  89787371.683 9                
  23519146.392 5  23519155.608 9  23519156.022 9                 123593919.290 5
  96307054.696 9  92294258.235 9                
  21131197.794 7  21131205.674 9  21131200.782 9                 111045160.438 7
  86528770.430 9  82923368.938 9                
  20967783.717 2                                                 111888099.063 2
                                                
  19691859.344 8  19691861.128 9                                 105412040.047 8
  81987363.553 9                                
  22233574.863 3  22233579.493 8                                 119059770.61713
  92602129.086 8                                
  21659586.186 6  21659591.155 9                                 115661006.522 6
  89958594.566 9                                
  21139270.886 7  21139276.018 9                                 112922190.054 7
  87828395.618 9                                
  21254312.760 7  21254316.471 9                                 113456950.192 7
  88244307.635 9                                
  21376277.061 7                                                 114348689.630 7
                                                
 23  9 21 19  2 15.0000000  0 20E03E05E08E13E15E24G02G10G21G23G24G28
                                G32R06R07R08R09R16R22R23
  23534729.429 7                                                 123675830.997 7
                                                
  26787955.463 6                                                 140771638.399 6
                                                
  24505973.502 7                                                 128779763.274 7
                                                
  24714599.374 6                                                 129876100.044 6
                                                
  24902046.074 7                                                 130861127.273 7
                                                
  27365277.898 6                                                 143805511.345 6
                                                
  23893880.653 3                                                 125563155.664 3
  97841481.02946                                  23893887.82346
  20349545.145 7  20349552.505 9  20349546.098 9                 106937543.242 7
  83328027.052 9  79856121.576 9                
  23233667.551 6                                                 122093850.300 6
  95138024.49447                                  23233674.86847
  21847586.480 2                  21847592.161 7                 114809907.422 2
                  85734641.945 7                
  22886065.792 5  22886077.070 9  22886073.410 9                 120267054.054 5
  93714650.614 9  89809749.266 9                
  23505462.473 5  23505472.383 9  23505472.401 9                 123522011.492 5
  96251022.736 9  92240560.951 9                
  21124257.640 7  21124265.456 9  21124261.051 9                 111008689.768 7
  86500351.720 9  82896134.350 9                
  20971099.187 2                                                 111905794.174 2
                                                
  19687004.002 8  19687005.249 9                                 105386048.564 8
  81967147.930 9                                
  22222379.052 2  22222382.859 8                                 118999818.310 2
  92555499.503 8                                
  21646740.371 6  21646745.888 9                                 115592411.918 6
  89905243.251 9                                
  21136801.461 7  21136806.521 9                                 112908999.831 7
  87818136.578 9                                
  21259643.664 7  21259646.998 9                                 113485407.712 7
  88266441.218 9                                
  21370514.815 7                                                 114317865.207 7
                                                
 23  9 21 19  2 30.0000000  0 20E03E05E08E13E15E24G02G10G21G23G24G28
                                G32R06R07R08R09R16R22R23
  23533767.569 7                                                 123670776.638 7
                                                
  26791656.381 5                                                 140791088.374 5
                                                
  24498446.161 7                                                 128740207.033 7
                                                
  24710102.076 6                                                 129852465.022 6
                                                
  24905679.226 7                                                 130880217.235 7
                                                
  27361344.762 6                                                 143784842.408 6
                                                
  23884897.563 3                                                 125515948.260 3
  97804696.07546                                  23884904.65646
  20346980.669 7  20346987.813 9  20346981.743 9                 106924066.255 7
  83317525.516 9  79846057.604 9                
  23226966.786 6                                                 122058637.133 6
  95110585.69747                                  23226973.54947
  21851715.316 2  21851722.815 8  21851721.782 7                 114831600.250 2
  89479195.18818  85750841.025 7                
  22891783.487 5  22891794.619 9  22891790.953 9                 120297101.155 5
  93738063.888 9  89832186.989 9                
  23491785.631 6  23491795.072 9  23491795.601 9                 123450137.809 6
  96195017.394 9  92186889.176 9                
  21117330.563 8  21117338.689 9  21117334.031 9                 110972288.471 8
  86471987.094 9  82868951.572 9                
  20974424.978 2                                                 111923540.522 2
                                                
  19682162.735 8  19682164.195 9                                 105360133.301 8
  81946991.625 9                                
  22211188.462 1  22211191.776 8                                 118939890.408 1
  92508889.037 8                                
  21633913.618 6  21633919.468 9                                 115523918.442 6
  89851970.630 9                                
  21134369.569 7  21134374.145 9                                 112896006.930 7
  87808030.991 9                                
  21264999.557 7  21265003.194 9                                 113513997.332 7
  88288677.553 9                                
  21364789.384 7                                                 114287238.769 7
                                                
 23  9 21 19  2 45.0000000  0 20E03E05E08E13E15E24G02G10G21G23G24G28
                                G32R06R07R08R09R16R22R23
  23532811.004 7                                                 123665751.046 7
                                                
  26795354.985 5                                                 140810525.531 5
                                                
  24490923.790 7                                                 128700676.133 7
                                                
  24705621.971 6                                                 129828921.458 6
                                                
  24909322.628 7                                                 130899363.691 7
                                                
  27357428.135 6                                                 143764260.232 6
                                                
  23875929.551 3                                                 125468823.174 3
  97767975.29846                                  23875936.66046
  20344432.846 7  20344440.129 9  20344433.785 9                 106910677.646 7
  83307092.823 9  79836059.608 9                
  23220283.621 6                                                 122023517.352 6
  95083219.66747                                  23220290.28247
  21855855.383 2  21855862.286 8  21855861.030 8                 114853353.409 2
  89496145.662 8  85767085.305 8                
  22897514.535 5  22897525.392 9  22897521.669 9                 120327217.072 5
  93761530.798 9  89854676.103 9                
  23478112.654 5  23478122.580 9  23478122.627 9                 123378287.185 5
  96139029.995 9  92133234.595 9                
  21110414.847 7  21110422.817 9  21110417.823 9                 110935945.235 7
  86443667.656 9  82841812.143 9                
  20977758.151 2                                                 111941326.642 2
                                                
  19677333.612 8  19677335.432 9                                 105334282.795 8
  81926885.678 9                                
  22199999.564 1  22200003.201 8                                 118879975.577 1
  92462288.691 8                                
  21621104.146 6  21621108.819 9                                 115455515.491 6
  89798768.412 9                                
  21131972.008 7  21131976.463 9                                 112883200.050 7
  87798070.102 9                                
  21270377.832 7  21270381.596 9                                 113542706.930 7
  88311007.214 9                                
  21359098.868 7                                                 114256799.096 7
                                                
 23  9 21 19  3  0.0000000  0 20E03E05E08E13E15E24G02G10G21G23G24G28
                                G32R06R07R08R09R16R22R23
  23531860.495 7                                                 123660754.937 7
                                                
  26799051.562 5                                                 140829950.598 5
                                                
  24483406.419 7                                                 128661171.345 7
                                                
  24701159.637 7                                                 129805470.214 7
                                                
  24912977.150 7                                                 130918567.263 7
                                                
  27353528.201 6                                                 143743765.653 6
                                                
  23866978.225 4                                                 125421781.503 4
  97731319.52546                                  23866984.64246
  20341902.172 7  20341909.323 9  20341903.035 9                 106897378.123 7
  83296729.563 9  79826128.153 9                
  23213618.461 6                                                 121988491.864 6
  95055927.09147                                  23213625.25047
  21860006.706 1  21860013.890 8  21860012.130 8                 114875167.647 1
  89513143.741 8  85783375.114 8                
  22903258.857 5  22903270.083 9  22903265.695 9                 120357402.208 5
  93785051.659 9  89877216.928 9                
  23464444.336 6  23464454.117 9  23464454.443 9                 123306460.713 6
  96083061.425 9  92079598.041 9                
  21103509.888 8  21103518.393 9  21103513.489 9                 110899660.786 8
  86415394.106 9  82814716.642 9                
  20981098.852 1                                                 111959153.137 1
                                                
  19672516.529 8  19672518.932 9                                 105308497.743 8
  81906830.656 9                                
  22188812.762 2  22188816.355 8                                 118820074.693 2
  92415699.030 8                                
  21608311.448 6  21608316.027 9                                 115387204.324 6
  89745637.567 9                                
  21129609.550 7  21129614.390 9                                 112870579.887 7
  87788254.461 9                                
  21275778.350 7  21275782.221 9                                 113571536.847 7
  88333430.439 9                                
  21353443.727 7                                                 114226547.109 7
                                                
 23  9 21 19  3 15.0000000  0 20E03E05E08E13E15E24G02G10G21G23G24G28
                                G32R06R07R08R09R16R22R23
  23530914.174 7                                                 123655781.944 7
                                                
  26802745.092 6                                                 140849357.274 6
                                                
  24475892.441 7                                                 128621686.396 7
                                                
  24696712.997 7                                                 129782105.058 7
                                                
  24916640.818 7                                                 130937821.489 7
                                                
  27349642.994 6                                                 143723352.405 6
                                                
  23858041.946 3                                                 125374817.350 3
  97694724.10846                                  23858047.34746
  20339387.273 7  20339394.344 9  20339388.154 9                 106884161.703 7
  83286431.047 9  79816258.762 9                
  23206970.196 6                                                 121953554.506 6
  95028703.19447                                  23206976.95147
  21864167.916 2  21864175.105 8  21864174.451 8                 114897036.555 2
  89530184.401 8  85799705.735 8                
  22909014.658 5  22909026.161 9  22909021.864 9                 120387649.969 5
  93808621.293 9  89899804.511 9                
  23450779.698 5  23450789.341 9  23450789.400 9                 123234652.434 5
  96027107.029 9  92025975.072 9                
  21096615.254 8  21096623.653 9  21096618.531 9                 110863429.036 8
  86387161.589 9  82787660.481 9                
  20984445.906 1                                                 111977013.696 1
                                                
  19667710.746 8  19667712.604 9                                 105282772.093 8
  81886821.826 9                                
  22177627.552 1  22177630.403 8                                 118760180.912 1
  92369115.076 8                                
  21595534.767 6  21595540.851 9                                 115318978.813 6
  89692573.365 9                                
  21127280.455 7  21127285.439 9                                 112858140.074 7
  87778579.064 9                                
  21281200.601 7  21281204.589 9                                 113600480.273 7
  88355941.896 9                                
  21347822.282 7                                                 114196476.711 7
                                                
 23  9 21 19  3 30.0000000  0 20E03E05E08E13E15E24G02G10G21G23G24G28
                                G32R06R07R08R09R16R22R23
  23529971.815 7                                                 123650829.979 7
                                                
  26806434.088 6                                                 140868743.448 6
                                                
  24468382.003 7                                                 128582219.272 7
                                                
  24692283.017 7                                                 129758824.046 7
                                                
  24920314.218 7                                                 130957124.145 7
                                                
  27345773.574 6                                                 143703018.551 6
                                                
  23849119.373 4                                                 125327928.745 4
  97658187.56246                                  23849124.39746
  20336887.706 7  20336894.962 9  20336888.703 9                 106871026.474 7
  83276195.795 9  79806449.979 9                
  23200338.500 6                                                 121918703.392 6
  95001546.53247                                  23200345.00947
  21868339.362 1  21868346.200 8  21868345.750 8                 114918957.858 1
  89547265.971 8  85816075.574 8                
  22914782.542 5  22914793.415 9  22914789.498 9                 120417957.983 5
  93832237.873 9  89922437.058 9                
  23437118.010 5  23437127.453 9  23437127.949 9                 123162860.603 5
  95971165.385 9  91972364.388 9                
  21089730.101 7  21089738.548 9  21089733.202 9                 110827247.764 7
  86358968.394 9  82760642.013 9                
  20987798.960 2                                                 111994906.071 2
                                                
  19662915.636 8  19662918.117 9                                 105257103.448 8
  81866857.351 9                                
  22166444.848 1  22166447.498 8                                 118700292.938 1
  92322535.583 8                                
  21582774.201 6  21582779.296 9                                 115250837.433 6
  89639574.594 9                                
  21124985.091 7  21124990.377 9                                 112845878.487 7
  87769042.263 9                                
  21286643.582 7  21286647.687 9                                 113629534.565 7
  88378539.645 9                                
  21342234.709 7                                                 114166585.753 7
                                                
 23  9 21 19  3 45.0000000  0 20E03E05E08E13E15E24G02G10G21G23G24G28
                                G32R06R07R08R09R16R22R23
  23529033.403 7                                                 123645898.837 7
                                                
  26810118.965 5                                                 140888108.961 5
                                                
  24460874.800 7                                                 128542769.843 7
                                                
  24687868.793 7                                                 129735627.098 7
                                                
  24923996.494 7                                                 130976474.882 7
                                                
  27341919.232 6                                                 143682764.008 6
                                                
  23840211.039 4                                                 125281115.916 4
  97621710.05046                                  23840217.24846
  20334403.617 7  20334411.045 9  20334404.335 9                 106857972.209 7
  83266023.642 9  79796701.645 9                
  23193723.054 6                                                 121883938.540 6
  94974457.06347                                  23193729.42947
  21872520.132 1  21872528.229 8  21872527.896 8                 114940931.485 1
  89564388.251 8  85832484.425 8                
  22920560.909 5  22920572.020 9  22920568.404 9                 120448325.681 5
  93855900.999 9  89945114.203 9                
  23423459.449 5  23423468.902 9  23423469.708 9                 123091085.364 5
  95915236.671 9  91918766.088 9                
  21082854.593 7  21082862.716 9  21082857.896 9                 110791116.969 7
  86330814.546 9  82733661.251 9                
  20991158.167 2                                                 112012830.189 2
                                                
  19658131.353 8  19658133.081 9                                 105231491.808 8
  81846937.138 9                                
  22155262.958 1  22155264.738 9                                 118640410.407 1
  92275960.234 9                                
  21570029.207 6  21570034.431 9                                 115182780.630 6
  89586641.573 9                                
  21122723.453 7  21122728.150 9                                 112833794.970 7
  87759643.990 9                                
  21292107.299 7  21292110.646 9                                 113658699.089 7
  88401223.134 9                                
  21336680.578 6                                                 114136874.398 6
                                                
 23  9 21 19  4  0.0000000  0 20E03E05E08E13E15E24G02G10G21G23G24G28
                                G32R06R07R08R09R16R22R23
  23528099.161 7                                                 123640990.305 7
                                                
  26813800.455 6                                                 140907455.608 6
                                                
  24453371.292 7                                                 128503339.957 7
                                                
  24683470.967 6                                                 129712516.200 6
                                                
  24927688.265 7                                                 130995875.393 7
                                                
  27338080.441 6                                                 143662590.654 6
                                                
  23831317.555 4                                                 125234380.831 4
  97585293.12246                                  23831323.96446
  20331935.136 7  20331942.825 9  20331935.648 9                 106845000.995 7
  83255916.211 9  79787015.336 9                
  23187124.003 5                                                 121849262.058 5
  94947436.45247                                  23187130.63447
  21876712.683 2  21876718.813 8  21876719.741 8                 114962959.097 2
  89581552.597 8  85848933.633 8                
  22926351.352 5  22926362.612 9  22926358.896 9                 120478754.666 5
  93879611.831 9  89967837.062 9                
  23409804.808 6  23409814.052 9  23409814.731 9                 123019328.878 6
  95859322.627 9  91865181.823 9                
  21075989.324 7  21075997.584 9  21075992.663 9                 110755038.507 7
  86302701.476 9  82706719.561 9                
  20994523.039 2                                                 112030787.667 2
                                                
  19653358.077 8  19653359.283 9                                 105205939.249 8
  81827062.934 9                                
  22144080.922 2  22144083.560 8                                 118580535.173 2
  92229390.665 8                                
  21557301.070 6  21557305.957 9                                 115114811.128 6
  89533776.464 9                                
  21120494.685 7  21120499.467 9                                 112821891.294 7
  87750385.572 9                                
  21297591.251 7  21297595.336 9                                 113687975.132 7
  88423993.341 9                                
  21331159.824 6                                                 114107344.592 6
                                                
 23  9 21 19  4 15.0000000  0 19E03E05E08E13E15E24G02G10G21G23G24G28
                                G32R06R07R09R16R22R23
  23527169.837 7                                                 123636107.498 7
                                                
  26817478.758 5                                                 140926786.492 5
                                                
  24445872.880 7                                                 128463932.825 7
                                                
  24679090.116 6                                                 129689494.594 6
                                                
  24931390.328 7                                                 131015328.674 7
                                                
  27334258.210 6                                                 143642501.782 6
                                                
  23822440.165 2                                                 125187726.920 2
  97548939.53146                                  23822445.51446
  20329482.934 7  20329490.983 9  20329483.845 9                 106832116.024 7
  83245875.979 9  79777393.446 9                
  23180543.144 5                                                 121814677.273 5
  94920487.30847                                  23180549.77647
  21880914.978 2  21880922.127 7  21880921.521 8                 114985043.865 2
  89598761.457 7  85865425.450 8                
  22932154.268 5  22932165.060 9  22932161.598 9                 120509247.714 5
  93903372.591 9  89990607.773 9                
  23396153.845 5  23396163.945 9  23396164.121 9                 122947594.679 5
  95803425.963 9  91811614.173 9                
  21069134.182 7  21069142.693 9  21069137.212 9                 110719015.603 7
  86274631.685 9  82679819.354 9                
  20997895.392 2                                                 112048781.813 2
                                                
  19648596.179 8  19648597.769 9                                 105180449.021 8
  81807237.175 9                                
  21544589.507 6  21544594.441 9                                 115046932.504 6
  89480982.045 9                                
  21118300.691 7  21118305.444 9                                 112810170.745 7
  87741269.601 9                                
  21303097.146 7  21303101.584 9                                 113717365.644 7
  88446852.565 9                                
  21325674.414 6                                                 114077999.886 6
                                                
 23  9 21 19  4 30.0000000  0 19E03E05E08E13E15E24G02G10G21G23G24G28
                                G32R06R07R09R16R22R23
  23526248.175 7                                                 123631263.146 7
                                                
  26821156.750 6                                                 140946114.389 6
                                                
  24438380.863 7                                                 128424561.229 7
                                                
  24674728.748 6                                                 129666575.164 6
                                                
  24935104.621 7                                                 131034847.291 7
                                                
  27330453.931 6                                                 143622510.200 6
                                                
  23813579.741 2                                                 125141167.337 2
  97512659.36745                                  23813585.19945
  20327049.583 7  20327057.947 9  20327050.839 9                 106819330.280 7
  83235913.038 9  79767845.652 9                
  23173981.377 5                                                 121780196.806 5
  94893619.42847                                  23173987.94447
  21885130.626 3  21885136.248 7  21885137.150 8                 115007198.355 3
  89616024.647 7  85881969.339 8                
  22937971.301 5  22937982.020 9  22937978.506 9                 120539817.211 5
  93927192.965 9  90013435.614 9                
  23382510.467 5  23382519.214 9  23382520.562 9                 122875895.820 5
  95747556.813 9  91758072.905 9                
  21062292.332 7  21062300.348 9  21062295.365 9                 110683061.064 7
  86246615.150 9  82652970.199 9                
  21001276.873 2                                                 112066825.419 2
                                                
  19643848.381 8  19643850.174 9                                 105155034.190 8
  81787470.114 9                                
  21531897.117 6  21531902.131 9                                 114979158.062 6
  89428268.665 9                                
  21116143.246 7  21116148.015 9                                 112798646.271 7
  87732306.121 9                                
  21308626.702 7  21308630.996 9                                 113746882.955 7
  88469810.428 9                                
  21320225.567 6                                                 114048853.231 6
                                                
 23  9 21 19  4 45.0000000  0 19E03E05E08E13E15E24G02G10G21G23G24G28
                                G32R06R07R09R16R22R23
  23525334.194 7                                                 123626460.513 7
                                                
  26824835.106 6                                                 140965442.561 6
                                                
  24430895.875 7                                                 128385228.501 7
                                                
  24670387.147 6                                                 129643761.334 6
                                                
  24938831.607 7                                                 131054434.423 7
                                                
  27326668.453 6                                                 143602619.268 6
                                                
  23804738.806 2                                                 125094705.691 2
  97476455.52945                                  23804743.71245
  20324636.246 7  20324644.360 9  20324637.221 9                 106806647.123 7
  83226030.058 9  79758374.466 9                
  23167440.466 6                                                 121745824.413 6
  94866835.74147                                  23167446.47747
  21889360.585 2  21889365.826 7  21889367.100 8                 115029425.869 2
  89633344.736 7  85898567.745 8                
  22943803.880 6  22943814.365 9  22943810.792 9                 120570466.223 6
  93951075.284 9  90036322.816 9                
  23368873.908 5  23368882.701 9  23368883.839 9                 122804235.955 5
  95691718.021 9  91704560.762 9                
  21055463.839 7  21055472.194 9  21055467.423 9                 110647178.246 7
  86218654.524 9  82626174.600 9                
  21004668.319 2                                                 112084921.870 2
                                                
  19639115.859 8  19639117.797 9                                 105129698.159 8
  81767764.302 9                                
  21519225.337 5  21519230.533 9                                 114911492.130 5
  89375639.648 9                                
  21114023.271 7  21114027.138 9                                 112787320.991 7
  87723497.590 9                                
  21314180.735 7  21314184.420 9                                 113776529.924 7
  88492869.119 9                                
  21314814.481 6                                                 114019908.278 6
                                                
 23  9 21 19  5  0.0000000  0 20E03E05E08E13E15E24G02G10G21G23G24G28
                                G32R06R07R08R09R16R22R23
  23524426.234 7                                                 123621689.645 7
                                                
  26828511.610 6                                                 140984761.114 6
                                                
  24423416.561 7                                                 128345924.810 7
                                                
  24666064.008 6                                                 129621043.291 6
                                                
  24942570.138 6                                                 131074079.999 6
                                                
  27322900.549 6                                                 143582819.210 6
                                                
  23795913.986 2                                                 125048332.180 2
  97440320.38345                                  23795918.83545
  20322240.603 7  20322248.489 9  20322241.382 9                 106794056.948 7
  83216219.526 9  79748972.710 9                
  23160918.148 6                                                 121711550.550 6
  94840128.83447                                  23160925.49447
  21893602.167 4  21893609.032 8  21893609.600 8                 115051716.438 4
  89650713.939 8  85915213.193 8                
  22949649.026 5  22949660.559 9  22949656.101 9                 120601184.481 5
  93975011.558 9  90059261.738 9                
  23355243.195 5  23355252.347 9  23355253.033 9                 122732605.543 5
  95635902.145 9  91651070.613 9                
  21048647.414 7  21048656.046 9  21048650.705 9                 110611357.275 7
  86190742.098 9  82599425.193 9                
  21008067.590 3                                                 112103061.027 3
                                                
  19634395.325 8  19634397.401 9                                 105104430.945 8
  81748112.045 9                                
  22099391.176 1  22099394.050 8                                 118341219.38411
  92043257.995 8                                
  21506572.145 6  21506577.941 9                                 114843924.920 6
  89323087.463 9                                
  21111938.641 7  21111943.275 9                                 112776185.230 7
  87714836.448 9                                
  21319757.230 7  21319760.806 9                                 113806296.131 7
  88516020.549 9                                
  21309439.603 7                                                 113991155.181 7
                                                
 23  9 21 19  5 15.0000000  0 19E03E05E08E13E15E24G02G10G21G23G24G28
                                G32R06R07R09R16R22R23
  23523523.768 7                                                 123616945.881 7
                                                
  26832185.148 6                                                 141004065.316 6
                                                
  24415942.154 7                                                 128306645.511 7
                                                
  24661758.108 6                                                 129598416.454 6
                                                
  24946318.899 7                                                 131093779.175 7
                                                
  27319149.013 6                                                 143563105.453 6
                                                
  23787104.943 2                                                 125002042.565 2
  97404250.58646                                  23787109.59046
  20319861.649 7  20319869.086 9  20319862.579 9                 106781555.011 7
  83206477.771 9  79739636.854 9                
  23154414.048 6                                                 121677370.451 6
  94813495.02147                                  23154421.23747
  21897855.130 4  21897862.560 8  21897861.554 8                 115074065.212 4
  89668128.546 8  85931902.174 8                
  22955507.091 5  22955518.589 9  22955514.032 9                 120631967.052 5
  93998997.901 9  90082248.661 9                
  23341616.612 5  23341626.880 9  23341626.845 9                 122661000.159 5
  95580105.832 9  91597599.168 9                
  21041841.686 7  21041850.264 9  21041845.081 9                 110575593.594 7
  86162874.293 9  82572718.554 9                
  21011473.979 3                                                 112121238.297 3
                                                
  19629687.192 8  19629689.154 9                                 105079227.732 8
  81728509.525 9                                
  21493936.449 6  21493942.191 9                                 114776452.007 6
  89270608.600 9                                
  21109888.532 7  21109892.313 9                                 112765233.918 7
  87706318.722 9                                
  21325354.728 7  21325358.394 9                                 113836176.252 7
  88539260.656 9                                
  21304099.751 7                                                 113962589.361 7
                                                
 23  9 21 19  5 30.0000000  0 20E03E05E08E13E15E24G02G10G21G23G24G28
                                G32R06R07R08R09R16R22R23
  23522626.551 7                                                 123612230.030 7
                                                
  26835855.931 6                                                 141023356.070 6
                                                
  24408472.289 7                                                 128267391.519 7
                                                
  24657469.757 6                                                 129575881.796 6
                                                
  24950077.783 6                                                 131113532.695 6
                                                
  27315414.442 6                                                 143543478.920 6
                                                
  23778312.661 3                                                 124955838.032 3
  97368247.10646                                  23778317.64146
  20317499.068 7  20317506.897 9  20317500.823 9                 106769142.272 7
  83196805.516 9  79730367.593 9                
  23147927.433 6                                                 121643285.154 6
  94786935.07747                                  23147934.14547
  21902119.205 4  21902126.932 8  21902125.554 8                 115096473.119 4
  89685589.221 8  85948635.274 8                
  22961376.615 5  22961388.646 9  22961383.977 9                 120662814.403 5
  94023034.738 9  90105283.986 9                
  23327995.983 5  23328005.041 9  23328005.350 9                 122589421.096 5
  95524330.034 9  91544147.367 9                
  21035047.604 7  21035055.971 9  21035050.596 9                 110539888.070 7
  86135051.840 9  82546055.352 9                
  21014887.818 3                                                 112139454.404 3
                                                
  19624991.380 8  19624992.790 9                                 105054089.809 8
  81708957.814 9                                
  22077068.127 1  22077068.276 8                                 118221673.52611
  91950273.170 8                                
  21481318.866 6  21481324.261 9                                 114709075.486 6
  89218204.689 9                                
  21107873.009 7  21107877.409 9                                 112754468.021 7
  87697945.254 9                                
  21330973.544 7  21330977.133 9                                 113866170.745 7
  88562589.617 9                                
  21298794.754 6                                                 113934211.787 6
                                                
 23  9 21 19  5 45.0000000  0 19E03E05E08E13E15E24G02G10G21G23G24G28
                                G32R06R07R09R16R22R23
  23521734.919 7                                                 123607544.595 7
                                                
  26839525.104 6                                                 141042635.858 6
                                                
  24401007.899 7                                                 128228165.391 7
                                                
  24653199.814 7                                                 129553441.987 7
                                                
  24953847.508 6                                                 131133342.897 6
                                                
  27311696.962 6                                                 143523942.196 6
                                                
  23769537.744 4                                                 124909721.220 4
  97332311.93146                                  23769542.34246
  20315154.814 7  20315162.318 9  20315156.176 9                 106756821.615 7
  83187204.986 9  79721167.093 9                
  23141460.085 6                                                 121609297.367 6
  94760451.09247                                  23141466.23547
  21906395.287 2  21906403.045 8  21906401.441 8                 115118942.519 2
  89703097.781 8  85965414.313 8                
  22967259.519 5  22967271.317 9  22967266.940 9                 120693728.776 5
  94047123.807 9  90128369.351 9                
  23314380.050 5  23314389.369 9  23314390.007 9                 122517871.183 5
  95468576.969 9  91490717.345 9                
  21028264.260 7  21028272.980 9  21028267.835 9                 110504243.328 7
  86107276.720 9  82519437.546 9                
  21018309.535 3                                                 112157711.840 3
                                                
  19620308.177 8  19620309.212 9                                 105029019.501 8
  81689458.689 9                                
  21468720.341 6  21468725.587 9                                 114641798.230 6
  89165877.996 9                                
  21105893.061 7  21105897.600 9                                 112743890.205 7
  87689718.086 9                                
  21336614.328 7  21336618.557 9                                 113896281.676 7
  88586009.164 9                                
  21293525.543 6                                                 113906025.186 6
                                                
 23  9 21 19  6  0.0000000  0 19E03E05E08E13E15E24G02G10G21G23G24G28
                                G32R06R07R09R16R22R23
  23520849.406 7                                                 123602892.585 7
                                                
  26843192.481 6                                                 141061907.726 6
                                                
  24393549.154 7                                                 128188970.202 7
                                                
  24648948.285 6                                                 129531100.172 6
                                                
  24957628.533 6                                                 131153212.685 6
                                                
  27307996.875 5                                                 143504498.478 5
                                                
  23760779.113 4                                                 124863695.412 4
  97296447.68546                                  23760783.63746
  20312828.694 7  20312836.405 9  20312829.470 9                 106744596.170 7
  83177678.650 9  79712037.701 9                
  23135011.397 6                                                 121575410.354 6
  94734045.65547                                  23135018.59447
  21910683.039 2  21910690.713 8  21910690.621 8                 115141476.330 2
  89720656.699 8  85982241.562 8                
  22973155.704 5  22973167.474 9  22973163.355 9                 120724712.908 5
  94071267.263 9  90151506.832 9                
  23300770.690 5  23300779.978 9  23300781.032 9                 122446353.881 5
  95412849.300 9  91437311.641 9                
  21021493.681 7  21021502.125 9  21021496.808 9                 110468662.460 7
  86079551.392 9  82492867.438 9                
  21021739.222 2                                                 112176013.562 2
                                                
  19615637.674 8  19615638.928 9                                 105004020.147 8
  81670014.750 9                                
  21456140.702 6  21456145.844 9                                 114574623.867 6
  89113631.358 9                                
  21103948.333 7  21103952.693 9                                 112733503.399 7
  87681639.467 9                                
  21342277.575 7  21342281.608 9                                 113926511.681 7
  88609521.319 9                                
  21288292.664 7                                                 113878032.813 7
                                                
 23  9 21 19  6 15.0000000  0 19E03E05E08E13E15E24G02G10G21G23G24G28
                                G32R06R07R09R16R22R23
  23519969.693 7                                                 123598270.651 7
                                                
  26846858.205 6                                                 141081168.320 6
                                                
  24386095.525 7                                                 128149802.678 7
                                                
  24644714.729 7                                                 129508853.095 7
                                                
  24961420.827 6                                                 131173138.578 6
                                                
  27304313.553 5                                                 143485144.465 5
                                                
  23752036.992 4                                                 124817757.470 4
  97260651.93845                                  23752041.66145
  20310519.650 7  20310527.607 9  20310520.428 9                 106732462.552 7
  83168223.869 9  79702976.892 9                
  23128581.696 5                                                 121541620.895 5
  94707716.22647                                  23128588.70247
  21914982.784 3  21914990.850 8  21914990.308 8                 115164071.311 3
  89738263.153 8  85999114.396 8                
  22979064.357 5  22979076.294 9  22979072.502 9                 120755763.127 5
  94095462.223 9  90174693.664 9                
  23287166.886 5  23287176.412 9  23287177.145 9                 122374866.109 5
  95357144.618 9  91383928.017 9                
  21014734.429 7  21014742.999 9  21014737.332 9                 110433142.188 7
  86051873.294 9  82466342.570 9                
  21025176.700 2                                                 112194356.434 2
                                                
  19610980.179 8  19610981.982 9                                 104979088.381 8
  81650623.383 9                                
  21443579.892 6  21443584.493 9                                 114507549.635 6
  89061462.567 9                                
  21102038.982 7  21102043.692 9                                 112723304.282 7
  87673706.843 9                                
  21347962.834 7  21347966.855 9                                 113956856.770 7
  88633122.973 9                                
  21283095.121 6                                                 113850231.552 6
                                                
 23  9 21 19  6 30.0000000  0 20E03E05E08E13E15E24G02G10G21G23G24G28
                                G32R06R07R08R09R16R22R23
  23519096.766 7                                                 123593681.747 7
                                                
  26850521.750 6                                                 141100420.623 6
                                                
  24378648.069 7                                                 128110665.863 7
                                                
  24640499.852 7                                                 129486703.892 7
                                                
  24965223.421 6                                                 131193123.395 6
                                                
  27300648.018 6                                                 143465883.219 6
                                                
  23743312.743 4                                                 124771910.945 4
  97224927.39146                                  23743317.07346
  20308228.676 7  20308236.625 9  20308229.701 9                 106720423.938 7
  83158843.125 9  79693987.005 9                
  23122171.049 6                                                 121507932.265 6
  94681465.36347                                  23122177.27847
  21919294.292 3  21919303.082 7  21919301.961 8                 115186730.330 3
  89755919.455 7  86016035.014 8                
  22984986.424 5  22984998.136 9  22984994.320 9                 120786882.156 5
  94119710.757 9  90197931.811 9                
  23273569.507 5  23273579.020 9  23273579.426 9                 122303411.192 5
  95301465.568 9  91330568.962 9                
  21007987.192 7  21007995.959 9  21007990.189 9                 110397685.589 7
  86024244.749 9  82439865.237 9                
  21028621.891 2                                                 112212743.219 2
                                                
  19606336.004 8  19606337.320 9                                 104954227.249 8
  81631286.936 9                                
  22032452.094 1  22032455.436 8                                 117982785.89711
  91764462.661 8                                
  21431038.067 6  21431043.320 9                                 114440579.117 6
  89009374.464 9                                
  21100165.500 7  21100169.982 9                                 112713295.684 7
  87665922.343 9                                
  21353668.800 7  21353672.555 9                                 113987319.731 7
  88656816.356 9                                
  21277934.261 7                                                 113822624.598 7
                                                
 23  9 21 19  6 45.0000000  0 20E03E05E08E13E15E24G02G10G21G23G24G28
                                G32R06R07R08R09R16R22R23
  23518231.170 7                                                 123589133.174 7
                                                
  26854184.663 6                                                 141119671.950 6
                                                
  24371207.809 7                                                 128071567.115 7
                                                
  24636305.482 6                                                 129464660.029 6
                                                
  24969039.080 6                                                 131213174.326 6
                                                
  27297002.144 5                                                 143446722.213 5
                                                
  23734607.641 3                                                 124726163.521 3
  97189280.05446                                  23734612.01246
  20305957.306 7  20305965.443 9  20305958.331 9                 106708487.724 7
  83149542.185 9  79685073.599 9                
  23115780.582 6                                                 121474351.941 6
  94655298.89147                                  23115787.45547
  21923620.738 3  21923626.384 7  21923627.421 8                 115209460.577 3
  89773631.195 7  86033008.863 8                
  22990922.753 5  22990934.125 9  22990930.324 9                 120818076.958 5
  94144018.344 9  90221226.581 9                
  23259979.488 5  23259989.136 9  23259988.953 9                 122231996.844 5
  95245818.098 9  91277240.186 9                
  21001253.204 7  21001262.207 9  21001256.680 9                 110362300.008 7
  85996671.576 9  82413440.952 9                
  21032077.647 3                                                 112231181.375 3
                                                
  19601706.245 8  19601707.883 9                                 104929444.498 8
  81612011.500 9                                
  22021310.793 1  22021313.920 9                                 117923116.160 1
  91718053.011 9                                
  21418517.352 6  21418522.420 9                                 114373720.115 6
  88957373.094 9                                
  21098328.804 7  21098333.669 9                                 112703485.180 7
  87658291.949 9                                
  21359399.077 7  21359402.323 9                                 114017907.216 7
  88680606.581 9                                
  21272811.272 7                                                 113795219.518 7
                                                
 23  9 21 19  7  0.0000000  0 20E03E05E08E13E15E24G02G10G21G23G24G28
                                G32R06R07R08R09R16R22R23
  23517372.798 7                                                 123584623.299 7
                                                
  26857847.963 6                                                 141138920.669 6
                                                
  24363774.381 7                                                 128032504.886 7
                                                
  24632130.723 6                                                 129442719.964 6
                                                
  24972866.678 6                                                 131233289.595 6
                                                
  27293374.510 6                                                 143427659.897 6
                                                
  23725920.502 3                                                 124680513.649 3
  97153708.85445                                  23725924.86545
  20303705.189 7  20303713.114 9  20303706.009 9                 106696652.689 7
  83140320.072 9  79676235.741 9                
  23109410.907 6                                                 121440878.458 6
  94629215.67747                                  23109417.87147
  21927958.753 4  21927966.218 8  21927965.667 8                 115232260.363 4
  89791397.289 8  86050034.636 8                
  22996872.848 5  22996884.115 9  22996880.433 9                 120849345.614 5
  94168383.484 9  90244576.485 9                
  23246397.414 5  23246406.523 9  23246406.853 9                 122160621.741 5
  95190201.233 9  91223940.739 9                
  20994532.732 7  20994541.883 9  20994536.364 9                 110326983.896 7
  85969152.556 9  82387068.561 9                
  21035542.376 2                                                 112249669.250 2
                                                
  19597090.947 8  19597092.333 9                                 104904738.570 8
  81592795.773 9                                
  22010171.018 1  22010174.304 9                                 117863471.82811
  91671662.986 9                                
  21406017.768 6  21406022.627 9                                 114306971.992 6
  88905457.961 9                                
  21096529.193 7  21096534.073 9                                 112693871.142 7
  87650814.362 9                                
  21365152.589 7  21365156.302 9                                 114048617.432 7
  88704492.235 9                                
  21267725.783 7                                                 113768014.956 7
                                                
 23  9 21 19  7 15.0000000  0 20E03E05E08E13E15E24G02G10G21G23G24G28
                                G32R06R07R08R09R16R22R23
  23516521.925 7                                                 123580151.683 7
                                                
  26861509.921 6                                                 141158166.401 6
                                                
  24356348.004 7                                                 127993478.766 7
                                                
  24627975.227 6                                                 129420883.421 6
                                                
  24976706.725 6                                                 131253468.645 6
                                                
  27289765.544 6                                                 143408695.968 6
                                                
  23717252.465 2                                                 124634961.207 2
  97118213.41246                                  23717256.78946
  20301472.255 7  20301480.328 9  20301473.113 9                 106684918.499 7
  83131176.548 9  79667473.194 9                
  23103061.338 6                                                 121407511.579 6
  94603215.53447                                  23103068.57347
  21932310.683 4  21932318.564 8  21932316.740 8                 115255129.257 4
  89809217.149 8  86067112.001 8                
  23002837.002 5  23002848.216 9  23002844.431 9                 120880687.416 5
  94192805.644 9  90267981.043 9                
  23232822.592 5  23232831.880 9  23232832.338 9                 122089285.940 5
  95134614.988 9  91170670.569 9                
  20987825.458 7  20987834.535 9  20987828.853 9                 110291736.934 7
  85941687.409 9  82360747.794 9                
  21039015.890 2                                                 112268206.462 2
                                                
  19592489.875 8  19592491.331 9                                 104880109.048 8
  81573639.475 9                                
  21999037.999 1  21999041.356 8                                 117803853.304 1
  91625293.025 8                                
  21393538.417 6  21393543.157 9                                 114240334.369 6
  88853628.789 9                                
  21094766.385 7  21094771.038 9                                 112684453.038 7
  87643489.169 9                                
  21370928.510 7  21370931.820 9                                 114079449.271 7
  88728472.503 9                                
  21262677.683 7                                                 113741010.606 7
                                                
 23  9 21 19  7 30.0000000  0 20E03E05E08E13E15E24G02G10G21G23G24G28
                                G32R06R07R08R09R16R22R23
  23515678.465 7                                                 123575720.175 7
                                                
  26865171.635 5                                                 141177410.971 5
                                                
  24348928.961 7                                                 127954490.736 7
                                                
  24623839.905 6                                                 129399152.363 6
                                                
  24980558.747 6                                                 131273713.169 6
                                                
  27286176.562 6                                                 143389832.292 6
                                                
  23708602.333 1                                                 124589508.317 1
  97082795.59446                                  23708607.47446
  20299258.959 7  20299266.888 9  20299260.049 9                 106673287.059 7
  83122113.072 9  79658787.366 9                
  23096732.162 5                                                 121374253.419 5
  94577300.09047                                  23096739.94547
  21936676.501 4  21936683.663 8  21936682.105 8                 115278069.074 4
  89827092.298 8  86084242.324 8                
  23008815.334 5  23008826.988 9  23008822.717 9                 120912103.924 5
  94217285.987 9  90291441.368 9                
  23219255.586 5  23219265.335 9  23219265.496 9                 122017991.542 5
  95079061.007 9  91117431.335 9                
  20981131.894 7  20981140.701 9  20981134.859 9                 110256561.072 7
  85914277.659 9  82334480.105 9                
  21042499.526 2                                                 112286794.896 2
                                                
  19587903.572 8  19587905.493 9                                 104855557.875 8
  81554544.135 9                                
  21987909.271 1  21987913.059 8                                 117744261.979 1
  91578944.290 8                                
  21381080.561 6  21381084.876 9                                 114173810.197 6
  88801887.786 9                                
  21093040.231 7  21093044.592 9                                 112675232.651 7
  87636317.777 9                                
  21376726.675 6  21376731.015 9                                 114110404.277 6
  88752548.548 9                                
  21257667.039 6                                                 113714208.332 6
                                                
 23  9 21 19  7 45.0000000  0 20E03E05E08E13E15E24G02G10G21G23G24G28
                                G32R06R07R08R09R16R22R23
  23514841.065 7                                                 123571319.978 7
                                                
  26868831.634 5                                                 141196645.667 5
                                                
  24341515.464 7                                                 127915532.052 7
                                                
  24619722.682 7                                                 129377518.142 7
                                                
  24984422.128 6                                                 131294014.267 6
                                                
  27282604.150 6                                                 143371060.289 6
                                                
  23699970.375 3                                                 124544146.581 3
  97047448.82546                                  23699974.97146
  20297063.291 7  20297071.566 9  20297064.863 9                 106661749.689 7
  83113122.924 9  79650171.789 9                
  23090422.789 6                                                 121341095.307 6
  94551462.61547                                  23090429.59947
  21941052.905 4  21941061.078 8  21941059.229 8                 115301070.886 4
  89845015.770 8  86101418.978 8                
  23014806.451 5  23014817.565 9  23014813.480 9                 120943586.063 5
  94241817.455 9  90314950.715 9                
  23205694.677 5  23205704.325 9  23205704.504 9                 121946730.125 5
  95023532.760 9  91064216.777 9                
  20974450.175 7  20974458.725 9  20974452.915 9                 110221447.580 7
  85886916.501 9  82308258.999 9                
  21045990.264 2                                                 112305425.644 2
                                                
  19583330.394 8  19583332.013 9                                 104831076.372 8
  81535502.981 9                                
  21976785.647 1  21976786.899 8                                 117684689.454 1
  91532609.984 8                                
  21368642.289 7  21368646.749 9                                 114107390.937 7
  88750228.444 9                                
  21091349.581 7  21091354.239 9                                 112666201.376 7
  87629293.453 9                                
  21382547.340 7  21382551.195 9                                 114141473.003 7
  88776713.047 9                                
  21252692.794 6                                                 113687599.476 6
                                                
 23  9 21 19  8  0.0000000  0 20E03E05E08E13E15E24G02G10G21G23G24G28
                                G32R06R07R08R09R16R22R23
  23514009.349 7                                                 123566948.339 7
                                                
  26872489.304 5                                                 141215867.675 5
                                                
  24334106.806 7                                                 127876600.028 7
                                                
  24615623.569 7                                                 129355978.100 7
                                                
  24988295.295 6                                                 131314369.048 6
                                                
  27279048.547 5                                                 143352377.231 5
                                                
  23691355.274 3                                                 124498873.425 3
  97012171.05246                                  23691359.81046
  20294885.305 7  20294893.557 9  20294886.696 9                 106650303.969 7
  83104204.183 9  79641624.652 9                
  23084131.166 6                                                 121308034.701 6
  94525701.11847                                  23084137.42547
  21945441.601 4  21945449.133 8  21945448.225 8                 115324131.999 4
  89862985.400 8  86118639.858 8                
  23020808.972 5  23020820.484 9  23020816.319 9                 120975130.757 5
  94266397.699 9  90338506.775 9                
  23192139.638 5  23192149.400 9  23192149.399 9                 121875499.310 5
  94968028.344 9  91011025.072 9                
  20967779.450 7  20967788.300 9  20967782.466 9                 110186393.753 7
  85859601.843 9  82282082.446 9                
  21049489.507 2                                                 112324095.813 2
                                                
  19578769.463 8  19578771.100 9                                 104806661.686 8
  81516513.788 9                                
  21965664.113 1  21965664.320 8                                 117625132.891 1
  91486288.253 8                                
  21356223.528 7  21356228.272 9                                 114041074.525 7
  88698649.090 9                                
  21089693.443 7  21089698.516 9                                 112657356.172 7
  87622413.850 9                                
  21388388.230 7  21388392.434 9                                 114172652.115 7
  88800963.453 9                                
  21247754.096 5                                                 113661181.443 5
                                                
 23  9 21 19  8 15.0000000  0 20E03E05E08E13E15E24G02G10G21G23G24G28
                                G32R06R07R08R09R16R22R23
  23513183.083 7                                                 123562605.871 7
                                                
  26876145.212 5                                                 141235077.628 5
                                                
  24326703.403 7                                                 127837695.339 7
                                                
  24611542.843 7                                                 129334533.004 7
                                                
  24992179.290 6                                                 131334777.978 6
                                                
  27275509.812 5                                                 143333783.886 5
                                                
  23682757.259 4                                                 124453689.770 4
  96976963.04646                                  23682762.86646
  20292724.531 7  20292733.185 9  20292725.953 9                 106638950.420 7
  83095357.243 9  79633146.353 9                
  23077858.662 6                                                 121275072.425 6
  94500016.27047                                  23077864.71247
  21949841.454 5  21949848.914 8  21949848.550 8                 115347252.886 5
  89881001.643 8  86135905.439 8                
  23026823.948 5  23026835.619 9  23026831.287 9                 121006738.353 5
  94291026.945 9  90362109.794 9                
  23178591.511 5  23178600.187 9  23178600.351 9                 121804300.100 5
  94912548.566 9  90957856.987 9                
  20961120.518 7  20961129.203 9  20961123.325 9                 110151400.334 7
  85832334.242 9  82255951.008 9                
  21052996.048 3                                                 112342806.013 3
                                                
  19574221.253 8  19574222.693 9                                 104782314.762 8
  81497577.287 9                                
  21954544.703 1  21954546.300 8                                 117565592.970 1
  91439979.486 8                                
  21343824.250 7  21343828.098 9                                 113974861.825 7
  88647150.396 9                                
  21088072.501 7  21088076.821 9                                 112648697.724 7
  87615679.488 9                                
  21394250.736 7  21394254.446 9                                 114203941.899 7
  88825299.881 9                                
  21242851.837 6                                                 113634955.070 6
                                                
 23  9 21 19  8 30.0000000  0 19E03E05E08E13E15E24G02G10G21G23G24G28
                                G32R06R07R09R16R22R23
  23512363.485 7                                                 123558299.590 7
                                                
  26879799.766 5                                                 141254282.604 5
                                                
  24319306.827 7                                                 127798825.081 7
                                                
  24607481.498 7                                                 129313189.999 7
                                                
  24996074.847 6                                                 131355247.951 6
                                                
  27271990.000 5                                                 143315287.354 5
                                                
  23674176.725 4                                                 124408602.990 4
  96941830.53046                                  23674183.48346
  20290583.102 8  20290591.441 9  20290584.456 9                 106627696.233 8
  83086587.738 9  79624742.261 9                
  23071606.162 6                                                 121242215.606 6
  94474413.58247                                  23071612.57947
  21954253.934 4  21954261.809 8  21954261.413 8                 115370440.546 4
  89899069.918 8  86153220.867 8                
  23032851.959 5  23032863.871 9  23032859.449 9                 121038415.560 5
  94315710.444 9  90385764.799 9                
  23165049.901 5  23165059.192 9  23165058.710 9                 121733139.934 5
  94857099.141 9  90904717.997 9                
  20954474.268 7  20954482.957 9  20954477.063 9                 110116474.425 7
  85805119.265 9  82229869.986 9                
  21056511.379 3                                                 112361563.411 3
                                                
  19569686.725 8  19569688.156 9                                 104758042.459 8
  81478698.821 9                                
  21331445.247 7  21331449.615 9                                 113908760.891 7
  88595738.643 9                                
  21086487.897 7  21086492.284 9                                 112640232.804 7
  87609095.649 9                                
  21400133.752 7  21400137.788 9                                 114235349.005 7
  88849727.592 9                                
  21237985.790 7                                                 113608927.716 7
                                                
 23  9 21 19  8 45.0000000  0 20E03E05E08E13E15E24G02G10G21G23G24G28
                                G32R06R07R08R09R16R22R23
  23511552.339 7                                                 123554037.484 7
                                                
  26883455.397 5                                                 141273490.570 5
                                                
  24311918.000 7                                                 127759997.273 7
                                                
  24603441.310 7                                                 129291957.188 7
                                                
  24999983.159 6                                                 131375786.807 6
                                                
  27268490.281 5                                                 143296895.718 5
                                                
  23665617.514 5                                                 124363621.364 5
  96906779.94046                                  23665623.60746
  20288462.303 7  20288470.004 9  20288463.576 9                 106616549.716 7
  83077902.119 9  79616418.554 9                
  23065375.989 5                                                 121209472.501 5
  94448899.50547                                  23065382.09347
  21958680.550 4  21958688.397 8  21958687.255 8                 115393702.938 4
  89917196.405 8  86170592.072 8                
  23038894.781 5  23038906.760 9  23038902.317 9                 121070170.064 5
  94340454.170 9  90409477.512 9                
  23151517.575 6  23151527.152 9  23151526.639 9                 121662027.041 6
  94801686.614 9  90851614.323 9                
  20947842.282 7  20947851.232 9  20947845.135 9                 110081624.050 7
  85777963.140 9  82203845.365 9                
  21060036.593 3                                                 112380376.003 3
                                                
  19565167.979 8  19565170.230 9                                 104733853.261 8
  81459885.032 9                                
  21932319.934 1  21932324.770 8                                 117446590.46711
  91347424.576 8                                
  21319089.337 7  21319093.225 9                                 113842780.188 7
  88544420.402 9                                
  21084941.046 7  21084945.265 9                                 112631969.928 7
  87602668.951 9                                
  21406040.901 7  21406045.316 9                                 114266881.020 7
  88874252.409 9                                
  21233158.387 7                                                 113583107.503 7
                                                
 23  9 21 19  9  0.0000000  0 19E03E05E08E13E15E24G02G10G21G23G24G28
                                G32R06R07R09R16R22R23
  23510748.679 7                                                 123549812.988 7
                                                
  26887109.771 5                                                 141292695.011 5
                                                
  24304536.288 7                                                 127721205.459 7
                                                
  24599420.748 7                                                 129270828.171 7
                                                
  25003903.203 7                                                 131396387.841 7
                                                
  27265009.119 5                                                 143278602.496 5
                                                
  23657076.600 4                                                 124318738.557 4
  96871806.36846                                  23657082.50846
  20286360.316 7  20286368.258 9  20286361.804 9                 106605504.398 7
  83069295.372 9  79608170.410 9                
  23059165.122 6                                                 121176836.638 6
  94423468.97647                                  23059171.48047
  21963120.021 4  21963128.257 8  21963127.087 8                 115417033.419 4
  89935375.994 8  86188014.129 8                
  23044950.655 5  23044962.301 9  23044958.496 9                 121101995.049 5
  94365252.806 9  90433242.831 9                
  23137993.018 6  23138002.454 9  23138002.204 9                 121590955.301 6
  94746306.162 9  90798541.383 9                
  20941224.025 7  20941232.639 9  20941226.712 9                 110046842.779 7
  85750860.882 9  82177872.363 9                
  21063571.129 2                                                 112399237.256 2
                                                
  19560663.647 8  19560665.878 9                                 104709740.674 8
  81441130.811 9                                
  21306754.663 7  21306758.651 9                                 113776913.841 7
  88493191.113 9                                
  21083431.098 7  21083435.327 9                                 112623902.138 7
  87596394.014 9                                
  21411970.075 7  21411974.425 9                                 114298530.934 7
  88898868.933 9                                
  21228369.934 7                                                 113557488.120 7
                                                
 23  9 21 19  9 15.0000000  0 20E03E05E08E13E15E24G02G10G21G23G24G28
                                G32R06R07R08R09R16R22R23
  23509953.193 7                                                 123545631.822 7
                                                
  26890764.773 5                                                 141311901.642 5
                                                
  24297162.430 7                                                 127682455.450 7
                                                
  24595420.556 6                                                 129249808.786 6
                                                
  25007836.866 6                                                 131417056.715 6
                                                
  27261548.440 5                                                 143260413.591 5
                                                
  23648555.919 4                                                 124273960.683 4
  96836914.56946                                  23648561.46546
  20284278.490 7  20284286.843 9  20284280.186 9                 106594566.214 7
  83060772.102 9  79600002.278 9                
  23052976.414 6                                                 121144314.100 6
  94398126.77047                                  23052982.97447
  21967573.841 4  21967582.026 8  21967580.627 8                 115440437.661 4
  89953613.021 8  86205491.270 8                
  23051021.141 5  23051032.983 9  23051028.564 9                 121133895.953 5
  94390110.625 9  90457064.860 9                
  23124477.395 6  23124486.662 9  23124486.867 9                 121519930.799 6
  94690962.471 9  90745503.714 9                
  20934619.169 7  20934628.231 9  20934622.032 9                 110012136.408 7
  85723816.970 9  82151955.284 9                
  21067115.667 2                                                 112418152.926 2
                                                
  19556174.666 8  19556176.914 9                                 104685710.637 8
  81422440.791 9                                
  21910123.604 4  21910124.893 8                                 117327700.04514
  91254959.715 8                                
  21294442.380 7  21294446.788 9                                 113711168.062 7
  88442055.598 9                                
  21081957.853 7  21081962.770 9                                 112616035.455 7
  87590275.486 9                                
  21417921.763 7  21417925.643 9                                 114330304.078 7
  88923581.308 9                                
  21223619.503 6                                                 113532075.387 6
                                                
 23  9 21 19  9 30.0000000  0 20E03E05E08E13E15E24G02G10G21G23G24G28
                                G32R06R07R08R09R16R22R23
  23509164.082 7                                                 123541485.385 7
                                                
  26894418.462 5                                                 141331101.910 5
                                                
  24289794.887 7                                                 127643738.668 7
                                                
  24591440.002 7                                                 129228890.547 7
                                                
  25011780.868 6                                                 131437784.594 6
                                                
  27258105.399 5                                                 143242320.411 5
                                                
  23640052.619 4                                                 124229279.439 4
  96802098.04846                                  23640058.40746
  20282215.979 7  20282223.933 9  20282217.061 9                 106583726.621 7
  83052325.661 9  79591907.758 9                
  23046807.262 6                                                 121111896.426 6
  94372866.26547                                  23046814.19547
  21972039.555 5  21972048.010 8  21972046.126 8                 115463906.998 5
  89971900.734 8  86223017.021 8                
  23057104.317 5  23057116.177 9  23057111.661 9                 121165863.833 5
  94415020.610 9  90480936.914 9                
  23110969.286 6  23110978.220 9  23110978.783 9                 121448945.248 6
  94635649.163 9  90692495.154 9                
  20928027.472 7  20928036.616 9  20928030.417 9                 109977496.394 7
  85696824.765 9  82126087.760 9                
  21070668.619 2                                                 112437114.285 2
                                                
  19551699.681 8  19551701.659 9                                 104661754.396 8
  81403808.142 9                                
  21899029.375 4  21899032.372 9                                 117268297.567 4
  91208757.936 9                                
  21282151.225 7  21282155.718 9                                 113645534.816 7
  88391007.576 9                                
  21080521.616 7  21080525.293 9                                 112608360.915 7
  87584306.374 9                                
  21423895.859 7  21423900.377 9                                 114362191.121 7
  88948382.266 9                                
  21218905.879 6                                                 113506860.721 6
                                                
